Date of Sale (dd/mm/yyyy),Address,County,Eircode,Price (???),Not Full Market Price,VAT Exclusive,VAT Exclusive,Description of Property,Property Size Description,lat,lng
14/10/2021,"52 CEDAR BROOK WAY, CHERRY ORCHARD, DUBLIN 10",Dublin,D10T841,165000,No,No,0,Second-Hand Dwelling house /Apartment,,53.3370207,-6.3794062
11/6/2021,"4 Curragh Ard, Kanturk",Cork,,245120,No,Yes,1,New Dwelling house /Apartment,,52.1889663,-8.910728
5/2/2021,"9 ESMONDALE, NAAS, KILDARE",Kildare,,250000,No,No,0,Second-Hand Dwelling house /Apartment,,53.2046808,-6.667875
25/06/2021,"161 CRUISE PARK DR, TYRRELSTOWN, DUBLIN 15",Dublin,D15X653,272000,No,No,0,Second-Hand Dwelling house /Apartment,,53.4205557,-6.3969417
9/4/2021,"75 HIGHFIELD PARK, DUNDRUM, DUBLIN 14",Dublin,,850000,No,No,0,Second-Hand Dwelling house /Apartment,,53.2994717,-6.2500332
16/08/2021,"55 GLENSIDE, BALLYCARNANE WOODS, TRAMORE",Waterford,X91T2N1,320000,No,No,0,Second-Hand Dwelling house /Apartment,,52.1633954,-7.1693224
17/12/2021,"81 THE SPIRES, CARRIGNAFOY, COBH",Cork,P24AT80,280000,No,No,0,Second-Hand Dwelling house /Apartment,,51.85722,-8.29917
30/06/2021,"HILL VIEW, KILLONE, STRADBALLY",Laois,,310000,No,No,0,Second-Hand Dwelling house /Apartment,,53.01556,-7.15278
1/10/2021,"16 The Rise, Westfield, Leixlip",Kildare,,370040,No,Yes,1,New Dwelling house /Apartment,,53.3688935,-6.5204856
15/07/2021,"66 AN DUICHE, SCALLAGHEEN, CO TIPPERARY",Tipperary,E34Y793,136000,No,No,0,Second-Hand Dwelling house /Apartment,,52.66667,-7.83333
10/8/2021,"51 KILWARDEN COURT, BOOT RD, CLONDALKIN DUBLIN 22",Dublin,D22PF75,195000,No,No,0,Second-Hand Dwelling house /Apartment,,53.33306,-6.24889
28/06/2021,"14 Castle Park, Killycard, Castleblayney",Monaghan,,224670,No,Yes,1,New Dwelling house /Apartment,,54.11667,-6.73333
31/03/2021,"10 LORETO WOOD, CAVAN, CAVAN",Cavan,,137500,No,No,0,Second-Hand Dwelling house /Apartment,,54.0159817,-7.3709647
12/7/2021,"27 ARD NA GREINE, ROSCREA, TIPPERARY",Tipperary,E53DA39,144000,No,No,0,Second-Hand Dwelling house /Apartment,,52.47333,-8.15583
20/12/2021,"18 THE PARK, THE HAWTHORNS, ARDEN ROAD",Offaly,,242290,No,Yes,1,New Dwelling house /Apartment,,53.2686568,-7.4984017
10/12/2021,"38 PAIRC NA HABAIN, EDGEWORTHSTOWN, LONGFORD",Longford,N39XT22,175000,Yes,No,0,Second-Hand Dwelling house /Apartment,,53.7,-7.61667
15/10/2021,"31 BOROIMHE ROWAN, SWORDS, DUBLIN",Dublin,K67X211,275000,No,No,0,Second-Hand Dwelling house /Apartment,,53.4447525,-6.2410083
21/09/2021,"52 Park Avenue, Millers Glen, Swords",Dublin,,370040,No,Yes,1,New Dwelling house /Apartment,,53.33306,-6.24889
8/1/2021,"ARDMAYLE, CASHEL, TIPPERARY",Tipperary,,247500,No,No,0,Second-Hand Dwelling house /Apartment,,52.5651949,-7.9426649
6/5/2021,"3 Albany, Killiney Hill Road, Killiney",Dublin,,788550,No,Yes,1,New Dwelling house /Apartment,,53.33306,-6.24889
17/12/2021,"KATHREW, 4 MOUNT PLEASANT RD, TURNERS CROSS",Cork,T12NY8K,210000,No,No,0,Second-Hand Dwelling house /Apartment,,51.80556,-9.10417
11/11/2021,"56 Hollywoodrath Drive, Hollystown",Dublin,,383260,No,Yes,1,New Dwelling house /Apartment,,53.33306,-6.24889
26/05/2021,"146 KILBARRY PLACE, FARRANREE, CORK",Cork,T23W5R5,160000,No,No,0,Second-Hand Dwelling house /Apartment,,51.916144,-8.4794815
26/03/2021,"29 BUTLER AVE, THURLES, TIPPERARY",Tipperary,,87000,No,No,0,Second-Hand Dwelling house /Apartment,,52.6767801,-7.8196167
2/7/2021,"5 THE DUNES SANDHILL, DUNFANAGHY, LETTERKENNY",Donegal,,270000,No,No,0,Second-Hand Dwelling house /Apartment,,54.95,-7.73333
15/03/2021,"DOGSTOWN, CROSSAKIEL, KELLS",Meath,,335000,No,No,0,Second-Hand Dwelling house /Apartment,,53.72639,-6.87917
9/12/2021,"45 RAHYLIN GLEBE, BALLYBANE, GALWAY",Galway,H91NV9K,239000,No,No,0,Second-Hand Dwelling house /Apartment,,53.2835943,-9.0097314
7/9/2021,"2 Beechwood Avenue, Park Road, Killarney",Kerry,,236120,No,Yes,1,New Dwelling house /Apartment,,52.05,-9.51667
14/05/2021,"6 Gateway Park, Skagh, Croom",Limerick,,295110,No,Yes,1,New Dwelling house /Apartment,,52.51944,-8.71778
10/11/2021,"1 DRUMALEE MANOR, CAVAN, CAVAN",Cavan,H12C566,177000,No,No,0,Second-Hand Dwelling house /Apartment,,53.9983848,-7.3494407
27/08/2021,"BOG ROAD VIEW, NASH'S BOREEN, UPPER FAIRFIELD",Cork,T23H4XR,215000,No,No,0,Second-Hand Dwelling house /Apartment,,51.89797,-8.47061
13/05/2021,"8 Farmhill Manor, Strandhill Road, Sligo",Sligo,,254630,No,Yes,1,New Dwelling house /Apartment,,54.26969,-8.46943
22/10/2021,"BALLINCONNELL, BALLINFULL, SLIGO",Sligo,,298000,No,No,0,Second-Hand Dwelling house /Apartment,,54.26969,-8.46943
8/7/2021,"25 HERON ST, ASTON VILLAGE, DROGHEDA",Louth,A92D50F,205000,No,No,0,Second-Hand Dwelling house /Apartment,,53.71889,-6.34778
25/11/2021,"5 THE PARK, THE HAWTHORNS, TULLAMORE",Offaly,R35W9H3,251100,No,Yes,1,New Dwelling house /Apartment,,53.2681137,-7.4990903
27/08/2021,"4 MONASTERY HEATH COURT, CLONDALKIN, DUBLIN 22",Dublin,D22WY43,225000,No,No,0,Second-Hand Dwelling house /Apartment,,53.3201106,-6.3817618
28/10/2021,"GLENBOY, MANORHAMILTON, CO LEITRIM",Leitrim,F91V085,120000,No,No,0,Second-Hand Dwelling house /Apartment,,54.289722,-8.12
27/08/2021,"RAMPARK HOUSE, CORRACREIGH, ELPHIN",Roscommon,F45CY56,210000,No,No,0,Second-Hand Dwelling house /Apartment,,53.85,-8.2
24/03/2021,"51 MELLOWS PARK, OLDCASTLE, MEATH",Meath,,97500,No,No,0,Second-Hand Dwelling house /Apartment,,53.76648,-7.16284
31/03/2021,"6 AN LOCHAN, CASTLEGAR, HEADFORD RD",Galway,H91W1X7,165500,No,No,0,Second-Hand Dwelling house /Apartment,,53.27194,-9.04889
26/03/2021,"3 OLD FARM, CARPENTERSTOWN, CASTLEKNOCK DUBLIN 15",Dublin,,300000,No,No,0,Second-Hand Dwelling house /Apartment,,53.33306,-6.24889
27/08/2021,"42 MOANBANE PARK, KILCULLEN, KILDARE",Kildare,R56H022,275000,No,No,0,Second-Hand Dwelling house /Apartment,,53.1396811,-6.7356669
10/5/2021,"3 WILLOWWOOD VIEW, CLONSILLA, DUBLIN 15",Dublin,D15W60H,300000,No,No,0,Second-Hand Dwelling house /Apartment,,53.33306,-6.24889
23/04/2021,"4 BEECH LAWN, DUNDRUM, DUBLIN 16",Dublin,D16XE48,605000,No,No,0,Second-Hand Dwelling house /Apartment,,53.2854318,-6.2569256
23/02/2021,"2 BEECHLAWNS, JOHNSWELL RD, KILKENNY",Kilkenny,,270000,No,No,0,Second-Hand Dwelling house /Apartment,,52.65417,-7.25222
5/11/2021,"37 CROZON PARK, SLIGO, SLIGO",Sligo,F91YWF9,265000,No,No,0,Second-Hand Dwelling house /Apartment,,54.2624297,-8.4715138
14/10/2021,"9 GRANITE TERRACE, INCHICORE, DUBLIN 8",Dublin,D08YX5X,505000,No,No,0,Second-Hand Dwelling house /Apartment,,53.3395271,-6.3231339
15/01/2021,"BANNONS CROSS, LOUTH VILLAGE, DUNDALK",Louth,,200000,No,No,0,Second-Hand Dwelling house /Apartment,,54,-6.41667
22/12/2021,"MUNTERMELLON, HORNHEAD, DUNFANAGHY",Donegal,,350000,No,No,0,Second-Hand Dwelling house /Apartment,,55.18333,-7.96667
9/8/2021,"9 CASTLEKNOCK AVENUE, BANESHANE, MIDDLETON",Cork,P25VW40,310000,No,No,0,Second-Hand Dwelling house /Apartment,,51.91526,-8.18052
25/03/2021,"CARRICKNAGORE, BRUCKLESS, CO. DONEGAL",Donegal,,360000,No,No,0,Second-Hand Dwelling house /Apartment,,54.63639,-8.38333
27/07/2021,"No 8 An Gairdin Cuil, Cosmona, Loughrea",Galway,,246700,No,Yes,1,New Dwelling house /Apartment,,53.19694,-8.56694
9/2/2021,"4 THE ROCKS, STONEPARK, BALLYMACORMACK",Longford,,220000,No,No,0,Second-Hand Dwelling house /Apartment,,53.72536,-7.79823
10/5/2021,"15 CASTLEVIEW ROW, SWORDS, DUBLIN",Dublin,K67W272,360000,No,No,0,Second-Hand Dwelling house /Apartment,,53.4708298,-6.2371911
9/4/2021,"AHERINA, KILMORE, CLARE",Clare,,150000,No,No,0,Second-Hand Dwelling house /Apartment,,52.75722,-8.60167
1/12/2021,"77 Barnwell Park, Clonsilla, Hansfield",Dublin,,325990,No,Yes,1,New Dwelling house /Apartment,,53.33306,-6.24889
29/11/2021,"10 ARBUTUS, MONTENOTTE, CORK",Cork,,649780,No,Yes,1,New Dwelling house /Apartment,,51.89797,-8.47061
20/08/2021,"85 SAILIN, DUBLIN RD, GALWAY",Galway,H91DW9T,306000,No,No,0,Second-Hand Dwelling house /Apartment,,53.27194,-9.04889
4/11/2021,"9 THE WOOD, OLDBRIDGE MANOR, RATHMULLAN",Louth,,290750,No,Yes,1,New Dwelling house /Apartment,,53.94861,-6.54139
18/10/2021,"10 The Crescent, Ruxton Oaks, Navan",Meath,,277530,No,Yes,1,New Dwelling house /Apartment,,53.65278,-6.68139
21/12/2021,"NO.1 THE WELLNESS CENTRE, GORTAMULLEN, KENMARE",Kerry,V93TX45,350000,No,No,0,Second-Hand Dwelling house /Apartment,,51.88333,-9.58333
27/09/2021,"110 Drakes Point, Crosshaven",Cork,,414100,No,Yes,1,New Dwelling house /Apartment,,51.79833,-8.30083
20/04/2021,"7 AN SRAID BHAILE, BWEENG, MALLOW",Cork,,190000,No,No,0,Second-Hand Dwelling house /Apartment,,52.13333,-8.63333
9/9/2021,"MOUNTLUCAS, DAINGEAN, OFFALY",Offaly,,180000,Yes,No,0,Second-Hand Dwelling house /Apartment,,53.29611,-7.28944
21/10/2021,"126 CHERRY AVE, SWORDS, DUBLIN",Dublin,K67T256,264000,No,No,0,Second-Hand Dwelling house /Apartment,,53.4494535,-6.2352657
15/03/2021,"126 BALLYROAN, RD, DUBLIN 16",Dublin,,580000,No,No,0,Second-Hand Dwelling house /Apartment,,53.2913552,-6.3078733
19/07/2021,"6 Walker Row, Parkside, Balgriffin",Dublin,,343610,No,Yes,1,New Dwelling house /Apartment,,53.33306,-6.24889
1/12/2021,"90 CARRIG COURT, FORTUNESTOWN LANE, SAGGART",Dublin,D24HD62,255000,No,No,0,Second-Hand Dwelling house /Apartment,,53.33306,-6.24889
29/09/2021,"29 GRAND CANAL COURT, TULLAMORE, OFFALY",Offaly,R35R9T8,170000,No,No,0,Second-Hand Dwelling house /Apartment,,53.2781415,-7.4785447
19/11/2021,"BARNAMUINGA, SHILLELAGH, WICKLOW",Wicklow,Y14XT96,399000,No,No,0,Second-Hand Dwelling house /Apartment,,52.7447708,-6.5805884
20/05/2021,"2 OAK LAWN, CASTLEKNOCK, DUBLIN 15",Dublin,D15FK6K,950000,No,No,0,Second-Hand Dwelling house /Apartment,,53.3760792,-6.364763
4/2/2021,"39 WATERMINT COURT, PELLETSTOWN AVE, ROYAL CANAL PARK DUBLIN 15",Dublin,,210000,No,No,0,Second-Hand Dwelling house /Apartment,,53.33306,-6.24889
16/04/2021,"46 SLI GHEAL, BALLYMONEEN RD, KNOCKNACARRA",Galway,H91H22W,295000,No,No,0,Second-Hand Dwelling house /Apartment,,53.27194,-9.04889
22/04/2021,"148 THE ELMS, MOUNT MERRION AVE, BLACKROCK",Dublin,A94R2N7,380000,No,No,0,Second-Hand Dwelling house /Apartment,,53.33306,-6.24889
6/12/2021,"WEAVERS COTTAGE, BALTYBOYS, BLESSINGTON",Wicklow,W91WC92,740000,No,No,0,Second-Hand Dwelling house /Apartment,,53.17,-6.5325
20/04/2021,"APT 18 BOWERS VIEW, BALLINROBE, CO MAYO",Mayo,,120000,No,No,0,Second-Hand Dwelling house /Apartment,,53.63333,-9.23333
1/7/2021,"39 WOODLANDS PARK, RATOATH, MEATH",Meath,A85HX92,368000,No,No,0,Second-Hand Dwelling house /Apartment,,53.5076676,-6.4689028
12/2/2021,"38 THE GREEN, DUNBOYNE CASTLE, DUNBOYNE",Meath,,325000,No,No,0,Second-Hand Dwelling house /Apartment,,53.4,-6.46667
22/07/2021,"19 TAMARISK LAWNS, KILNAMANAOH, DUBLIN 24",Dublin,D24XFW3,273700,No,No,0,Second-Hand Dwelling house /Apartment,,53.33306,-6.24889
18/06/2021,"4 HURDLESTOWN MEADOWS, BROADFORD, CLARE",Clare,V94X4EN,320000,No,No,0,Second-Hand Dwelling house /Apartment,,52.80472,-8.63222
9/4/2021,"BALLINAHONE, FAHAN, LIFFORD",Donegal,,140000,No,No,0,Second-Hand Dwelling house /Apartment,,54.83194,-7.48361
31/12/2021,"32 THE ORCHARDS, KINSALE, CORK",Cork,P17N129,290000,No,No,0,Second-Hand Dwelling house /Apartment,,51.7021046,-8.5295573
25/06/2021,"14 POWERSCOURT, EYRE ST, NEWBRIDGE",Kildare,W12K854,172000,No,No,0,Second-Hand Dwelling house /Apartment,,53.18194,-6.79667
1/10/2021,"5 HAZELWOOD CLOSE, FOXWOOD, WATERFORD",Waterford,,229030,No,Yes,1,New Dwelling house /Apartment,,52.2326708,-7.1360926
13/09/2021,"22 TULLYVARRAGA CRESENT, SHANNON, CLARE",Clare,V14FV04,255000,No,No,0,Second-Hand Dwelling house /Apartment,,52.70389,-8.86417
14/06/2021,"RUSHAUN, KILNAMONA, ENNIS",Clare,,100000,Yes,No,0,Second-Hand Dwelling house /Apartment,,52.858399,-9.1021512
27/07/2021,"25 Loughcrew Hills, Oldcastle",Meath,,220260,No,Yes,1,New Dwelling house /Apartment,,53.7689423,-7.1681766
10/11/2021,"APT 601 CUBE 3, BEACON SOUTH QUARTER, SANDYFORD",Dublin,D18T634,280000,No,No,0,Second-Hand Dwelling house /Apartment,,53.33306,-6.24889
1/10/2021,"82 TONLEGEE RD, RAHENY, DUBLIN 5",Dublin,D05T6Y8,500000,No,No,0,Second-Hand Dwelling house /Apartment,,53.33306,-6.24889
6/12/2021,"50 PINE COPSE RD, WYCKHAM PARK, DUNDRUM DUBLIN 16",Dublin,D16FX29,742500,No,No,0,Second-Hand Dwelling house /Apartment,,53.33306,-6.24889
19/06/2021,"ABBEY HOUSE, SMITHS RD, CHARLEVILLE",Cork,,242500,No,No,0,Second-Hand Dwelling house /Apartment,,52.35,-8.68333
30/07/2021,"CUAN OIR, ROGERSTOWN, RUSH",Dublin,K56NT98,670000,No,No,0,Second-Hand Dwelling house /Apartment,,53.33306,-6.24889
28/01/2021,"14 Oileain Na Cranoige.Cranogue Isl, Balbutcher Lane, BALLYMUN",Dublin,,233480,No,Yes,1,New Dwelling house /Apartment,,53.33306,-6.24889
10/12/2021,"APT 17, CEDAR HALL MILLBROOK, MILLTOWN DUBLIN 6",Dublin,D06C956,460000,No,No,0,Second-Hand Dwelling house /Apartment,,53.33306,-6.24889
23/07/2021,"3 MELLOWES CRESCENT, FINGLAS, DUBLIN 11",Dublin,D11A4A4,190000,No,No,0,Second-Hand Dwelling house /Apartment,,53.3889553,-6.3041473
17/12/2021,"11 CHURCHFIELD, ST PATRICKS RD, LIMERICK CITY",Limerick,V94A4AA,208000,No,No,0,Second-Hand Dwelling house /Apartment,,52.66472,-8.62306
9/7/2021,"41 The Meadows, Castle Farm, Dunboyne",Meath,,317180,No,Yes,1,New Dwelling house /Apartment,,53.4,-6.46667
18/08/2021,"140 CITY PARK, FORTUNESTOWN LANE, CITYWEST DUBLIN 24",Dublin,,250000,No,No,0,Second-Hand Dwelling house /Apartment,,53.33306,-6.24889
19/01/2021,"44 MOUNT SANDFORD, MILLTOWN, SANDFORD DUBLIN 6",Dublin,,660000,No,No,0,Second-Hand Dwelling house /Apartment,,53.33306,-6.24889
5/8/2021,"CROSSABEAGH, KNOCKBRIDGE, DUNDALK",Louth,,325000,No,No,0,Second-Hand Dwelling house /Apartment,,54,-6.41667
11/3/2021,"19 PUNCHESTOWN GATE, BRABAZON HOUSE, NAAS",Kildare,,187500,No,No,0,Second-Hand Dwelling house /Apartment,,53.21583,-6.66694
5/2/2021,"6 MERTON, SEA RAOD, ARKLOW",Wicklow,,237000,Yes,No,0,Second-Hand Dwelling house /Apartment,,52.79306,-6.14139
3/8/2021,"7 Wilmount View, Moynalty Road, Kells",Meath,,96920,No,Yes,1,New Dwelling house /Apartment,,53.72639,-6.87917
11/11/2021,"52 BARTER'S WOOD, TOWER, BLARNEY",Cork,,308370,No,Yes,1,New Dwelling house /Apartment,,51.9296489,-8.594794
3/8/2021,"122 BRAYTON PARK, KILCOCK, CO KILDARE",Kildare,W23E292,321500,No,No,0,Second-Hand Dwelling house /Apartment,,53.4014002,-6.6760194
23/04/2021,"14 BLOSSOM COURT, ESKER HILLS, PORTLAOISE",Laois,R32NWV9,164000,No,No,0,Second-Hand Dwelling house /Apartment,,53.03441,-7.29979
30/06/2021,"3 WOODFORD CRESCENT, CLONDALKIN, DUBLIN 22",Dublin,D22EW93,335000,No,No,0,Second-Hand Dwelling house /Apartment,,53.3253818,-6.3802919
17/11/2021,"09 MOYGLARE HEATH, MARIAVILLA, MAYNOOTH",Kildare,W23WFP8,248420,No,Yes,1,New Dwelling house /Apartment,,53.389509,-6.5898941
21/05/2021,"27 LAUREL DRIVE, ESKER HILLS, PORTLAOISE",Laois,R32VW86,147000,No,No,0,Second-Hand Dwelling house /Apartment,,53.0432152,-7.2981532
14/07/2021,"COOLEENEY, MOYNE, THURLES",Tipperary,,191000,No,No,0,Second-Hand Dwelling house /Apartment,,52.47333,-8.15583
17/08/2021,"90 BALLINTYRE GROVE, BALLINTEER AVE, DUBLIN 16",Dublin,D16V0T9,525000,No,No,0,Second-Hand Dwelling house /Apartment,,53.33306,-6.24889
13/07/2021,"WILLOW HOUSE, ISLAND, RYFIELD",Cavan,,320000,No,No,0,Second-Hand Dwelling house /Apartment,,53.99083,-7.36056
26/03/2021,"42 CLONUSKE RISE, HAMLET LANE, BALBRIGGAN",Dublin,,163000,No,No,0,Second-Hand Dwelling house /Apartment,,53.33306,-6.24889
18/05/2021,"7 RECTORY MEWS, DUNCORMICK, WEXFORD",Wexford,Y35DC61,202500,No,No,0,Second-Hand Dwelling house /Apartment,,52.2280414,-6.6519789
31/03/2021,"5 CEOL NA MARA, CLIFFONEY, SLIGO",Sligo,,225000,No,No,0,Second-Hand Dwelling house /Apartment,,54.26969,-8.46943
7/1/2021,"SEICEAMAIR, COOLROE, BALLINCOLLIG",Cork,,425000,No,No,0,Second-Hand Dwelling house /Apartment,,51.88333,-8.58333
20/12/2021,"11 The Downs, Barnhall Meadows, Leixlip",Kildare,,270000,Yes,Yes,1,New Dwelling house /Apartment,,53.3606452,-6.5146626
5/3/2021,"11 MOUNTAIN PARK, COOLANEY, CO SLIGO",Sligo,,155000,No,No,0,Second-Hand Dwelling house /Apartment,,54.17806,-8.59972
15/07/2021,"4 MOUNTAIN VIEW, BREENY BEG, KEALKILL",Cork,P75VP64,180000,No,No,0,Second-Hand Dwelling house /Apartment,,51.75722,-9.39917
3/8/2021,"14 THE MEADOWS, ROS MOR, KILMALLOCK ROAD",Limerick,V944H24,266000,No,No,0,Second-Hand Dwelling house /Apartment,,52.66472,-8.62306
20/07/2021,"1 Clay Farm Grove, Clay Farm, Leopardstown",Dublin,,440530,No,Yes,1,New Dwelling house /Apartment,,53.33306,-6.24889
3/12/2021,"GALLOWS HILL, LEAP, CO CORK",Cork,,98000,No,No,0,Second-Hand Dwelling house /Apartment,,51.5925,-9.13
1/12/2021,"TULLIGMORE, COACHFORD, CORK",Cork,P12YY32,150000,No,No,0,Second-Hand Dwelling house /Apartment,,51.9,-8.78333
23/06/2021,"2 BAWNOGUES, BALTINGLASS, WICKLOW",Wicklow,,190000,No,No,0,Second-Hand Dwelling house /Apartment,,52.93722,-6.70917
16/04/2021,"AGGARD, CRAUGHWELL, GALWAY",Galway,,245000,No,No,0,Second-Hand Dwelling house /Apartment,,53.2271754,-8.7363661
24/11/2021,"93 MARSH ROAD, DROGHEDA, COUNTY LOUTH",Louth,A92E8PT,130000,No,No,0,Second-Hand Dwelling house /Apartment,,53.7144086,-6.3395215
19/11/2021,"105 Beaulieu Village, Termonfeckin Road, Drogheda",Louth,,231000,No,Yes,1,New Dwelling house /Apartment,,53.71889,-6.34778
16/06/2021,"RATHBRIST, TALLANSTOWN, DUNDALK",Louth,,312000,No,No,0,Second-Hand Dwelling house /Apartment,,54,-6.41667
2/11/2021,"23 Longstone, Blessington Road, Craddockstown",Kildare,,389870,No,Yes,1,New Dwelling house /Apartment,,53.15611,-6.91444
19/10/2021,"12 BEECH SQUARE, LACKEN WOOD, WATERFORD",Waterford,X91X4TD,142120,Yes,No,0,Second-Hand Dwelling house /Apartment,,52.2401575,-7.1289212
27/08/2021,"LEAFY LANE HOUSE, PENANE, LOUGHMORE",Tipperary,E41VH75,297000,No,No,0,Second-Hand Dwelling house /Apartment,,52.47333,-8.15583
5/11/2021,"7 ST MOCHTAS GREEN, CLONSILLA, DUBLIN 15",Dublin,D15AD9D,380000,No,No,0,Second-Hand Dwelling house /Apartment,,53.33306,-6.24889
13/12/2021,"14 Carrigvale, Kilanerin, Gorey",Wexford,,277530,No,Yes,1,New Dwelling house /Apartment,,52.67472,-6.2925
21/01/2021,"83 An Saileachan, Raheen, Athenry",Galway,,264320,No,Yes,1,New Dwelling house /Apartment,,53.29639,-8.74306
17/08/2021,"SEASCANN AN ROIN, AN CLOCHAN LIATH, CO. DHUN NA NGALL",Donegal,F94XF24,180000,No,No,0,Second-Hand Dwelling house /Apartment,,54.9734285,-8.3562199
22/12/2021,"ST MARYS RECTORY, MOHILL, CO LEITRIM",Leitrim,,155000,No,No,0,Second-Hand Dwelling house /Apartment,,53.91667,-7.86667
22/07/2021,"44C MOATVIEW GDNS, PRIORSWOOD, COOLOCK DUBLIN 17",Dublin,D17AX86,152000,No,No,0,Second-Hand Dwelling house /Apartment,,53.33306,-6.24889
30/11/2021,"9 RIVERSDALE, ATHY, CO KILDARE",Kildare,R14HK02,125000,No,No,0,Second-Hand Dwelling house /Apartment,,52.9906652,-6.9885008
9/12/2021,"33 OAK PARK GROVE, CRADDOCKSTOWN, NAAS",Kildare,W91C2CP,222840,No,Yes,1,New Dwelling house /Apartment,,53.21583,-6.66694
4/3/2021,"10 KELLETTS ROAD, LAGORE ROAD, DUNSHAUGHLIN",Meath,,390000,No,No,0,Second-Hand Dwelling house /Apartment,,53.5125,-6.54
5/7/2021,"24 BELMONT DRIVE, BELMONT AIKENS VILLAGE, STEPASIDE",Dublin,D18FNK4,557000,No,No,0,Second-Hand Dwelling house /Apartment,,53.33306,-6.24889
12/7/2021,"13 TYMON NORTH GARDENS, TALLAGHT, DUBLIN 24",Dublin,D24P7RW,315000,No,No,0,Second-Hand Dwelling house /Apartment,,53.2941654,-6.3434531
9/2/2021,"6 PARK AVENUE, PHELIM WOOD, TULLOW",Carlow,,150000,No,No,0,Second-Hand Dwelling house /Apartment,,52.80028,-6.73694
15/06/2021,"15 SEABROOK, DROMISKIN, LOUTH",Louth,A91CK10,415000,No,No,0,Second-Hand Dwelling house /Apartment,,53.9256839,-6.4002702
6/12/2021,"2 KILEELY VILLAS NEW RD, THOMONDGATE, LIMERICK",Limerick,V94F5YY,180000,No,No,0,Second-Hand Dwelling house /Apartment,,52.66472,-8.62306
8/4/2021,"95 THE WALK, OLDBRIDGE, OSBERSTOWN",Kildare,,230300,No,No,0,Second-Hand Dwelling house /Apartment,,53.15611,-6.91444
28/10/2021,"21 ARDLEIGH CRESCENT, ATHLONE RD, MULLINGAR",Westmeath,N91P0K7,235000,No,No,0,Second-Hand Dwelling house /Apartment,,53.53333,-7.35
2/2/2021,"288 SYCAMORES PARK, EDENDERRY, CO OFFALY",Offaly,,163000,No,No,0,Second-Hand Dwelling house /Apartment,,53.34528,-7.04972
8/7/2021,"25 RIVER LANE, ROCHFORD MANOR, TRIM",Meath,C15WK30,210000,No,No,0,Second-Hand Dwelling house /Apartment,,53.555,-6.79167
22/04/2021,"20 NEWLANDS MANOR PARK, CLONDALKIN, DUBLIN 22",Dublin,D22Y6C2,226000,No,No,0,Second-Hand Dwelling house /Apartment,,53.3094718,-6.4075365
27/05/2021,"21 BALLYCASEY CRESCENT, BALLYCASEY, SHANNON",Clare,V14NT92,149000,No,No,0,Second-Hand Dwelling house /Apartment,,52.70389,-8.86417
20/08/2021,"71 HILLCREST DR, LUCAN, CO DUBLIN",Dublin,K78K8P9,326000,No,No,0,Second-Hand Dwelling house /Apartment,,53.3511862,-6.4531926
10/12/2021,"13 DE LA SALLE CRESCENT, ARDEE, LOUTH",Louth,A92NY52,155000,No,No,0,Second-Hand Dwelling house /Apartment,,53.85972,-6.54056
13/01/2021,"24 TIRELLAN, HEADFORD RD, GALWAY",Galway,,257500,No,No,0,Second-Hand Dwelling house /Apartment,,53.27194,-9.04889
13/12/2021,"6 The Lawn, Ledwill Park, Kilcock",Kildare,,427310,No,Yes,1,New Dwelling house /Apartment,,53.3932214,-6.6621151
8/3/2021,"195 COLLINS AVE, BEAUMONT, DUBLIN 9",Dublin,,611000,No,No,0,Second-Hand Dwelling house /Apartment,,53.3784322,-6.2311781
18/11/2021,"48 DUN NA CARRAIGE, BLACKROCK, SALTHILL",Galway,H91X088,410000,No,No,0,Second-Hand Dwelling house /Apartment,,53.27194,-9.04889
29/09/2021,"108 SNOWDROP WALK, DARNDALE, DUBLIN 17",Dublin,D17T202,156000,No,No,0,Second-Hand Dwelling house /Apartment,,53.4010434,-6.189047
9/12/2021,"THE LANDLORDS APARTMENT, GRAND CENTRAL APARTMENTS, CANAL RD",Donegal,F92F5XT,130000,No,No,0,Second-Hand Dwelling house /Apartment,,54.91667,-8
11/6/2021,"TIDEWAYS, STRAND ROAD, CARIGALINE",Cork,P43HF20,830000,No,No,0,Second-Hand Dwelling house /Apartment,,51.89797,-8.47061
5/2/2021,"176 CRODAUN FOREST PARK, CELBRIDGE, KILDARE",Kildare,,350000,No,No,0,Second-Hand Dwelling house /Apartment,,53.3541865,-6.5445804
15/10/2021,"WHITEROCK, TINAHELY, WICKLOW",Wicklow,,195000,No,No,0,Second-Hand Dwelling house /Apartment,,52.8304681,-6.5170335
17/12/2021,"28 Cnoc an Cairn, Dingle",Kerry,,259910,No,Yes,1,New Dwelling house /Apartment,,52.14083,-10.26889
29/09/2021,"2 HIGHFIELD, MAGAZINE RD, CORK",Cork,T12W9N1,210000,No,No,0,Second-Hand Dwelling house /Apartment,,51.89797,-8.47061
29/01/2021,"BALLYHUGH, GORT, CO GALWAY",Galway,,187500,No,No,0,Second-Hand Dwelling house /Apartment,,53.0639686,-8.8254155
28/07/2021,"25 CHARTER HOUSE, MAYNOOTH, KILDARE",Kildare,W23E621,180000,No,No,0,Second-Hand Dwelling house /Apartment,,53.3829153,-6.5886893
11/6/2021,"28 CLEARWATER COVE, ROSSLARE, WEXFORD",Wexford,Y35X389,340000,No,No,0,Second-Hand Dwelling house /Apartment,,52.2669548,-6.3850263
28/04/2021,"23 CARRICKFOYLE TERRACE, KILMAINHAM DUBLIN 8, DUBLIN",Dublin,D08R5FR,370000,No,No,0,Second-Hand Dwelling house /Apartment,,53.3408591,-6.3067084
22/12/2021,"6 The Grove Barnhall Meadows, Leixlip",Kildare,,431720,No,Yes,1,New Dwelling house /Apartment,,53.3669998,-6.5231208
3/8/2021,"27 SPRINGVALE, TUBBERCURRY, SLIGO",Sligo,F91A2KF,110000,No,No,0,Second-Hand Dwelling house /Apartment,,54.0555639,-8.7235895
12/11/2021,"7 ROYAL COURT, BORRIS IN OSSORY, PORTLAOISE",Laois,R32DX34,190000,No,No,0,Second-Hand Dwelling house /Apartment,,53.03441,-7.29979
2/12/2021,"19 COIS COILLE, KILCASH, CLONMEL",Tipperary,E91E0E8,212500,No,No,0,Second-Hand Dwelling house /Apartment,,52.4022654,-7.5400165
26/04/2021,"50 CARTON SQ, MAYNOOTH, KILDARE",Kildare,W23NTV0,325000,No,No,0,Second-Hand Dwelling house /Apartment,,53.383754,-6.5865417
22/09/2021,"7 BAWNMORE TERRACE, NEW ROSS, CO WEXFORD",Wexford,Y34TY05,110000,No,No,0,Second-Hand Dwelling house /Apartment,,52.397544,-6.9243386
12/5/2021,"8 CROAGHROSS, PORTSALON, CO DONEGAL",Donegal,,300000,No,No,0,Second-Hand Dwelling house /Apartment,,55.2,-7.61667
5/11/2021,"2 DERG MARINE VILLAGE, BALLINA, TIPPERARY",Tipperary,V94C9T7,438000,No,No,0,Second-Hand Dwelling house /Apartment,,52.47333,-8.15583
19/01/2021,"13 TRINITY PLAZA APTS, TARA ST, DUBLIN 2",Dublin,,375000,No,No,0,Second-Hand Dwelling house /Apartment,,53.33306,-6.24889
29/06/2021,"5A BALLYMOUNT SQ, WALKINSTOWN, DUBLIN",Dublin,,275000,No,No,0,Second-Hand Dwelling house /Apartment,,53.3174404,-6.3356594
25/08/2021,"34 Cooline Heights, Ballyvoloon, Cobh",Cork,,235240,No,Yes,1,New Dwelling house /Apartment,,51.85722,-8.29917
30/09/2021,"10 The Lawns, Barnhall Meadows, Leixlip",Kildare,,370040,No,Yes,1,New Dwelling house /Apartment,,53.3621654,-6.5118786
24/11/2021,"137 HOWTH RD, CLONTARF, DUBLIN 3",Dublin,D03C6Y3,835000,No,No,0,Second-Hand Dwelling house /Apartment,,53.3713574,-6.2030025
26/07/2021,"136 CASTLE AVENUE, CLONTARF, DUBLIN 3",Dublin,D03F300,820000,No,No,0,Second-Hand Dwelling house /Apartment,,53.3632673,-6.2054158
16/02/2021,"THE BUNGALOW, NURSING HOME, FERMOY",Cork,,100000,No,No,0,Second-Hand Dwelling house /Apartment,,52.13583,-8.27583
23/08/2021,"57 IRISH STREET, ARDEE, CO LOUTH",Louth,A92P924,114400,No,No,0,Second-Hand Dwelling house /Apartment,,53.8594389,-6.5409696
10/11/2021,"THE PADDOCKS, BOLEYNASS, ASHFORD",Wicklow,A67Y209,540000,No,No,0,Second-Hand Dwelling house /Apartment,,53.00833,-6.11139
17/11/2021,"71 THE COOMBE, DUBLIN 8, DUBLIN",Dublin,D08T0A6,375000,No,No,0,Second-Hand Dwelling house /Apartment,,53.3395348,-6.279873
18/10/2021,"92 Cois Dara, Chapelstown, Tullow Road",Carlow,,189430,No,Yes,1,New Dwelling house /Apartment,,52.84083,-6.92611
8/12/2021,"36 CHESTNUT AVE, ESKER HILLS, RIDGE RD",Laois,R32PTK4,215000,No,No,0,Second-Hand Dwelling house /Apartment,,53,-7.4
23/04/2021,"30A BRACKERNAGH, BALLINASLOE, GALWAY",Galway,H53AX52,110000,No,No,0,Second-Hand Dwelling house /Apartment,,53.319954,-8.2396723
30/08/2021,"651 CHESTNUT CLOSE, ELM PARK, CASTLETROY",Limerick,V94KXK1,220000,No,No,0,Second-Hand Dwelling house /Apartment,,52.6693861,-8.5606
22/02/2021,"72 Mill View, Ballinglanna, Glanmire",Cork,,215860,No,Yes,1,New Dwelling house /Apartment,,51.91583,-8.39972
27/04/2021,"43 HEATHFIELD, CLONARD, WEXFORD TOWN",Wexford,Y35C3K7,192000,No,No,0,Second-Hand Dwelling house /Apartment,,52.5,-6.66667
26/05/2021,"APARTMENT 1, 134 BARRACK STREET, WATERFORD",Waterford,X91WCR9,150000,No,No,0,Second-Hand Dwelling house /Apartment,,52.2557192,-7.1201451
16/08/2021,"54 BARGY ROAD, DUBLIN 3",Dublin,D03YD56,305000,No,No,0,Second-Hand Dwelling house /Apartment,,53.3558937,-6.2316347
24/11/2021,"22 WOOD GREEN, FOREST PARK, DROMAHAIR",Leitrim,F91D8Y0,200000,No,No,0,Second-Hand Dwelling house /Apartment,,54.23333,-8.3
31/08/2021,"THE BUNGALOW, KINGSMEADOW, WATERFORD CITY",Waterford,X91YY3D,580000,No,No,0,Second-Hand Dwelling house /Apartment,,52.25833,-7.11194
3/11/2021,"BROOK LODGE, BROOKFIELD TERRACE, BLACKROCK",Dublin,A94YW83,95000,No,No,0,Second-Hand Dwelling house /Apartment,,53.33306,-6.24889
10/6/2021,"LAHINCH, DURROW, TULLAMORE",Offaly,,321240,No,No,0,Second-Hand Dwelling house /Apartment,,53.27389,-7.48889
29/01/2021,"25 MORLEY TERRACE, WATERFORD, WATERFORD",Waterford,,130000,No,No,0,Second-Hand Dwelling house /Apartment,,52.2620458,-7.1237578
11/6/2021,"No. 62 Kerlogue Manor, Rocksborough, Wexford",Wexford,,232160,No,Yes,1,New Dwelling house /Apartment,,52.33417,-6.4575
4/1/2021,"13 ARDSALLAGH WOODS, ROSCOMMON, ROSCOMMON",Roscommon,,237000,No,No,0,Second-Hand Dwelling house /Apartment,,53.621683,-8.1743316
29/01/2021,"5 IVAR ST, STONEYBATTER, DUBLIN 7",Dublin,,349000,No,No,0,Second-Hand Dwelling house /Apartment,,53.33306,-6.24889
10/9/2021,"3 DEANSTOWN PARK, FINGLAS WEST, DUBLIN 11",Dublin,D11DNH0,245000,No,No,0,Second-Hand Dwelling house /Apartment,,53.3860716,-6.3147096
15/01/2021,"21 WESTWOOD PARK, CLARA, OFFALY",Offaly,,184000,No,No,0,Second-Hand Dwelling house /Apartment,,53.3401988,-7.6211076
21/12/2021,"APT 59 -  BURNELL COURT, NORTHERN CROSS, MALAHIDE",Dublin,D17XK11,187500,No,No,0,Second-Hand Dwelling house /Apartment,,53.33306,-6.24889
9/7/2021,"30 MOERAN RD, WALKINSTOWN, DUBLIN 12",Dublin,D12T611,350000,No,No,0,Second-Hand Dwelling house /Apartment,,53.3185676,-6.3211542
24/08/2021,"RATHONOANE, CARRIGADROHID, CORK",Cork,,335000,No,No,0,Second-Hand Dwelling house /Apartment,,51.9,-8.85
24/08/2021,"NO 10, HAVENWOOD RETIREMENT VILLAGE, BALLYGUNNER",Waterford,,125000,No,No,0,Second-Hand Dwelling house /Apartment,,52.25833,-7.11194
27/08/2021,"1 WATERMILL SQUARE, MAIN STREET, MONASTEREVIN",Kildare,W34E300,164940,No,No,0,Second-Hand Dwelling house /Apartment,,53.14056,-7.06639
15/07/2021,"CAHERTYMORE SOUTH, MONIVEA ROAD, ATHENRY",Galway,,300000,No,No,0,Second-Hand Dwelling house /Apartment,,53.29639,-8.74306
14/12/2021,"78 BLACKTHORN DRIVE, RATH ULLORD, BONNETTSRATH ROAD",Kilkenny,,308400,No,Yes,1,New Dwelling house /Apartment,,52.65417,-7.25222
9/6/2021,"101 CLONLEA, MOUNT OVAL VILLAGE, ROCHESTOWN",Cork,T12ENK5,358000,No,No,0,Second-Hand Dwelling house /Apartment,,51.87,-8.38306
5/7/2021,"1 C CHERRYDALE COURT, DUBLIN RD, LIMERICK",Limerick,,90000,No,No,0,Second-Hand Dwelling house /Apartment,,52.66472,-8.62306
7/10/2021,"5 THOMPSONS COTTAGES, SUMMER HILL, DUBLIN 1",Dublin,D01P2F1,132000,No,No,0,Second-Hand Dwelling house /Apartment,,53.33306,-6.24889
3/12/2021,"Apartment 45, The Brickworks, Station Road",Dublin,,345440,No,Yes,1,New Dwelling house /Apartment,,53.33306,-6.24889
29/09/2021,"CHAPEL GARDEN, CARLINGFORD, LOUTH",Louth,,128000,No,No,0,Second-Hand Dwelling house /Apartment,,54.04,-6.18833
30/06/2021,"THE WARREN, WARREN BEACH, ROSSCARBERY",Cork,,690000,No,No,0,Second-Hand Dwelling house /Apartment,,51.89797,-8.47061
9/4/2021,"PARK HOUSE, BALLINTIM, CAMOLIN",Wexford,,635000,No,No,0,Second-Hand Dwelling house /Apartment,,52.61556,-6.42056
20/04/2021,"124 DROMINBEG, DUBLIN RD, LIMERICK",Limerick,V94XW9R,230000,No,No,0,Second-Hand Dwelling house /Apartment,,52.66472,-8.62306
16/11/2021,"OLD GORT RD, ENNIS, CO CLARE",Clare,V95XP7N,120000,No,No,0,Second-Hand Dwelling house /Apartment,,52.8573019,-8.9836083
28/05/2021,"20 BALLSBRIDGE WOOD, BALLSBRIDGE, DUBLIN",Dublin,D04HY95,800000,No,No,0,Second-Hand Dwelling house /Apartment,,53.33306,-6.24889
16/06/2021,"25 THE MOORINGS, FITZWILLIAM QUAY, DUBLIN",Dublin,D04PD73,297500,No,No,0,Second-Hand Dwelling house /Apartment,,53.33306,-6.24889
16/06/2021,"5 HIGHFIELD, TRAMORE HEIGHTS, TRAMORE",Waterford,X91D5R6,223000,No,No,0,Second-Hand Dwelling house /Apartment,,52.16235,-7.15244
19/05/2021,"120 THE WATERMILL, WATERMILL RD, RAHENY DUBLIN 5",Dublin,D05E822,407000,No,No,0,Second-Hand Dwelling house /Apartment,,53.33306,-6.24889
30/06/2021,"61 AVONDALE COURT, BLACKROCK, DUBLIN",Dublin,A94E4C4,825000,No,No,0,Second-Hand Dwelling house /Apartment,,53.2938312,-6.1753442
14/05/2021,"ANNABASKY, COUNTYBROOK, ENNISKERRY",Wicklow,,845000,No,No,0,Second-Hand Dwelling house /Apartment,,53.1925,-6.16917
3/2/2021,"BEAGH, ARDARA, DONEGAL",Donegal,,160000,No,No,0,Second-Hand Dwelling house /Apartment,,54.76444,-8.4075
22/03/2021,"5 St. Pancras House, Mount Tallant Avenue, Terenure",Dublin,,427310,No,Yes,1,New Dwelling house /Apartment,,53.33306,-6.24889
5/1/2021,"KILAHARD, BLACKWATER, ENNISCORTHY",Wexford,,300000,No,No,0,Second-Hand Dwelling house /Apartment,,52.50083,-6.55778
23/02/2021,"3B Church Street, Skerries",Dublin,,572690,No,Yes,1,New Dwelling house /Apartment,,53.5784196,-6.107654
17/12/2021,"26 CHURCHFIELDS WAY, ASHBOURNE, MEATH",Meath,A84Y282,381000,No,No,0,Second-Hand Dwelling house /Apartment,,53.5086253,-6.4116828
21/06/2021,"75 SUMMERSEAT COURT, CLONEE, MEATH",Meath,D15F2WV,186000,No,No,0,Second-Hand Dwelling house /Apartment,,53.4096269,-6.4389181
30/07/2021,"36 Westwood, Golf Links Road, Ennis",Clare,,220260,No,Yes,1,New Dwelling house /Apartment,,52.84361,-8.98639
27/08/2021,"4 NEW PARK, KINNEGAD, COUNTY WESTMEATH",Westmeath,,210000,No,No,0,Second-Hand Dwelling house /Apartment,,53.45222,-7.09972
3/12/2021,"29 BINSIN, WESTERN DISTRIBUTOR RD, GALWAY",Galway,H91VPH0,261000,No,No,0,Second-Hand Dwelling house /Apartment,,53.27194,-9.04889
17/08/2021,"278 KEEPER RD, DUBLIN 12, DUBLIN",Dublin,D12N560,285000,No,No,0,Second-Hand Dwelling house /Apartment,,53.3318255,-6.3018634
12/2/2021,"33 KILMORE CRESCENT, COOLOCK, DUBLIN 5",Dublin,,344000,No,No,0,Second-Hand Dwelling house /Apartment,,53.3918975,-6.2089068
29/01/2021,"LOURDESVILLE, CASTLEREDMOND, MIDLETON",Cork,,362000,No,No,0,Second-Hand Dwelling house /Apartment,,51.91526,-8.18052
9/7/2021,"41 Hammerstone, Straffan",Kildare,,431720,No,Yes,1,New Dwelling house /Apartment,,53.3149221,-6.6091638
4/1/2021,"6 Whitethorn Lawn, Whitethorn Village, Naas",Kildare,,299560,No,Yes,1,New Dwelling house /Apartment,,53.21583,-6.66694
16/02/2021,"4 WILLOW DR, NEWTOWN CLUAIN ARD, COBH",Cork,,263000,No,No,0,Second-Hand Dwelling house /Apartment,,51.85722,-8.29917
8/10/2021,"13 CLOISTER GROVE, BLACKROCK, DUBLIN",Dublin,A94A7P6,725000,No,No,0,Second-Hand Dwelling house /Apartment,,53.2907263,-6.1807737
4/3/2021,"8 RAILWAY BRIDGE, BRACKHILL, CASTLEMAINE",Kerry,,200000,No,No,0,Second-Hand Dwelling house /Apartment,,52.16667,-9.7
2/9/2021,"13 BALLYKEEFFE EST, DOORADOYLE, LIMERICK",Limerick,V94KXP7,225000,No,No,0,Second-Hand Dwelling house /Apartment,,52.6420965,-8.6500147
10/10/2021,"15 SWAN HALL, BELGARD SQUARE, TALLAGHT",Dublin,D24H7KV,257000,No,No,0,Second-Hand Dwelling house /Apartment,,53.33306,-6.24889
11/11/2021,"Carrowreagh, Dromard",Sligo,,97000,No,Yes,1,New Dwelling house /Apartment,,54.24,-8.67611
3/2/2021,"5 DRISARDEN, GORTLEE, LETTERKENNY",Donegal,,105000,No,No,0,Second-Hand Dwelling house /Apartment,,54.95,-7.73333
1/10/2021,"APT 31, ARDKEEN WOODS, ARDKEEN",Waterford,,195000,No,No,0,Second-Hand Dwelling house /Apartment,,,
5/3/2021,"96 AN CIMIN MOR, CAPPAGH RD, GALWAY",Galway,,300000,No,No,0,Second-Hand Dwelling house /Apartment,,53.27194,-9.04889
11/3/2021,"52 ST JAMES CRESCENT, MERVUE, GALWAY",Galway,,207000,No,No,0,Second-Hand Dwelling house /Apartment,,53.2804886,-9.0148255
25/11/2021,"18 ARDMORE CLOSE, NARROWAYS RD, BETTYSTOWN",Meath,A92Y9T4,193000,No,No,0,Second-Hand Dwelling house /Apartment,,53.70139,-6.24611
29/09/2021,"KILMACOW POST OFFICE, KILMACOW, WATERFORD",Waterford,,204000,No,No,0,Second-Hand Dwelling house /Apartment,,52.25833,-7.11194
15/02/2021,"22 Maple Hill, Castle Heights, Carrigaline",Cork,,308370,No,Yes,1,New Dwelling house /Apartment,,51.81167,-8.39861
10/9/2021,"35 BLUE CEDARS, CAPPRY RD, BALLYBOFEY",Donegal,F93DR92,124000,No,No,0,Second-Hand Dwelling house /Apartment,,54.8,-7.78333
16/12/2021,"46 MOUNT ANDREW COURT, LUCAN, DUBLIN",Dublin,K78EY65,322000,No,No,0,Second-Hand Dwelling house /Apartment,,53.3576727,-6.4126558
3/12/2021,"7 NEWPARK CLOSE, CHAPEL ROAD, KINSEALY",Dublin,,546260,No,Yes,1,New Dwelling house /Apartment,,53.33306,-6.24889
9/12/2021,"7 SUNDALE PARADE, TALLAGHT, DUBLIN 24",Dublin,D24K4A8,270000,No,No,0,Second-Hand Dwelling house /Apartment,,53.2830733,-6.4100446
30/07/2021,"24 CHURCH HILL, SLIGO",Sligo,F91XNW2,135000,No,No,0,Second-Hand Dwelling house /Apartment,,54.0730224,-8.6132243
10/6/2021,"22 MEADOWLANDS, BANDON, CORK",Cork,P72A977,245000,No,No,0,Second-Hand Dwelling house /Apartment,,51.7413379,-8.7330034
2/9/2021,"10 GLINCOOL GARDENS, MAGLIN RD, BALLINCOLLIG",Cork,P31Y327,305000,No,No,0,Second-Hand Dwelling house /Apartment,,51.88333,-8.58333
10/12/2021,"32 KEMPTON GREEN, ASHTOWN, NAVAN RD DUBLIN 15",Dublin,D07N7C2,560000,No,No,0,Second-Hand Dwelling house /Apartment,,53.33306,-6.24889
9/11/2021,"12 Clos Molua, Sli Na Manach, Mungret",Limerick,,370040,No,Yes,1,New Dwelling house /Apartment,,52.6366903,-8.6754772
28/05/2021,"16 ADDISON HALL, ADDISON AVE, ADDISON PARK DUBLIN 11",Dublin,D11TY02,390000,No,No,0,Second-Hand Dwelling house /Apartment,,53.3773263,-6.2778951
17/09/2021,"BIRDIES NEST COTTAGE, THE CURRAGH, KILDARE",Kildare,,165000,No,No,0,Second-Hand Dwelling house /Apartment,,53.15278,-6.84694
6/10/2021,"5 Vernon Mews, Vernon Avenue, Clontarf",Dublin,,682820,No,Yes,1,New Dwelling house /Apartment,,53.33306,-6.24889
15/12/2021,"GLENACUNNA, BALLYPOREEN, CO. TIPPERARY",Tipperary,E21FR90,250000,No,No,0,Second-Hand Dwelling house /Apartment,,52.2489366,-8.1006201
15/10/2021,"17 TI NA RI, LOUGHREA, GALWAY",Galway,H62YW35,260000,No,No,0,Second-Hand Dwelling house /Apartment,,53.2038095,-8.5834491
22/01/2021,"BALLINATONA, KLBEHENY, LIMERICK",Limerick,,165000,No,No,0,Second-Hand Dwelling house /Apartment,,52.66472,-8.62306
3/9/2021,"NEW ROAD, KILROSS, CO TIPPERARY",Tipperary,E34FY98,225000,No,No,0,Second-Hand Dwelling house /Apartment,,52.66667,-7.83333
23/09/2021,"MOLLY, AUGHNACLIFFE, COUNTY LONGFORD",Longford,,440000,No,No,0,Second-Hand Dwelling house /Apartment,,53.72536,-7.79823
25/06/2021,"46A ST JUDES CRESCENT, LIFFORD, DONEGAL",Donegal,F93K77F,123000,No,No,0,Second-Hand Dwelling house /Apartment,,54.83194,-7.48361
26/10/2021,"145 CROSBIES YARD, OSSORY RD, DUBLIN 3",Dublin,D03TC64,308000,No,No,0,Second-Hand Dwelling house /Apartment,,53.33306,-6.24889
20/04/2021,"27 SLIEVEMORE HOLIDAY VILLAGE, DUGORT, ACHILL",Mayo,F28YF54,130000,No,No,0,Second-Hand Dwelling house /Apartment,,53.93111,-9.915
3/7/2021,"10 SUMMERHILL SOUTH, CORK, CORK",Cork,T12A4P6,252000,No,No,0,Second-Hand Dwelling house /Apartment,,51.8908614,-8.4691852
30/03/2021,"FARTAGH, LISDUFF, VIRGINIA",Cavan,,390000,No,No,0,Second-Hand Dwelling house /Apartment,,53.83389,-7.07556
2/7/2021,"55 CLONTARF RD, TULLAMORE, OFFALY",Offaly,R35XW92,185000,No,No,0,Second-Hand Dwelling house /Apartment,,53.2779822,-7.4964296
20/12/2021,"20 THE RISE, BARNHALL MEADOWS, LEIXLIP",Kildare,W23XF5F,246000,Yes,No,0,Second-Hand Dwelling house /Apartment,,53.3613417,-6.5131781
1/10/2021,"DROIM LACH, CUL LE GREIN, BEAL EASA",Mayo,,385000,No,No,0,Second-Hand Dwelling house /Apartment,,53.98333,-9.11667
4/6/2021,"4 St Josephs, Grove, Clonsoilla",Dublin,,308370,No,Yes,1,New Dwelling house /Apartment,,53.33306,-6.24889
4/5/2021,"FARREN REDMOND, DINGLE, COUNTY KERRY",Kerry,,185000,No,No,0,Second-Hand Dwelling house /Apartment,,52.14083,-10.26889
17/06/2021,"15 the pines, avourwen, drogheda",Meath,,259470,No,Yes,1,New Dwelling house /Apartment,,53.7026554,-6.3549575
25/05/2021,"70  RATOATH AVENUE, FINGLAS WEST, DUBLIN 11",Dublin,D11H6V0,205000,No,No,0,Second-Hand Dwelling house /Apartment,,53.3872721,-6.3178469
19/11/2021,"9 THE VILLAGE, ALLEN, KILMEAGUE",Kildare,W91YK3D,507050,No,Yes,1,New Dwelling house /Apartment,,53.15611,-6.91444
13/07/2021,"31 THE PADDOCKS, KILMAINHAM, DUBLIN 8",Dublin,D08X2H3,545000,No,No,0,Second-Hand Dwelling house /Apartment,,53.33306,-6.24889
1/12/2021,"5 BALLINTYRE WOODS, BALLINTYRE HALL, BALLINTEER AVE DUBLIN 16",Dublin,D16AH67,520000,No,No,0,Second-Hand Dwelling house /Apartment,,,
7/9/2021,"34 ARKLOW ST, STONEYBATTER, DUBLIN 7",Dublin,D07H1X6,365000,No,No,0,Second-Hand Dwelling house /Apartment,,53.33306,-6.24889
14/04/2021,"28 PARK COURT, GRANGE RATH, COLPE",Meath,,258000,No,No,0,Second-Hand Dwelling house /Apartment,,53.66667,-6.66667
26/01/2021,"MONEYCROSS UPPER, LESKINFERE, GOREY",Wexford,,267000,No,No,0,Second-Hand Dwelling house /Apartment,,52.67472,-6.2925
17/06/2021,"ALTORE, BALLINLOUGH, CO ROSCOMMON",Roscommon,,115000,No,No,0,Second-Hand Dwelling house /Apartment,,53.7048749,-8.6804634
24/09/2021,"282 GRIFFITH AVE, DRUMCONDRA, DUBLIN 9",Dublin,D09V2R8,695000,No,No,0,Second-Hand Dwelling house /Apartment,,53.3763074,-6.2537549
29/01/2021,"153 CORBAWN WOOD, SHANKILL, DUBLIN 18",Dublin,,600000,No,No,0,Second-Hand Dwelling house /Apartment,,53.2344947,-6.1156818
8/11/2021,"16 BELLEVUE RISE, FRANKFIELD, CORK",Cork,T12W1RP,357000,No,No,0,Second-Hand Dwelling house /Apartment,,51.89797,-8.47061
25/02/2021,"272 THE ASGARD, CUSTOM HOUSE HARBOUR, DUBLIN 1",Dublin,,425000,No,No,0,Second-Hand Dwelling house /Apartment,,53.33306,-6.24889
30/03/2021,"Elstar House, 4 The Orchard, Kindlestown Lower",Wicklow,,596030,No,Yes,1,New Dwelling house /Apartment,,53,-6.41667
12/3/2021,"26 MANORLANDS CLOSE, TRIM, MEATH",Meath,C15YTP9,225000,No,No,0,Second-Hand Dwelling house /Apartment,,53.5505748,-6.7988868
24/05/2021,"9 STRADBALLY MORE, STRADBALLY, WATERFORD",Waterford,X42N510,273000,No,No,0,Second-Hand Dwelling house /Apartment,,52.1298036,-7.4601666
3/6/2021,"MOUNT CARMEL BUNGALOW, OLD LUCAN ROAD, MOUNT CARMEL",Dublin,D20DA38,480000,No,No,0,Second-Hand Dwelling house /Apartment,,53.33306,-6.24889
6/12/2021,"29 WHITETHORN GROVE, KNOCKBROGAN, BANDON",Cork,P72H958,240000,No,No,0,Second-Hand Dwelling house /Apartment,,51.74694,-8.7425
30/09/2021,"NEWSTONE, DRUMCONRATH, CO. MEATH",Meath,,212000,No,No,0,Second-Hand Dwelling house /Apartment,,53.66667,-6.66667
24/09/2021,"24 MEASOWBROOK MILL RD, CORBALLY, LIMERICK",Limerick,V94E1TT,200000,No,No,0,Second-Hand Dwelling house /Apartment,,52.66472,-8.62306
23/04/2021,"GARRYGLASS, TEMPLEDERRY, NENAGH",Tipperary,,172000,No,No,0,Second-Hand Dwelling house /Apartment,,52.7486481,-8.1181879
15/03/2021,"90 PRIORY COURT, EDEN GATE, DELGANY",Wicklow,,225510,Yes,No,0,Second-Hand Dwelling house /Apartment,,53.13083,-6.09139
18/01/2021,"17 ROSSMOR, PONTOON RD, CASTLEBAR",Mayo,,199510,No,No,0,Second-Hand Dwelling house /Apartment,,53.85,-9.3
21/04/2021,"KILNAGARNA, BALLINAHOWN, ATHLONE",Offaly,,300000,No,No,0,Second-Hand Dwelling house /Apartment,,53.25,-7.5
20/09/2021,"6 AIRFIELD POINT, COXTOWN, DUNMORE EAST",Waterford,X91E5F2,425000,No,No,0,Second-Hand Dwelling house /Apartment,,52.15139,-6.98611
29/01/2021,"4 Hallwell Park, Adamstown, Lucan",Dublin,,374450,No,Yes,1,New Dwelling house /Apartment,,53.348052,-6.4736843
21/09/2021,"26 Seascape, Broomhill Court, Keatingstown Road",Wicklow,,334760,No,Yes,1,New Dwelling house /Apartment,,53,-6.41667
26/10/2021,"39 SLIEVE MISH PARK, KINSALE ROAD, CORK",Cork,T12F5K0,240000,No,No,0,Second-Hand Dwelling house /Apartment,,51.89797,-8.47061
21/12/2021,"66 PEMBROKE SQ, GRAND CANAL ST UPPER, DUBLIN",Dublin,D04YY44,425000,No,No,0,Second-Hand Dwelling house /Apartment,,53.33306,-6.24889
15/12/2021,"2 ATLANTIC WAY  MOUNTAIN COMMON, ARDFIELD, CLONAKILTY",Cork,P85Y791,500000,No,No,0,Second-Hand Dwelling house /Apartment,,51.62306,-8.87056
20/09/2021,"5 GRANGE TERRACE, WATERFORD",Waterford,X91R9KT,147000,No,No,0,Second-Hand Dwelling house /Apartment,,52.2515595,-7.1089867
26/10/2021,"72 HAMPTON WOOD RD, FINGLAS, DUBLIN 11",Dublin,D11Y951,230000,No,No,0,Second-Hand Dwelling house /Apartment,,53.33306,-6.24889
10/3/2021,"57 PAIRC CHUIMIN KILCUMMIN, KILLARNEY, KERRY",Kerry,,226000,No,No,0,Second-Hand Dwelling house /Apartment,,52.05,-9.51667
24/08/2021,"KILMACOMMA, CLONMEL, CO TIPPERARY",Tipperary,,128000,No,No,0,Second-Hand Dwelling house /Apartment,,52.3470085,-7.7104844
9/3/2021,"APT 2 - 1 HOLLYBANK ROAD, DRUMCONDRA, DUBLIN 9",Dublin,,142860,No,No,0,Second-Hand Dwelling house /Apartment,,53.33306,-6.24889
16/08/2021,"APT 22 C, THE BOTTLEWORKS, IRISHTOWN",Dublin,,380000,No,No,0,Second-Hand Dwelling house /Apartment,,53.3404148,-6.2259471
15/10/2021,"60 BELFRY GROVE, CITYWEST, SAGGART",Dublin,D24HC82,196000,No,No,0,Second-Hand Dwelling house /Apartment,,53.33306,-6.24889
2/7/2021,"38 ROCHESTOWN PARK, DUN LAOGHAIRE, DUBLIN",Dublin,A96CV63,495000,No,No,0,Second-Hand Dwelling house /Apartment,,53.2702501,-6.1394671
14/12/2021,"COTTAGE I, OYSTERHAVEN CENTRE, KINSALE",Cork,,292500,No,No,0,Second-Hand Dwelling house /Apartment,,51.7075,-8.53056
27/01/2021,"SEAPOINT, TERMONFECKIN, DROGHEDA",Louth,,160000,Yes,No,0,Second-Hand Dwelling house /Apartment,,53.7598638,-6.2489034
24/09/2021,"15 CUIL BEAG, MONVOY, TRAMORE",Waterford,X91Y6R2,242500,No,No,0,Second-Hand Dwelling house /Apartment,,52.16235,-7.15244
22/04/2021,"12 Brook Glen, Manor Farm, Lehanagmore",Cork,,308370,No,Yes,1,New Dwelling house /Apartment,,51.89797,-8.47061
11/6/2021,"3 Lios na mBan, Ladysbridge",Cork,,246000,Yes,Yes,1,New Dwelling house /Apartment,,51.89528,-8.04583
1/12/2021,"4 CROSTHWAITE HALL, LOWER GLENAGEARY RD, DUN LAOGHAIRE",Dublin,A96K6X2,1160000,No,No,0,Second-Hand Dwelling house /Apartment,,53.284623,-6.1330863
1/2/2021,"41 CARRIGEEN, CLYBAUN, KNOCKNACARRA",Galway,,312500,No,No,0,Second-Hand Dwelling house /Apartment,,53.27194,-9.04889
27/09/2021,"26 GRAY ST, THE LIBERTIES, DUBLIN 8",Dublin,D08N4A8,475000,No,No,0,Second-Hand Dwelling house /Apartment,,53.3404304,-6.2787926
1/9/2021,"130 BALLSGROVE EST, DROGHEDA, LOUTH",Louth,A92HWX2,200000,No,No,0,Second-Hand Dwelling house /Apartment,,53.71889,-6.34778
26/03/2021,"3 PROSPECT HILL, DONABATE, DUBLIN",Dublin,,685000,No,No,0,Second-Hand Dwelling house /Apartment,,53.4841278,-6.1535471
30/04/2021,"CLYGEEN, LEGAN, LONGFORD",Longford,,100000,No,No,0,Second-Hand Dwelling house /Apartment,,53.61667,-7.61667
18/10/2021,"4A THE HOLLOWS, NEWCASTLE RD, LUCAN",Dublin,K78VN51,150000,No,No,0,Second-Hand Dwelling house /Apartment,,53.33306,-6.24889
13/04/2021,"15 Castle Manor, Naul Road, Naul",Dublin,,409690,No,Yes,1,New Dwelling house /Apartment,,53.33306,-6.24889
2/6/2021,"SILVANUS, GLENCAR, LETTERKENNY",Donegal,F92RYH7,340000,No,No,0,Second-Hand Dwelling house /Apartment,,54.95,-7.73333
16/08/2021,"EDEN COTTAGE, 2 RAILWAY COTTAGES, MCCURTAINS TOWN",Cork,P36D925,135000,No,No,0,Second-Hand Dwelling house /Apartment,,51.89797,-8.47061
10/5/2021,"126 NEWBOURAGH, GOREY, WEXFORD",Wexford,Y25N156,146000,No,No,0,Second-Hand Dwelling house /Apartment,,52.67472,-6.2925
17/12/2021,"32 Sli na Misean, West Road, Westport",Mayo,,252860,No,Yes,1,New Dwelling house /Apartment,,53.8,-9.51667
17/12/2021,"7 WYNDHAM COURT, DELGANY, COUNTY WICKLOW",Wicklow,A63FE43,200000,No,No,0,Second-Hand Dwelling house /Apartment,,53.1339883,-6.0906583
21/12/2021,"245 CHARLESLAND PARK, GREYSTONES, WICKLOW",Wicklow,A63HW01,365000,No,No,0,Second-Hand Dwelling house /Apartment,,53.1265748,-6.0709425
15/10/2021,"34 EAST PRIORY, NAVAN ROAD, DUBLIN 7",Dublin,D07XT80,370000,No,No,0,Second-Hand Dwelling house /Apartment,,53.3707232,-6.3139348
6/9/2021,"35 COOLRUA DR, BEAUMONT, DUBLIN 9",Dublin,D09KC57,375000,No,No,0,Second-Hand Dwelling house /Apartment,,53.3887346,-6.2335826
25/11/2021,"1 LOFTUS SQ, RATHFARNHAM GATE, MAIN ST DUBLIN 14",Dublin,D14EV62,322000,No,No,0,Second-Hand Dwelling house /Apartment,,53.33306,-6.24889
12/8/2021,"93 AN PLASAN, COIS NA HABHAINN, STATION RD MOATE",Westmeath,,195000,No,No,0,Second-Hand Dwelling house /Apartment,,53.39389,-7.71722
9/7/2021,"35 GLENAYLE RD, RAHENY, DUBLIN 5",Dublin,D05A6X4,420000,No,No,0,Second-Hand Dwelling house /Apartment,,53.33306,-6.24889
28/10/2021,"APARTMENT 19, THE REEKS GATEWAY, KILLARNEY",Kerry,V93HD96,250000,No,No,0,Second-Hand Dwelling house /Apartment,,52.068003,-9.5171179
17/09/2021,"ST MARTINS, TOBERGREGAN, GARRISTOWN",Dublin,A42HH95,420000,No,No,0,Second-Hand Dwelling house /Apartment,,53.33306,-6.24889
31/03/2021,"15 WATERSTONE, FOXFORD RD, BALLINA",Mayo,,171000,No,No,0,Second-Hand Dwelling house /Apartment,,54.11667,-9.16667
26/08/2021,"3 Taylor Hill Mews, Balbriggan",Dublin,,340000,No,Yes,1,New Dwelling house /Apartment,,53.33306,-6.24889
3/12/2021,"Apartment 23, The Brickworks, Station Road",Dublin,,345440,No,Yes,1,New Dwelling house /Apartment,,53.33306,-6.24889
24/11/2021,"2 Clogheraun Brook, Staplestown, Donadea",Kildare,W91KN9F,550000,No,Yes,1,New Dwelling house /Apartment,,53.35028,-6.74583
12/10/2021,"STATION RD, GLENTIES, DONEGAL",Donegal,,165000,No,No,0,Second-Hand Dwelling house /Apartment,,55.1208328,-7.9003206
9/12/2021,"ROSHAN FARM, FORQUAR, MILFORD",Donegal,F92Y1K1,250000,No,No,0,Second-Hand Dwelling house /Apartment,,55.08806,-7.69889
18/06/2021,"48 CNOC NA SL??, TUBBERCURRY, CO SLIGO",Sligo,F91R3N1,142000,No,No,0,Second-Hand Dwelling house /Apartment,,54.05,-8.73333
18/06/2021,"24 The Crescent, Churchfield, Knock",Mayo,,202500,No,No,0,New Dwelling house /Apartment,,53.79391,-8.91961
15/10/2021,"4 WOLSELEY VILLAGE, MOUNTWOLSELEY, TULLOW",Carlow,R93W960,150000,No,No,0,Second-Hand Dwelling house /Apartment,,52.80028,-6.73694
6/5/2021,"31 PIER 19, BRIDGEFOOT ST, DUBLIN 8",Dublin,D08R863,225000,No,No,0,Second-Hand Dwelling house /Apartment,,53.33306,-6.24889
29/04/2021,"7 Blackwater Grove, Kilmacow",Kilkenny,,251780,Yes,Yes,1,New Dwelling house /Apartment,,52.30611,-7.17167
21/07/2021,"20 OLD QUAY COURT, QUAY ST, SLIGO",Sligo,F91D322,140330,No,No,0,Second-Hand Dwelling house /Apartment,,54.26969,-8.46943
11/6/2021,"CHURCH STREET, KELLS, CO MEATH",Meath,,245000,No,No,0,Second-Hand Dwelling house /Apartment,,53.7272712,-6.8786731
7/7/2021,"54 Ridgewood Manor, Melitta Road, The Curragh",Kildare,,254630,No,Yes,1,New Dwelling house /Apartment,,53.15278,-6.84694
29/10/2021,"108 BELGROVE PARK, MOUNT PROSPECT LAWNS, CLONTARF DUBLIN 3",Dublin,D03W840,390000,No,No,0,Second-Hand Dwelling house /Apartment,,53.33306,-6.24889
12/7/2021,"WOODWINDS, RED ROW, COURTOWN",Wexford,Y25XV24,290000,No,No,0,Second-Hand Dwelling house /Apartment,,52.64424,-6.22899
21/09/2021,"17 ELMCASTLE COURT, KILNAMANAGH, DUBLIN 24",Dublin,D24TPA9,345000,No,No,0,Second-Hand Dwelling house /Apartment,,53.3035679,-6.353264
20/01/2021,"27 ARLINGTON EST, PORTARLINGTON, LAOIS",Laois,,120000,No,No,0,Second-Hand Dwelling house /Apartment,,53.153072,-7.1775113
13/08/2021,"APT 20 BUTLER COURT, 77 SIR JOHN ROGERSON QUAY, DUBLIN 2",Dublin,,512000,No,No,0,Second-Hand Dwelling house /Apartment,,53.3452101,-6.2332949
1/10/2021,"9 SAUNDERS LANE, WILTON MANOR, RATHNEW",Wicklow,A67NV05,320000,No,No,0,Second-Hand Dwelling house /Apartment,,52.99056,-6.08528
30/04/2021,"APT 205, RICHMOND COURT, MOUNT KENNETH PLACE",Limerick,,88500,No,No,0,Second-Hand Dwelling house /Apartment,,52.66472,-8.62306
17/12/2021,"37 DROMIN GREEN, LISTOWEL, KERRY",Kerry,V31YD23,210000,No,No,0,Second-Hand Dwelling house /Apartment,,52.44639,-9.485
24/09/2021,"6 COIS NA HABHANN, BELCARRA, CASTLEBAR",Mayo,,155000,No,No,0,Second-Hand Dwelling house /Apartment,,53.8038778,-9.2154874
5/3/2021,"1 HEATHERFIELD, BALLYMAH, CORK",Cork,,705000,No,No,0,Second-Hand Dwelling house /Apartment,,51.89797,-8.47061
18/02/2021,"22 DUNSOGHLY DRIVE, FINGLAS WEST, DUBLIN 11",Dublin,,255000,No,No,0,Second-Hand Dwelling house /Apartment,,53.33306,-6.24889
30/11/2021,"KILTANNON HOME FARM, KILTANNON, TULLA",Clare,,700000,No,No,0,Second-Hand Dwelling house /Apartment,,52.86472,-8.76056
30/03/2021,"20 THE PADDOCKS, GOWRAN, KILKENNY",Kilkenny,,215000,No,No,0,Second-Hand Dwelling house /Apartment,,52.6295213,-7.0712168
19/07/2021,"41 Martello, Rushbrooke, Cobh",Cork,,288550,No,Yes,1,New Dwelling house /Apartment,,51.85722,-8.29917
30/09/2021,"12 DUNRAVEN DOWNS, BLACKROCK RD, CORK",Cork,T12YE29,190000,No,No,0,Second-Hand Dwelling house /Apartment,,51.89797,-8.47061
3/9/2021,"41 BARLEY HILL, COURT BOHOLA, CLAREMORRIS",Mayo,F12PY90,167000,No,No,0,Second-Hand Dwelling house /Apartment,,,
12/11/2021,"41 SHANGANAGH GROVE, SHANKILL, DUBLIN",Dublin,D18Y2X8,745000,No,No,0,Second-Hand Dwelling house /Apartment,,53.2289242,-6.1144891
21/09/2021,"92 LIOS ARD, TULLA RD, ENNIS",Clare,V95RYV9,210000,No,No,0,Second-Hand Dwelling house /Apartment,,52.84361,-8.98639
3/9/2021,"KINCORA, BAILY GREEN, HOWTH",Dublin,D13DH67,810000,No,No,0,Second-Hand Dwelling house /Apartment,,53.33306,-6.24889
25/11/2021,"60 Cathedral View, Rampart Road, Dundalk",Louth,,233480,No,Yes,1,New Dwelling house /Apartment,,54,-6.41667
29/10/2021,"59 CNOC TIARNACH, GRANGE END, DUNSHAUGHLIN",Meath,A85KW40,500000,No,No,0,Second-Hand Dwelling house /Apartment,,53.5125,-6.54
6/8/2021,"26 Kinsealy Manor, Chapel Road, Kinsealy",Dublin,,405290,No,Yes,1,New Dwelling house /Apartment,,53.33306,-6.24889
5/5/2021,"CARROWMORE, DRUMNACOOL, SLIGO",Sligo,,387000,No,No,0,Second-Hand Dwelling house /Apartment,,54.26969,-8.46943
17/12/2021,"32 The Green, Bellingsmore, Church Road",Dublin,,405290,No,Yes,1,New Dwelling house /Apartment,,53.33306,-6.24889
7/10/2021,"56 BLUE CEDARS, CAPPRY, BALLYBOFEY",Donegal,F93PX29,178000,No,No,0,Second-Hand Dwelling house /Apartment,,54.8,-7.78333
10/6/2021,"KINGFISHERS, TOWER RD, PILTOWN",Kilkenny,,310000,No,No,0,Second-Hand Dwelling house /Apartment,,52.35333,-7.34028
31/03/2021,"2A IRISH ST, ENNISCORTHY, CO WEXFORD",Wexford,,110000,No,No,0,Second-Hand Dwelling house /Apartment,,52.502659,-6.5699235
30/08/2021,"27 CARAGH MEADOWS, NAAS, KILDARE",Kildare,W91V22A,325000,No,No,0,Second-Hand Dwelling house /Apartment,,53.21583,-6.66694
21/10/2021,"GLENTRASNA, BALLYNOE, MALLOW",Cork,,150000,No,No,0,Second-Hand Dwelling house /Apartment,,52.13333,-8.63333
19/11/2021,"181 CASTLEMOYNE, BALGRIFFIN, DUBLIN 13",Dublin,D13F9X4,541850,No,No,0,Second-Hand Dwelling house /Apartment,,53.409771,-6.16779
25/11/2021,"GAULSTOWN, GLENMORE, CO KILKENNY",Kilkenny,Y34EK61,200000,No,No,0,Second-Hand Dwelling house /Apartment,,52.35167,-7.025
13/10/2021,"23 WATERS GATE, BILBERRY, WATERFORD",Waterford,X91Y409,145000,No,No,0,Second-Hand Dwelling house /Apartment,,52.25833,-7.11194
28/06/2021,"18 MANOR PLACE, ONGAR VILLAGE, DUBLIN 15",Dublin,D15CK26,167000,No,No,0,Second-Hand Dwelling house /Apartment,,53.33306,-6.24889
7/5/2021,"26 HEATHERFIELD, CARRIGALINE, CORK",Cork,P43E336,250000,No,No,0,Second-Hand Dwelling house /Apartment,,51.8215161,-8.388432
28/05/2021,"1 Eastmount Gardens, Chapel Road, Delgany",Wicklow,,572690,No,Yes,1,New Dwelling house /Apartment,,53.13083,-6.09139
10/9/2021,"33 GORT NA RI, BALLYHUGH, GORT",Galway,H91Y0F6,185500,No,No,0,Second-Hand Dwelling house /Apartment,,53.06639,-8.81667
9/3/2021,"13 ASHGROVE, PARCNAGOWAN, KILKENNY",Kilkenny,R95VH67,143000,No,No,0,Second-Hand Dwelling house /Apartment,,52.65417,-7.25222
29/07/2021,"2 GLENDOWN CRESCENT, TEMPLEOGUE, DUBLIN 6W",Dublin,D6WKC97,760000,No,No,0,Second-Hand Dwelling house /Apartment,,53.3037346,-6.3208378
20/04/2021,"23 HIGHLAND PARK, KILKELLY, BALLYHAUNIS",Mayo,F35PY04,90000,No,No,0,Second-Hand Dwelling house /Apartment,,53.76667,-8.76667
27/01/2021,"87A ALBERT RD LOWER, SANDYCOVE, DUBLIN",Dublin,,900000,No,No,0,Second-Hand Dwelling house /Apartment,,53.2855523,-6.1185739
20/12/2021,"72 BROIMHEHAZEL, SWORDS, DUBLIN",Dublin,K67XK00,210000,No,No,0,Second-Hand Dwelling house /Apartment,,53.33306,-6.24889
1/10/2021,"THE SQUARE, CAHERCONLISH, CO. LIMERICK",Limerick,,130000,No,No,0,Second-Hand Dwelling house /Apartment,,52.59361,-8.47028
3/9/2021,"FREAGH, NEWPORT, TIPPERARY",Tipperary,,420000,No,No,0,Second-Hand Dwelling house /Apartment,,52.47333,-8.15583
9/8/2021,"ARM, WILLIAMSTOWN ROAD, CASTLEREA",Roscommon,F45CK29,116000,No,No,0,Second-Hand Dwelling house /Apartment,,53.76667,-8.5
12/4/2021,"15 Gandon Place, Gandon Park, Lucan",Dublin,,383260,No,Yes,1,New Dwelling house /Apartment,,53.3476834,-6.4650365
19/10/2021,"16 PORTVIEW, THORNCASTLE ST, RINGSEND",Dublin,D04AF84,468000,No,No,0,Second-Hand Dwelling house /Apartment,,53.33306,-6.24889
14/06/2021,"9  The Oaks, Bellevue, Frankfield",Cork,,395040,No,Yes,1,New Dwelling house /Apartment,,51.89797,-8.47061
10/11/2021,"72 The Riverside, Ryebridge, Kilcock",Kildare,,356830,No,Yes,1,New Dwelling house /Apartment,,53.4059548,-6.6687023
9/11/2021,"171 CLUAIN RIOCAIRD, BOTHAR NA COISTE, GALWAY",Galway,H91HRP4,231000,No,No,0,Second-Hand Dwelling house /Apartment,,53.27194,-9.04889
14/07/2021,"34 THE SQUARE, DRUMMIN VILLAGE, BORRISOKANE ROAD",Tipperary,,171810,No,Yes,1,New Dwelling house /Apartment,,52.47333,-8.15583
31/08/2021,"122 THE COURT, DUNBOYNE CASTLE, MEATH",Meath,A86WA24,140000,Yes,No,0,Second-Hand Dwelling house /Apartment,,53.4155932,-6.4788313
20/04/2021,"DEERPARK, VIRGINIA, COUNTY CAVAN",Cavan,A82DA06,135000,No,No,0,Second-Hand Dwelling house /Apartment,,53.8392627,-7.0932884
16/06/2021,"97 DROMROE, RHEBOGUE, LIMERICK",Limerick,V94DY8V,342580,No,No,0,Second-Hand Dwelling house /Apartment,,52.66472,-8.62306
30/09/2021,"74 GLENCLOY RD, WHITEHALL, DUBLIN 9",Dublin,D09WD89,316000,No,No,0,Second-Hand Dwelling house /Apartment,,53.3842807,-6.2476764
27/05/2021,"SUNHILL, KILLORGLIN, KERRY",Kerry,,322000,No,No,0,Second-Hand Dwelling house /Apartment,,52.1110393,-9.8288351
4/11/2021,"PROPERTY NO 2, DUBLIN ROAD, MAYNOOTH",Kildare,W23D8W9,445000,No,No,0,Second-Hand Dwelling house /Apartment,,53.385,-6.59361
16/06/2021,"MEWS COTTAGE, MOUNT CARMEL, OLD LUCAN RD WEST DUBLIN 20",Dublin,D20CP46,207500,No,No,0,Second-Hand Dwelling house /Apartment,,53.33306,-6.24889
30/06/2021,"KNOCKERAGH, KILLARNEY, CO. KERRY",Kerry,,160000,No,No,0,Second-Hand Dwelling house /Apartment,,52.05,-9.51667
31/03/2021,"6 REDWOOD LAWNS, KILNAMANAGH, DUBLIN 24",Dublin,,324000,No,No,0,Second-Hand Dwelling house /Apartment,,53.33306,-6.24889
5/3/2021,"37 CHURCH AVE, DRUMCONDRA, DUBLIN 9",Dublin,,595000,No,No,0,Second-Hand Dwelling house /Apartment,,53.3708091,-6.2515275
9/4/2021,"GORTADERRA, SCARRIFF, CLARE",Clare,,228000,No,No,0,Second-Hand Dwelling house /Apartment,,52.90872,-8.53316
20/08/2021,"6 CHURCH HILL, BALLINASLOE, GALWAY",Galway,H53N8X3,125000,No,No,0,Second-Hand Dwelling house /Apartment,,53.3299837,-8.2234258
15/11/2021,"106 castleland park way, blabriggan",Dublin,,277530,No,Yes,1,New Dwelling house /Apartment,,53.33306,-6.24889
21/12/2021,"3 KILGLASS FOREST PARK, BARRAVALLY, ROOSKY",Roscommon,F42R894,130000,No,No,0,Second-Hand Dwelling house /Apartment,,53.83333,-7.91667
1/10/2021,"3 SARSFIELD PARK, LUCAN, COUNTY DUBLIN",Dublin,K78Y2H0,305000,No,No,0,Second-Hand Dwelling house /Apartment,,53.3568896,-6.4476061
8/12/2021,"LOUGHANBREAN, CROSSAKIEL, KELLS",Meath,A82VH50,230000,No,No,0,Second-Hand Dwelling house /Apartment,,53.72639,-6.87917
12/7/2021,"13 BOTHAR SHEEN, GLANEROUGHT, KENMARE",Kerry,V93PD65,155000,No,No,0,Second-Hand Dwelling house /Apartment,,51.88333,-9.58333
7/12/2021,"1 PEARSE SQUARE, RINGSEND, DUBLIN 4",Dublin,D02PC61,1000000,No,No,0,Second-Hand Dwelling house /Apartment,,53.33306,-6.24889
13/10/2021,"FOUNTAIN LODGE, ISLANDBGIDGE, DUBLIN 8",Dublin,,565000,No,No,0,Second-Hand Dwelling house /Apartment,,53.33306,-6.24889
12/8/2021,"CORRAN MORE HOUSE, BARLEYCOVE, GOLEEN",Cork,,440000,No,No,0,Second-Hand Dwelling house /Apartment,,51.49389,-9.70917
28/10/2021,"118 GLASNEVIN AVE, GLASNEVIN, DUBLIN 11",Dublin,D11C2W6,625000,No,No,0,Second-Hand Dwelling house /Apartment,,53.33306,-6.24889
23/03/2021,"DERRINTIN, LEENANE, CO GALWAY",Galway,,130000,No,No,0,Second-Hand Dwelling house /Apartment,,53.6,-9.68333
18/05/2021,"24 ST JOHNS RD, LAKESIDE, HEBRON RD",Kilkenny,R95T683,149000,No,No,0,Second-Hand Dwelling house /Apartment,,52.65417,-7.25222
12/3/2021,"TAWLEY, CASTLEGAL, SLIGO",Leitrim,,195000,No,No,0,Second-Hand Dwelling house /Apartment,,53.99083,-8.06361
1/2/2021,"14 PARKLYN, BROCKLESBY ST, BLACKPOOL",Cork,,160000,No,No,0,Second-Hand Dwelling house /Apartment,,51.91028,-8.47139
13/12/2021,"BARROW HOUSE, MONASTEREVIN, CO KILDARE",Kildare,W34YF44,935000,No,No,0,Second-Hand Dwelling house /Apartment,,53.14056,-7.06639
17/06/2021,"36 Foxhollow, Golf Links Road, Castletroy",Limerick,,766520,No,Yes,1,New Dwelling house /Apartment,,52.66472,-8.62306
22/06/2021,"30 THE CRESCENT, PIPERSHILL  KILLASHEE, NAAS",Kildare,,445000,No,No,0,Second-Hand Dwelling house /Apartment,,53.21583,-6.66694
2/12/2021,"31 DOWDALLSHILL, OLD NEWRY RD, DUNDALK",Louth,,155000,No,No,0,Second-Hand Dwelling house /Apartment,,54,-6.41667
8/9/2021,"GARROWART, ARDARA, DONEGAL",Donegal,,90000,No,No,0,Second-Hand Dwelling house /Apartment,,54.76444,-8.4075
9/2/2021,"12 CEOL NA MARA, KILL, WATERFORD",Waterford,,150000,No,No,0,Second-Hand Dwelling house /Apartment,,52.1759288,-7.333775
28/06/2021,"102 STILLORGAN HEATH, STILLORGAN, DUBLIN",Dublin,A94W448,651000,No,No,0,Second-Hand Dwelling house /Apartment,,53.2813,-6.2059256
6/10/2021,"ROCKSPRINGS, CAMOLIN, ENNISCORTHY",Wexford,,435000,No,No,0,Second-Hand Dwelling house /Apartment,,52.50083,-6.55778
29/07/2021,"8 GLASHEEN PARK, GLASHEEN RD, CORK",Cork,T12A6W9,290000,No,No,0,Second-Hand Dwelling house /Apartment,,51.89797,-8.47061
11/11/2021,"5 ROS AIRGID, LIS CARA, CARRICK ON SHANNON",Leitrim,N41WN53,95000,No,No,0,Second-Hand Dwelling house /Apartment,,53.94694,-8.09
5/8/2021,"2 PORTNOO, LACKAGH, CO DONEGAL",Donegal,F94A362,250000,No,No,0,Second-Hand Dwelling house /Apartment,,54.65,-8.11667
17/05/2021,"13 DROMCAIRN, SKAHANAGH, TRALEE",Kerry,V92N8C7,325000,No,No,0,Second-Hand Dwelling house /Apartment,,52.27042,-9.70264
14/05/2021,"KEELWEST, ACHILL, MAYO",Mayo,,121000,No,No,0,Second-Hand Dwelling house /Apartment,,53.93111,-9.915
8/12/2021,"74 THE MEADOWS, BELGOOLY, CORK",Cork,P17AD77,420000,No,No,0,Second-Hand Dwelling house /Apartment,,51.7389181,-8.48738
15/06/2021,"46 OXMANTOWN RD, DUBLIN 7, DUBLIN",Dublin,D07E1R0,300000,No,No,0,Second-Hand Dwelling house /Apartment,,53.3537372,-6.2916308
16/12/2021,"BURROW ROAD, PORTRANE, CO DUBLIN",Dublin,,350000,No,No,0,Second-Hand Dwelling house /Apartment,,53.5072637,-6.1260076
6/5/2021,"60, BALLYNEETY ROAD, BALLYFERMOT DUBLIN 10",Dublin,D10H578,90000,Yes,No,0,Second-Hand Dwelling house /Apartment,,53.33306,-6.24889
15/03/2021,"2A WOODBINE ROAD, MOUNTROSE, DONNYBROOK",Dublin,,530000,No,No,0,Second-Hand Dwelling house /Apartment,,53.33306,-6.24889
7/7/2021,"13 BALLINTYRE DOWNS, BALLINTEER AVE, DUBLIN 16",Dublin,D16HH51,650000,No,No,0,Second-Hand Dwelling house /Apartment,,53.33306,-6.24889
5/11/2021,"2 NATUIR, CORK ST, MACROON",Cork,P12HX63,196000,No,No,0,Second-Hand Dwelling house /Apartment,,51.89797,-8.47061
7/5/2021,"KENTSTOWN RD, ATHLUMNEY, NAVAN",Meath,,300000,No,No,0,Second-Hand Dwelling house /Apartment,,53.65278,-6.68139
13/04/2021,"4 ST BRENDANS AVE, WOODQUAY, GALWAY",Galway,H91WF6W,270000,No,No,0,Second-Hand Dwelling house /Apartment,,53.27194,-9.04889
5/8/2021,"179 HAMPTON SQ, NAVAN RD, DUBLIN 7",Dublin,D07FX7X,295000,No,No,0,Second-Hand Dwelling house /Apartment,,53.3610103,-6.302845
30/08/2021,"56 ASHTON WOOD, BRAY, WICKLOW",Wicklow,A98H6C6,412000,No,No,0,Second-Hand Dwelling house /Apartment,,53.1886438,-6.1364106
17/05/2021,"10 ORWELL GARDENS, DUBLIN 14, DUBLIN",Dublin,D14DK35,176000,Yes,No,0,Second-Hand Dwelling house /Apartment,,53.3054099,-6.2650257
11/10/2021,"8 CHERRY AVE, CARNDONAGH, DONEGAL",Donegal,F93T252,225000,No,No,0,Second-Hand Dwelling house /Apartment,,55.25,-7.26667
8/3/2021,"12 CUL RUA, AGLISH, CAPPOQUIN",Waterford,,192500,No,No,0,Second-Hand Dwelling house /Apartment,,52.14722,-7.85528
25/01/2021,"78 SUNDAYS WELL, LISLOOSE, TRALEE",Kerry,,153000,No,No,0,Second-Hand Dwelling house /Apartment,,52.27042,-9.70264
26/11/2021,"BALLYNAMONA, SHANAGARRY, MIDLETON",Cork,P25TF38,700000,No,No,0,Second-Hand Dwelling house /Apartment,,51.91526,-8.18052
1/7/2021,"MULLAHILL, KILLURIN, TULLAMORE",Offaly,,245000,No,No,0,Second-Hand Dwelling house /Apartment,,53.27389,-7.48889
5/7/2021,"16 KINGS PARK, MUCKROSS RD, KILLARNEY",Kerry,V93E2N1,283000,No,No,0,Second-Hand Dwelling house /Apartment,,52.05,-9.51667
30/06/2021,"42 WOODSTOWN HEIGHTS, KNOCKLYON, DUBLIN 16",Dublin,D16Y1T7,500000,No,No,0,Second-Hand Dwelling house /Apartment,,53.2727218,-6.3268284
25/01/2021,"15 CHARLETON HILL, NEW ROSS, CO WEXFORD",Wexford,,88000,No,No,0,Second-Hand Dwelling house /Apartment,,52.390142,-6.9423002
27/07/2021,"9 BEECHURST, KILLARNEY RD, BRAY",Wicklow,A98CA48,600000,No,No,0,Second-Hand Dwelling house /Apartment,,53.20278,-6.09833
29/04/2021,"46 MONKSFIELD, BEALNAMULLA, ATHLONE",Roscommon,N37FD63,165000,No,No,0,Second-Hand Dwelling house /Apartment,,53.63333,-8.18333
1/10/2021,"OLD GRANGE, MONASTEREVIN, KILDARE",Kildare,,415000,No,No,0,Second-Hand Dwelling house /Apartment,,53.1480005,-7.0537651
14/12/2021,"1 MAPLE VIEW, PARCNAGOWAN, OUTRATH RD",Kilkenny,R95F1P2,320000,No,No,0,Second-Hand Dwelling house /Apartment,,52.65417,-7.25222
27/04/2021,"APARTMENT 202, THE WILLOWS, BOREENMANA ROAD",Cork,,337500,No,No,0,Second-Hand Dwelling house /Apartment,,51.89797,-8.47061
16/04/2021,"27 AN SRUTHAN BEAG, CLOGHEEN, CLONAKILTY",Cork,P85DX88,268720,No,Yes,1,New Dwelling house /Apartment,,51.62306,-8.87056
16/04/2021,"20 CLARIN WOOD, RATHMORE, KERRY",Kerry,P51XC93,171000,No,No,0,Second-Hand Dwelling house /Apartment,,52.08333,-9.21667
8/10/2021,"3 OLD COURT HOUSE, MARKET SQ, COLLON",Louth,A92YD37,130000,No,No,0,Second-Hand Dwelling house /Apartment,,53.78111,-6.48694
21/12/2021,"BROOKLAWN, MULLAGH, CAVAN",Cavan,,130000,No,No,0,Second-Hand Dwelling house /Apartment,,53.81306,-6.95139
31/03/2021,"50 LEE ESTATE, LIMERICK",Limerick,,124000,No,No,0,Second-Hand Dwelling house /Apartment,,52.66472,-8.62306
9/7/2021,"54 CASTLEKNOCK GRANGE, CASTLEKNOCK, DUBLIN",Dublin,D15N294,405000,No,No,0,Second-Hand Dwelling house /Apartment,,53.3791711,-6.3774001
11/6/2021,"76 CARRIGCOURT, CARRIGALINE, COUNTY CORK",Cork,P43W597,308000,No,No,0,Second-Hand Dwelling house /Apartment,,51.8243386,-8.3986833
10/12/2021,"47 BROTHERTON, SLEATY ROAD, GRAIGUECULLEN",Laois,R93N9W9,120160,No,No,0,Second-Hand Dwelling house /Apartment,,53,-7.4
22/09/2021,"37 LEIM AN BHRADAIN, GORT RD, ENNIS",Clare,V95KW02,95000,No,No,0,Second-Hand Dwelling house /Apartment,,52.84361,-8.98639
10/2/2021,"21 LYNALLY GROVE, MUCKLAGH TULLAMORE, OFFALY",Offaly,,252000,No,No,0,Second-Hand Dwelling house /Apartment,,53.2508785,-7.5451839
27/04/2021,"36 NEWPORTS SQUARE, WATERFORD",Waterford,X91WPK8,125000,No,No,0,Second-Hand Dwelling house /Apartment,,52.25833,-7.11194
16/07/2021,"BALLYHIST, ARDFINNAN, CLONMEL",Tipperary,,325000,No,No,0,Second-Hand Dwelling house /Apartment,,52.47333,-8.15583
16/12/2021,"34 THE MOORINGS, SKULL, CORK",Cork,P81H996,140000,No,No,0,Second-Hand Dwelling house /Apartment,,51.5240168,-9.546758
22/11/2021,"ROCKBROOK, RIVERSTOWN, SLIGO",Sligo,F52H588,117000,No,No,0,Second-Hand Dwelling house /Apartment,,54.13167,-8.39444
28/05/2021,"1520 ST BRIGIDS TERRACE, ROBERTSTOWN, NAAS",Kildare,W91EHP4,250000,No,No,0,Second-Hand Dwelling house /Apartment,,53.21583,-6.66694
15/10/2021,"10 WILLOWFIELD PARK AVEUNE, SANDYMOUNT, DUBLIN 4",Dublin,D04P990,395000,No,No,0,Second-Hand Dwelling house /Apartment,,53.33306,-6.24889
21/01/2021,"19 Lios na mBan, Ladysbridge, Castlemartyr",Cork,,251100,No,Yes,1,New Dwelling house /Apartment,,51.91028,-8.05389
29/07/2021,"38 BEECHWOOD PARK, BALLINLOUGH, CORK",Cork,T12E8Y6,180000,No,No,0,Second-Hand Dwelling house /Apartment,,51.8879273,-8.4474116
4/5/2021,"2 TEMPLE COURT, MOUNT SAINT ANNES, MILLTOWN",Dublin,D06TR84,580000,No,No,0,Second-Hand Dwelling house /Apartment,,53.33306,-6.24889
1/4/2021,"15 Cill Stiufin, School Road, Lahinch",Clare,,345810,No,Yes,1,New Dwelling house /Apartment,,52.93268,-9.33666
6/5/2021,"No 1 Galbolie, Bailieborough",Cavan,,167400,No,Yes,1,New Dwelling house /Apartment,,53.913789,-6.9820867
14/10/2021,"13 PARK HEATH, GRANGE RATH, DROGHEDA",Meath,A92P6KP,290000,No,No,0,Second-Hand Dwelling house /Apartment,,53.7066114,-6.3131556
8/12/2021,"9 EARLS COURT LYREEN MANOR, MAYNOOTH, KILDARE",Kildare,W23WD86,297020,No,No,0,Second-Hand Dwelling house /Apartment,,53.385,-6.59361
9/9/2021,"69 CAISEAL CAM, ROSCAM, GALWAY",Galway,H91C583,302000,No,No,0,Second-Hand Dwelling house /Apartment,,53.2750747,-8.9708226
22/01/2021,"46 ODWYERS VILLAS, THOMONDGATE, LIMERICK",Limerick,,145000,No,No,0,Second-Hand Dwelling house /Apartment,,52.66472,-8.62306
9/9/2021,"41 CENTREPOINT APTS, LIOSBAN BUSINESS PARKTUAM RD, GALWAY",Galway,H91X4P6,140000,No,No,0,Second-Hand Dwelling house /Apartment,,53.27194,-9.04889
23/07/2021,"56 The Avenue, Heathfield, Carriganarra",Cork,P31PW32,295150,No,Yes,1,New Dwelling house /Apartment,,51.88972,-8.55639
28/05/2021,"21 VERDEMONT, BLANCHARDSTOWN, DUBLIN 15",Dublin,D15E620,290000,No,No,0,Second-Hand Dwelling house /Apartment,,53.38799,-6.3930314
5/3/2021,"53 DERG HILL, CULLENAGH, BALLINA",Tipperary,,390000,No,No,0,Second-Hand Dwelling house /Apartment,,52.8179077,-8.4379939
16/12/2021,"36 THE PARK WOLSTAN HAVEN, CELBRIDGE, KILDARE",Kildare,W23D622,420000,No,No,0,Second-Hand Dwelling house /Apartment,,53.3421479,-6.5499116
29/10/2021,"9 BELARMINE CLOSE, STEPASIDE, DUBLIN 18",Dublin,D18YR25,620000,No,No,0,Second-Hand Dwelling house /Apartment,,53.2605215,-6.2187032
23/02/2021,"2 MARLEY CLOSE, MARLEY GRANGE, RATHFARNHAM DUBLIN 16",Dublin,,755000,No,No,0,Second-Hand Dwelling house /Apartment,,53.33306,-6.24889
21/07/2021,"19 THE BURROWS, CALVERSTOWN, KILDARE",Kildare,R56A702,375000,No,No,0,Second-Hand Dwelling house /Apartment,,53.083273,-6.794203
12/3/2021,"1 The View, Oldbridge Manor, Rathmullen",Meath,,255180,No,Yes,1,New Dwelling house /Apartment,,53.66667,-6.66667
30/09/2021,"182 Drakes Point, Crosshaven",Cork,,274160,No,Yes,1,New Dwelling house /Apartment,,51.79833,-8.30083
24/02/2021,"BALLYVAKE, GLENBRIEN, ENNISCORTHY",Wexford,,227000,No,No,0,Second-Hand Dwelling house /Apartment,,52.50083,-6.55778
18/05/2021,"21 Marella, Muckduff, Enniscrone",Sligo,,150000,No,Yes,1,New Dwelling house /Apartment,,54.21285,-9.09317
14/10/2021,"4 WOODFORD, BREWERY RD, STILLORGAN",Dublin,A94FH30,685000,No,No,0,Second-Hand Dwelling house /Apartment,,53.33306,-6.24889
3/12/2021,"20 ARRANMORE, PEMBROKE RD, DUBLIN 4",Dublin,D04H227,252500,No,No,0,Second-Hand Dwelling house /Apartment,,53.33306,-6.24889
25/01/2021,"63 OLD BALREASK WOODS, NAVAN, MEATH",Meath,,240000,No,No,0,Second-Hand Dwelling house /Apartment,,,
10/11/2021,"7 THE OLD MILL, PORTLAOISE, LAOIS",Laois,R32FC97,105000,No,No,0,Second-Hand Dwelling house /Apartment,,53.03441,-7.29979
26/08/2021,"DUNMORE, DOONBEG, CLARE",Clare,,132000,No,No,0,Second-Hand Dwelling house /Apartment,,52.73194,-9.52278
14/12/2021,"3 CLOGHER RD, CRUMLIN, DUBLIN 12",Dublin,D12P2K1,268000,No,No,0,Second-Hand Dwelling house /Apartment,,53.3253307,-6.2993652
19/04/2021,"7 LIOS ANAMA, SIXMILEBRIDGE, CLARE",Clare,V95KP30,240000,No,No,0,Second-Hand Dwelling house /Apartment,,52.74139,-8.77417
9/12/2021,"42 WESTPARK, BLESSINGTON, CO WICKLOW",Wicklow,W91Y3C2,250000,No,No,0,Second-Hand Dwelling house /Apartment,,53.1686242,-6.5408559
10/2/2021,"16 SANDYMOUNT AVE, GLASHEEN RD, WILTON",Cork,,305000,No,No,0,Second-Hand Dwelling house /Apartment,,51.89797,-8.47061
15/12/2021,"LOUGH SILLAN HOUSE, CARRICKACREENY, SHERCOCK",Cavan,A81Y751,1000000,No,No,0,Second-Hand Dwelling house /Apartment,,54,-6.9
18/02/2021,"1 RIVERSIDE, THOMOND RD, THURLES",Tipperary,,165000,No,No,0,Second-Hand Dwelling house /Apartment,,,
16/06/2021,"APT 5 CHESTNUT HOUSE, APPLEWOOD VILLAGE, SWORDS",Dublin,K67KX85,220000,No,No,0,Second-Hand Dwelling house /Apartment,,53.33306,-6.24889
23/02/2021,"7 Coill Doire, Faha East, Killarney",Kerry,,305730,No,Yes,1,New Dwelling house /Apartment,,52.05,-9.51667
20/09/2021,"11 PARK LANE, GRANGERATH, COLPE",Meath,A92X5DD,335000,No,No,0,Second-Hand Dwelling house /Apartment,,53.66667,-6.66667
29/04/2021,"COMMONS, KILLYBEGS, DONEGAL",Donegal,,126000,No,No,0,Second-Hand Dwelling house /Apartment,,54.6554289,-8.4273673
2/11/2021,"MONEYVOULIHANE, SKIBBEREEN, WEST CORK",Cork,P81W603,280000,No,No,0,Second-Hand Dwelling house /Apartment,,51.89797,-8.47061
7/12/2021,"10 ASHBROOK GROVE, ENNIS RD, LIMERICK",Limerick,V947W84,440000,No,No,0,Second-Hand Dwelling house /Apartment,,52.66472,-8.62306
10/9/2021,"11 The Park, Citywest Village, Citywest",Dublin,,348020,No,Yes,1,New Dwelling house /Apartment,,53.2886535,-6.4192706
11/3/2021,"137 THE GALLERY, TURVEY WALK, DONABATE",Dublin,,300000,No,No,0,Second-Hand Dwelling house /Apartment,,53.33306,-6.24889
8/12/2021,"10 BREGA HAMLET LANE, BALBRIGGAN, DUBLIN",Dublin,K32FD70,246000,No,No,0,Second-Hand Dwelling house /Apartment,,53.6150035,-6.2027144
19/11/2021,"FARNAUGHT, WESTPORT, MAYO",Mayo,F28NW93,335000,No,No,0,Second-Hand Dwelling house /Apartment,,53.8,-9.51667
7/5/2021,"4 BROOKWOOD MEADOW, ARTANE, DUBLIN 5",Dublin,D05A023,605000,No,No,0,Second-Hand Dwelling house /Apartment,,53.33306,-6.24889
23/07/2021,"KILMORE, LACKEN, BLESSINGTON",Wicklow,,240000,No,No,0,Second-Hand Dwelling house /Apartment,,53.17,-6.5325
25/08/2021,"2 ST PATRICKS TERRACE, PORTARLINGTON, OFFALY",Offaly,R32HH01,178000,No,No,0,Second-Hand Dwelling house /Apartment,,53.25,-7.5
12/10/2021,"3 Walker Grove, Parkside, Balgriffin",Dublin,,365640,No,Yes,1,New Dwelling house /Apartment,,53.33306,-6.24889
26/08/2021,"66 DURROW RD, STANNAWAY RD, CRUMLIN DUBLIN 12",Dublin,D12K66X,327000,No,No,0,Second-Hand Dwelling house /Apartment,,53.33306,-6.24889
15/12/2021,"61B LOWER O'CONNELL STREET, KINSALE, CO. CORK",Cork,P17E046,220000,No,No,0,Second-Hand Dwelling house /Apartment,,51.70262,-8.5207493
27/10/2021,"RATHDRINAGH, BEAUPARC, NAVAN",Meath,,294000,No,No,0,Second-Hand Dwelling house /Apartment,,53.65278,-6.68139
7/12/2021,"4 Rathangan Manor, Bracknagh Road, Rathangan",Kildare,,264320,No,Yes,1,New Dwelling house /Apartment,,53.22139,-6.995
18/02/2021,"55 TIRCROGHAN, KINNEGAD, COUNTY WESTMEATH",Westmeath,,175000,No,No,0,Second-Hand Dwelling house /Apartment,,53.45222,-7.09972
25/02/2021,"22 THE DRIVE, HARBOUR HEIGHTS, PASSAGE WEST",Cork,,251000,No,No,0,Second-Hand Dwelling house /Apartment,,51.8750949,-8.3526628
4/3/2021,"APT 3, CHAMBERLAIN COURT, RICHMOND AVE DUBLIN 3",Dublin,,272500,No,No,0,Second-Hand Dwelling house /Apartment,,53.3641371,-6.243269
18/11/2021,"39 BROOK NA GILLE, MOYVANE, KERRY",Kerry,V31T950,138000,No,No,0,Second-Hand Dwelling house /Apartment,,52.16667,-9.75
25/11/2021,"CASTLEVIEW, CLOONEEN, DUNMORE",Galway,,155000,No,No,0,Second-Hand Dwelling house /Apartment,,53.61667,-8.73333
9/9/2021,"10 Churchlands, Delgany, Co. Wicklow",Wicklow,,436120,No,Yes,1,New Dwelling house /Apartment,,53.1397203,-6.0817415
5/2/2021,"17 THE ELMS, LOUGH NA GLACK, CARRICKMACROSS",Monaghan,,127750,No,Yes,1,New Dwelling house /Apartment,,53.97278,-6.71889
28/06/2021,"9 BALOOR, CASTLEBAR, MAYO",Mayo,,440000,No,No,0,Second-Hand Dwelling house /Apartment,,53.85,-9.3
30/08/2021,"1 MARIAN TERRACE, MARKET SQ, KINSALE",Cork,P17P718,475000,No,No,0,Second-Hand Dwelling house /Apartment,,51.7075,-8.53056
22/01/2021,"29 The Oaks, Ballinahinch Wood, Ashford",Wicklow,,339210,No,Yes,1,New Dwelling house /Apartment,,53.00833,-6.11139
8/11/2021,"77 ARDLEA, DUNSHAUGHLIN, CO MEATH",Meath,A85AW63,405000,No,No,0,Second-Hand Dwelling house /Apartment,,53.5161064,-6.545284
19/10/2021,"29 GREENHILLS VIEW, THE PINES, BALLINASLOE",Galway,H53EK15,182000,No,No,0,Second-Hand Dwelling house /Apartment,,53.3275,-8.21944
21/09/2021,"MONROE, PORTLOMAN, MULLINGAR",Westmeath,,200000,No,No,0,Second-Hand Dwelling house /Apartment,,53.53333,-7.35
21/09/2021,"33 Slan Duff View, Kentstown, Co Meath",Meath,,231280,No,Yes,1,New Dwelling house /Apartment,,53.66667,-6.66667
30/06/2021,"19 PARK RIDGE, GRANGE RATH, DUBLIN RD DROGHEDA",Meath,A92CT82,195000,No,No,0,Second-Hand Dwelling house /Apartment,,53.66667,-6.66667
5/10/2021,"EVERGREEN HOUSE, YOUGHAL, CORK",Cork,P36W867,176000,No,No,0,Second-Hand Dwelling house /Apartment,,51.9403361,-7.8470499
22/01/2021,"40 Sika Woods, Enniskerry",Wicklow,,724960,No,Yes,1,New Dwelling house /Apartment,,53.1930393,-6.1889442
22/10/2021,"42 HOWTH ROAD, SUTTON, DUBLIN 13",Dublin,D13K5F2,875000,No,No,0,Second-Hand Dwelling house /Apartment,,53.3901066,-6.1034055
7/12/2021,"10 RIVERSDALE GROVE, PALMERSTOWN VILLAGE, DUBLIN 20",Dublin,D20V267,450000,No,No,0,Second-Hand Dwelling house /Apartment,,53.33306,-6.24889
19/05/2021,"72 BLUE CEDARS, CAPPRY, BALLYBOFEY",Donegal,F93E8F2,140000,No,No,0,Second-Hand Dwelling house /Apartment,,54.8,-7.78333
16/07/2021,"3 MADDENSTOW NORTH, SUNCROFT, CURRAGH",Kildare,R56NP62,183080,No,No,0,Second-Hand Dwelling house /Apartment,,53.15278,-6.84694
28/05/2021,"20 WOODVIEW, RATHANGAN, KILDARE",Kildare,R51NW94,320000,No,No,0,Second-Hand Dwelling house /Apartment,,53.2252885,-7.002558
20/07/2021,"6 KNIGHTS PARK, RATHBAWN RD, CASTLEBAR",Mayo,F23VX66,185000,No,No,0,Second-Hand Dwelling house /Apartment,,53.85,-9.3
29/11/2021,"STONEHAVEN, LEA RD, PORTARLINGTON",Laois,R32E6D6,370000,No,No,0,Second-Hand Dwelling house /Apartment,,53.16222,-7.19111
30/06/2021,"12 JOY ST, RINGSEND, DUBLIN 4",Dublin,D04E398,470000,No,No,0,Second-Hand Dwelling house /Apartment,,53.33306,-6.24889
8/12/2021,"64 Barnwell Park, Hansfield",Dublin,,348020,No,Yes,1,New Dwelling house /Apartment,,53.33306,-6.24889
17/09/2021,"3 EASCANRATH BROOK, SUNCROFT, THE CURRAGH",Kildare,R56TR80,430000,No,No,0,Second-Hand Dwelling house /Apartment,,53.15278,-6.84694
30/09/2021,"3 ROCKWELL, SCHULL RD, BALLYDEHOB",Cork,P81AY23,175000,No,No,0,Second-Hand Dwelling house /Apartment,,51.55,-9.46667
3/3/2021,"ATHGARVAN, NEWBRIDGE, KILDARE",Kildare,,540000,No,No,0,Second-Hand Dwelling house /Apartment,,53.1751523,-6.7998014
29/10/2021,"39 PALMERSTOWN AVE, PALMERSTOWN, DUBLIN 20",Dublin,D20KP59,445000,No,No,0,Second-Hand Dwelling house /Apartment,,53.3540142,-6.3705311
19/11/2021,"1 THE GREEN, BARNHALL MEADOWS, LEIXLIP",Kildare,W23AW9Y,356830,No,Yes,1,New Dwelling house /Apartment,,53.3617137,-6.5123017
14/10/2021,"CARVAGH, LINSFORT, BUNCRANA",Donegal,,199000,No,No,0,Second-Hand Dwelling house /Apartment,,55.13333,-7.45
19/08/2021,"RADAM, TUBBER LANE RD, ADERRIG",Dublin,K78DY79,810000,No,No,0,Second-Hand Dwelling house /Apartment,,53.33306,-6.24889
24/03/2021,"175 ST HELENS VILLAGE, KILRANE, ROSSLARE",Wexford,,142000,No,No,0,Second-Hand Dwelling house /Apartment,,52.27583,-6.38444
13/07/2021,"169 SEVEN OAKS, SARSFIELD RD DUBLIN, DUBLIN 10",Dublin,D10RC59,119270,Yes,No,0,Second-Hand Dwelling house /Apartment,,53.33306,-6.24889
16/09/2021,"93 CHARLESLAND PARK, CHARLESLAND, GREYSTONES",Wicklow,A63Y961,325100,No,No,0,Second-Hand Dwelling house /Apartment,,53.1255174,-6.0688101
6/10/2021,"9 CARMICHAEL HALL, ST COLUMBANUS RD, DUNDRUM DUBLIN 14",Dublin,D14Y298,350000,No,No,0,Second-Hand Dwelling house /Apartment,,53.33306,-6.24889
26/03/2021,"188A SUNDRIVE RD, CRUMLIN, DUBLIN 12",Dublin,,395000,No,No,0,Second-Hand Dwelling house /Apartment,,53.3265404,-6.2972853
7/5/2021,"8 ASHDOWN, CIRCULAR RD, GALWAY",Galway,H91PY8E,450000,No,No,0,Second-Hand Dwelling house /Apartment,,53.27194,-9.04889
6/10/2021,"ARDEE RD, CARRICKMACROSS, MONAGHAN",Monaghan,,245100,No,No,0,Second-Hand Dwelling house /Apartment,,53.9679132,-6.7156064
23/06/2021,"APT 65 WESTPOINT, ALTAMONT ST, WESTPORT",Mayo,,174000,No,No,0,Second-Hand Dwelling house /Apartment,,53.8,-9.51667
26/04/2021,"7 CASTLEGROUNDS, COROFIN, GALWAY",Galway,H54YN72,270000,No,No,0,Second-Hand Dwelling house /Apartment,,53.43333,-8.85
29/03/2021,"75 MOYLARAGH DR, BALBRIGGAN, DUBLIN",Dublin,,165000,No,No,0,Second-Hand Dwelling house /Apartment,,53.6112678,-6.2017402
15/12/2021,"MOOR, ARDAGH, CO LONGFORD",Longford,N39XF65,225000,No,Yes,1,New Dwelling house /Apartment,,53.6679082,-7.703702
19/01/2021,"38 BINN BHAN CAPPAGH RD, GALWAY",Galway,,290500,No,No,0,Second-Hand Dwelling house /Apartment,,53.27194,-9.04889
9/3/2021,"3 THE AVENUE, GARRANE DARRA, WILTON",Cork,,207000,No,No,0,Second-Hand Dwelling house /Apartment,,51.89797,-8.47061
10/3/2021,"3 DRUIDS COURT, ARDRAHAN, GALWAY",Galway,,265000,No,No,0,Second-Hand Dwelling house /Apartment,,53.1575,-8.80583
13/12/2021,"4 STEEPLE MEADOW WAY, MILLTOWN, KERRY",Kerry,V93T2C7,240000,No,No,0,Second-Hand Dwelling house /Apartment,,52.1422732,-9.7137111
24/06/2021,"33A THE BOTTLEWORKS, RINGSEND, DUBLIN 4",Dublin,,390000,No,No,0,Second-Hand Dwelling house /Apartment,,53.33306,-6.24889
22/10/2021,"THE BURROW, 1 BALLYCAR RD, NEWMARKET ON FERGUS",Clare,V95FE80,318000,No,No,0,Second-Hand Dwelling house /Apartment,,52.76,-8.89556
30/07/2021,"38 SOUTH DOCK ST, DUBLIN 4, DUBLIN",Dublin,D04XE04,460000,No,No,0,Second-Hand Dwelling house /Apartment,,53.3410175,-6.2345026
30/07/2021,"TOGHER, DAINGEAN, CO OFFALY",Offaly,,150000,No,No,0,Second-Hand Dwelling house /Apartment,,53.29611,-7.28944
4/10/2021,"16 COIS LI, BALLYVELLY, TRALEE",Kerry,V92X8FP,220000,No,No,0,Second-Hand Dwelling house /Apartment,,52.27042,-9.70264
8/10/2021,"FEDDAN HOUSE, KILTEGAN, WICKLOW",Wicklow,,745000,No,No,0,Second-Hand Dwelling house /Apartment,,52.90111,-6.60722
21/06/2021,"9 The Court, Barnhall Meadows, Leixlip",Kildare,,267780,Yes,Yes,1,New Dwelling house /Apartment,,53.3620678,-6.5103149
5/3/2021,"66 PARKLANDS, YOUGHAL, CORK",Cork,,210000,No,No,0,Second-Hand Dwelling house /Apartment,,51.9532281,-7.8570222
7/5/2021,"53 Strand View, Howth Road",Dublin,,743880,No,Yes,1,New Dwelling house /Apartment,,53.33306,-6.24889
10/9/2021,"4B KERMON HOUSE, NORTH QUAY, LOUTH",Louth,,105000,No,No,0,Second-Hand Dwelling house /Apartment,,53.94861,-6.54139
16/02/2021,"EASTCOTE, GLASSONS AVE, COBH",Cork,,300000,No,No,0,Second-Hand Dwelling house /Apartment,,51.85722,-8.29917
9/2/2021,"BUMBLE COTTAGE, BRACKWANSHA, KNOCKMORE",Mayo,,110000,No,No,0,Second-Hand Dwelling house /Apartment,,54.01889,-9.17528
13/10/2021,"334 CHARLEMONT, GRIFFITH AVE, DUBLIN",Dublin,D09R6V3,602000,No,No,0,Second-Hand Dwelling house /Apartment,,53.33306,-6.24889
12/11/2021,"64 HOLLYSTOWN PARK, HOLLYSTOWN, DUBLIN 15",Dublin,D15T2W4,510000,No,No,0,Second-Hand Dwelling house /Apartment,,53.4335954,-6.3881846
2/3/2021,"3 MARINE VILLAS, HOWTH RD, HOWTH",Dublin,,275000,No,No,0,Second-Hand Dwelling house /Apartment,,53.33306,-6.24889
21/12/2021,"33 FRIARS HILL, WICKLOW TOWN, WICKLOW",Wicklow,A67C597,510000,No,No,0,Second-Hand Dwelling house /Apartment,,52.975,-6.04944
20/05/2021,"11 WEST ST, TALLOW, CO WATERFORD",Waterford,,110000,No,No,0,Second-Hand Dwelling house /Apartment,,52.0927419,-8.0161823
31/03/2021,"445 MILLTOWN, CONVOY, LIFFORD",Donegal,,88000,No,No,0,Second-Hand Dwelling house /Apartment,,54.83194,-7.48361
12/3/2021,"24 CARTONCOURT, MAYNOOTH, KILDARE",Kildare,,295000,No,No,0,Second-Hand Dwelling house /Apartment,,53.385,-6.59361
30/09/2021,"APARTMENT 1, KERRY OCEAN SUITES, BALLYBUNION",Kerry,V31W665,110000,No,No,0,Second-Hand Dwelling house /Apartment,,52.51108,-9.67097
26/11/2021,"97 SPRINGFIELD, DUNGARVAN, WATERFORD",Waterford,X35P957,170000,No,No,0,Second-Hand Dwelling house /Apartment,,52.0858063,-7.6345423
20/12/2021,"5 CHERBURY GARDENS, BOOTERSTOWN, DUBLIN",Dublin,A94F6N7,955000,No,No,0,Second-Hand Dwelling house /Apartment,,53.33306,-6.24889
2/6/2021,"AVENUE PARK, AVENUE ROAD, DUNDALK",Louth,A91V2W2,312500,No,No,0,Second-Hand Dwelling house /Apartment,,54,-6.41667
6/10/2021,"14 MAPLEWOOD WAY, DUBLIN 24, DUBLIN",Dublin,D24V4F3,270000,No,No,0,Second-Hand Dwelling house /Apartment,,53.2863459,-6.383888
24/05/2021,"BUNLAHINCH, FEENONE, MAYO",Mayo,,225000,No,No,0,Second-Hand Dwelling house /Apartment,,53.75977,-9.11719
13/10/2021,"59 SLIEVENAMON RD, DRIMNAGH, DUBLIN 12",Dublin,D12XK64,350000,No,No,0,Second-Hand Dwelling house /Apartment,,53.33306,-6.24889
23/04/2021,"55 BARLEYHOUSE, CORK ST, DUBLIN 8",Dublin,D08T652,318500,No,No,0,Second-Hand Dwelling house /Apartment,,53.33306,-6.24889
11/6/2021,"192 CHARLESLAND COURT, GREYSTONES, WICKLOW",Wicklow,A63X594,342500,No,No,0,Second-Hand Dwelling house /Apartment,,53.1289264,-6.0707042
5/5/2021,"2 Lake Street, Belltree, Clongriffin",Dublin,,384960,No,Yes,1,New Dwelling house /Apartment,,53.33306,-6.24889
31/03/2021,"71 SHREWSBURY SQ, SANDYMOUNT AVE, DUBLIN",Dublin,,780000,No,No,0,Second-Hand Dwelling house /Apartment,,53.33306,-6.24889
15/02/2021,"5 WOODBURY, BARNA, COUNTY GALWAY",Galway,,395000,No,No,0,Second-Hand Dwelling house /Apartment,,53.25194,-9.14972
11/8/2021,"40 MONKSFIELD, ABBEYSIDE, DUNGARVAN",Waterford,X35NX60,410000,No,No,0,Second-Hand Dwelling house /Apartment,,52.0952217,-7.6055733
10/5/2021,"CARRABANE, PETERSWELL, CO GALWAY",Galway,,100000,No,No,0,Second-Hand Dwelling house /Apartment,,53.115,-8.74139
13/09/2021,"21 GARRINGREEN, KILKENNY, KILKENNY",Kilkenny,R95Y2DH,315000,No,No,0,Second-Hand Dwelling house /Apartment,,52.6631217,-7.2285574
22/10/2021,"12 The Green, An Glasan, Greenville Lane",Wexford,,206170,No,Yes,1,New Dwelling house /Apartment,,52.5,-6.66667
18/06/2021,"2 ARAVON COURT, MEATH RD, BRAY",Wicklow,A98VX90,500000,No,No,0,Second-Hand Dwelling house /Apartment,,53.20278,-6.09833
18/02/2021,"10 CHERRYFIELD PARK, CLONSILLA DUBLIN 15, DUBLIN",Dublin,,275000,No,No,0,Second-Hand Dwelling house /Apartment,,53.33306,-6.24889
23/03/2021,"GWEEBARA, 26 CLIFF RD, TRAMORE",Waterford,,475000,No,No,0,Second-Hand Dwelling house /Apartment,,52.16235,-7.15244
30/06/2021,"7 COIS UISCE, CAHEERCIVEEN, KERRY",Kerry,V23ED74,168000,No,No,0,Second-Hand Dwelling house /Apartment,,52.16667,-9.75
12/11/2021,"24 EARLSFORT CLOSE, EARLSFORT, LUCAN",Dublin,K78DD83,290000,Yes,No,0,Second-Hand Dwelling house /Apartment,,53.3458583,-6.4157998
31/03/2021,"54 INISCEALTRA, BALLINA, TIPPERARY",Tipperary,V94VKP0,390000,No,No,0,Second-Hand Dwelling house /Apartment,,52.8139138,-8.4445045
16/09/2021,"92 CANTERBROOK, TRIM RD, NAVAN",Meath,C15K2EA,239000,No,No,0,Second-Hand Dwelling house /Apartment,,53.65278,-6.68139
23/09/2021,"BRACKARAGH, CAHERDANIEL, COUNTY KERRY",Kerry,,238000,No,No,0,Second-Hand Dwelling house /Apartment,,51.76667,-10.1
1/2/2021,"101 LACKANASH NAVAN RD, TRIM, MEATH",Meath,,255000,No,No,0,Second-Hand Dwelling house /Apartment,,53.555,-6.79167
5/3/2021,"26 THOMOND COURT, THOMOND HALL, BALLYMAHON",Longford,,130000,No,No,0,Second-Hand Dwelling house /Apartment,,,
8/12/2021,"84 Ardmore Hills, Mullingar",Westmeath,,387660,No,Yes,1,New Dwelling house /Apartment,,53.5190136,-7.310489
2/2/2021,"119 THE RICHMOND, NORTH BRUNSWICK ST, DUBLIN 7",Dublin,,275000,No,No,0,Second-Hand Dwelling house /Apartment,,53.33306,-6.24889
14/09/2021,"LORETTO, LEE RD, CORK",Cork,,313000,No,No,0,Second-Hand Dwelling house /Apartment,,51.89797,-8.47061
31/05/2021,"WHITERATH, DROMISKIN, DUNDALK",Louth,A91R2X6,168000,No,No,0,Second-Hand Dwelling house /Apartment,,53.9263036,-6.4168385
6/7/2021,"25 LANSDOWNE VALLEY PARK, BLACKHORSE, DRIMNAGH DUBLIN 12",Dublin,D12WN51,390000,No,No,0,Second-Hand Dwelling house /Apartment,,53.33306,-6.24889
25/08/2021,"20 The Avenue, Green Lane Manor, Rathcoole",Dublin,,458150,No,Yes,1,New Dwelling house /Apartment,,53.33306,-6.24889
17/09/2021,"39 ROS ARD, UPPER GLANMIRE, CORK",Cork,T23HV56,265000,No,No,0,Second-Hand Dwelling house /Apartment,,51.95028,-8.42833
27/01/2021,"8 LOWER NEW STREET, SLIGO, CO SLIGO",Sligo,,109000,No,No,0,Second-Hand Dwelling house /Apartment,,54.2735689,-8.4758545
7/10/2021,"9  ESTUARY  VIEW, CROSSTOWN, WEXFORD TOWN",Wexford,Y35N5YA,330000,No,No,0,Second-Hand Dwelling house /Apartment,,52.5,-6.66667
1/3/2021,"DRUMAMBRY, KILLESHANDRA, CAVAN",Cavan,,125000,No,No,0,Second-Hand Dwelling house /Apartment,,54.01667,-7.53333
9/3/2021,"2 ST IGNATIUS TERRACE, FAIRHILL, GALWAY",Galway,,240000,No,No,0,Second-Hand Dwelling house /Apartment,,53.2651172,-9.0584502
17/08/2021,"No. 10 Bellfield Park, Dublin Road, Dundalk",Louth,,286340,No,Yes,1,New Dwelling house /Apartment,,54,-6.41667
20/12/2021,"46 RAILWAY VIEW, ROSCREA, TIPPERARY",Tipperary,E53VP70,109000,No,No,0,Second-Hand Dwelling house /Apartment,,52.47333,-8.15583
30/07/2021,"GORTMUNGA, COOLBAWN, NENAGH",Tipperary,,258000,No,No,0,Second-Hand Dwelling house /Apartment,,52.47333,-8.15583
20/12/2021,"11 ROSECOURT, CABRA RD, DUBLIN",Dublin,D07W594,215000,No,No,0,Second-Hand Dwelling house /Apartment,,53.33306,-6.24889
18/08/2021,"71 ROEBUCK CASTLE, ROEBUCK RD, CLONSKEAGH DUBLIN 14",Dublin,D14E7F6,539000,No,No,0,Second-Hand Dwelling house /Apartment,,53.33306,-6.24889
23/03/2021,"BOOLYPATRICK, BLARNEY, CO CORK",Cork,,270000,No,No,0,Second-Hand Dwelling house /Apartment,,51.9315717,-8.5902876
2/3/2021,"21 WELLINGTON COURT, BRAY, WICKLOW",Wicklow,,477000,No,No,0,Second-Hand Dwelling house /Apartment,,53.20278,-6.09833
27/08/2021,"CARRIGBEG, BALLINAHINCH, ASHFORD",Wicklow,A67T654,525000,No,No,0,Second-Hand Dwelling house /Apartment,,53.00833,-6.11139
9/4/2021,"6 ST PATRICKS TERRACE, DUN LAOGHAIRE, DUBLIN",Dublin,A96ED32,366000,No,No,0,Second-Hand Dwelling house /Apartment,,53.33306,-6.24889
21/10/2021,"MILL ROAD, DUNGLOE, DONEGAL",Donegal,F94E48X,220000,No,No,0,Second-Hand Dwelling house /Apartment,,54.9515885,-8.367114
28/10/2021,"11 WOLVERTON GLEN, CASTLEPARK ROAD, DALKEY",Dublin,A96C9Y4,630000,No,No,0,Second-Hand Dwelling house /Apartment,,53.33306,-6.24889
18/05/2021,"6 LAKE STREET, BELLTREE, CLONGRIFFIN",Dublin,,370040,No,Yes,1,New Dwelling house /Apartment,,53.33306,-6.24889
11/8/2021,"103 RUSHEEN ARD, CALTRAGH, SLIGO",Sligo,F91FAA9,175000,No,No,0,Second-Hand Dwelling house /Apartment,,54.26969,-8.46943
29/01/2021,"BASSETDOWN, RINEEN, SKIBBEREEN",Cork,,237500,No,No,0,Second-Hand Dwelling house /Apartment,,51.55,-9.26667
30/03/2021,"4 KENT TERRACE, CASTLELYONS, CORK",Cork,P61ND00,95000,No,No,0,Second-Hand Dwelling house /Apartment,,52.0807654,-8.2239952
20/09/2021,"16 CEANN MARA COURT, PAIRC NA GLOINE, KENMARE",Kerry,V93V838,208000,No,No,0,Second-Hand Dwelling house /Apartment,,51.88333,-9.58333
21/09/2021,"ASHLEIGH COURT, COLLEGE RD, KILKENNY",Kilkenny,,620000,No,No,0,Second-Hand Dwelling house /Apartment,,52.65417,-7.25222
22/10/2021,"MERSHEEN LODGE, DUNCANNON, WEXFORD",Wexford,Y34EK80,285000,No,No,0,Second-Hand Dwelling house /Apartment,,52.22028,-6.91694
9/12/2021,"2 CUL NA GREINE, NEWTOWN, BANTRY",Cork,P75XV00,215000,No,No,0,Second-Hand Dwelling house /Apartment,,51.68333,-9.45
20/01/2021,"POULAKERRY, BRUACH NA HABHAINN, KILSHEELAN",Tipperary,,385000,No,No,0,Second-Hand Dwelling house /Apartment,,52.47333,-8.15583
16/04/2021,"KNOWTH LODGE, KNOWTH, SLANE",Meath,,362000,No,No,0,Second-Hand Dwelling house /Apartment,,53.71,-6.54333
17/05/2021,"ROCKFIELD, 16 KILMORE ROAD, ARTANE",Dublin,D05X8C9,365000,No,No,0,Second-Hand Dwelling house /Apartment,,53.3826482,-6.2074535
9/2/2021,"15 THE GOLF SUITES, COLDWATER LAKES, SAGGART",Dublin,,155000,No,No,0,Second-Hand Dwelling house /Apartment,,53.33306,-6.24889
17/12/2021,"215 DECIES RD BALLYFERMOT, DUBLIN 10, DUBLIN",Dublin,D10W202,176000,No,No,0,Second-Hand Dwelling house /Apartment,,53.3398636,-6.3420607
28/04/2021,"DERRYCRAMPH, SWELLAN, CAVAN",Cavan,,217500,No,No,0,Second-Hand Dwelling house /Apartment,,53.99083,-7.36056
24/09/2021,"2 The Vicarage, Rathmolyon",Meath,,352420,No,Yes,1,New Dwelling house /Apartment,,53.48989,-6.80537
17/05/2021,"15 FATHER ANGELUS PARK, WESTPORT, MAYO",Mayo,F28FC64,225000,No,No,0,Second-Hand Dwelling house /Apartment,,53.803234,-9.51411
25/06/2021,"APT 23 FAIRFIELD, DUBLIN ROAD, ATHY",Kildare,,122500,No,No,0,Second-Hand Dwelling house /Apartment,,52.99139,-6.98028
12/10/2021,"19 COIS LOCHA, DOOHAMLET, CASTLEBLAYNEY",Monaghan,A75XH66,230000,No,No,0,Second-Hand Dwelling house /Apartment,,54.11667,-6.73333
9/7/2021,"7 DUNBRODY WHARF, CRAYWELL RD, NEW ROSS",Wexford,Y34R914,85000,No,No,0,Second-Hand Dwelling house /Apartment,,52.39667,-6.93667
18/06/2021,"25 SPRINGLAWN CLOSE, BLANCHARDSTOWN, DUBLIN 15",Dublin,D15XFK4,380000,No,No,0,Second-Hand Dwelling house /Apartment,,53.3899872,-6.3835561
21/07/2021,"58 WHATLEY PLACE, KILMACUD RD UPPER, STILLORGAN",Dublin,A94X242,450000,No,No,0,Second-Hand Dwelling house /Apartment,,53.33306,-6.24889
30/06/2021,"RINGTOWN, CASTLEPOLLARD, WESTMEATH",Westmeath,,300000,No,No,0,Second-Hand Dwelling house /Apartment,,53.66667,-7.3
3/12/2021,"46 CHAMBERS PARK, KILCOCK, KILDARE",Kildare,W23X722,267000,No,No,0,Second-Hand Dwelling house /Apartment,,53.3923714,-6.6722936
14/05/2021,"Ardnacraney, Gortmore, Athlone",Westmeath,,305000,No,Yes,1,New Dwelling house /Apartment,,53.43333,-7.95
10/5/2021,"APT 1   77 NEW ST, KILLARNEY, KERRY",Kerry,V93YCY5,200000,No,No,0,Second-Hand Dwelling house /Apartment,,52.05,-9.51667
12/2/2021,"25 GLEN ABHAINN CRESCENT, ENFIELD, MEATH",Meath,,315000,No,No,0,Second-Hand Dwelling house /Apartment,,53.4110367,-6.8319294
20/05/2021,"10 NA C??ITHRE GAOITHE, RING, DUNGARVAN",Waterford,X35DN20,450000,No,No,0,Second-Hand Dwelling house /Apartment,,52.0484208,-7.5805771
23/04/2021,"CARROWLOUGH, DUBLIN RD, CASHEL",Tipperary,,200000,No,No,0,Second-Hand Dwelling house /Apartment,,52.47333,-8.15583
5/8/2021,"NADRID, MEADOWLANDS, KINSALE",Cork,P17X898,124200,No,No,0,Second-Hand Dwelling house /Apartment,,51.7075,-8.53056
20/10/2021,"21 LIOS NA GREINE, SOUTH DOUGLAS ROAD, CO CORK",Cork,T12V567,145000,No,No,0,Second-Hand Dwelling house /Apartment,,51.89797,-8.47061
17/06/2021,"41 CANON HALL, CHURCH ST EAST, DUBLIN 3",Dublin,D03DF84,280000,No,No,0,Second-Hand Dwelling house /Apartment,,53.33306,-6.24889
3/9/2021,"137 CLOCHOG, BOG RD, ORANMORE",Galway,H91VF38,232000,No,No,0,Second-Hand Dwelling house /Apartment,,53.26833,-8.92
5/3/2021,"45 SANDYCOVE PHASE 1, BALLYMONEY, GOREY",Wexford,,250000,No,No,0,Second-Hand Dwelling house /Apartment,,52.67472,-6.2925
21/07/2021,"97 ELTON COURT, LEIXLIP, KILDARE",Kildare,W23R6X3,343000,No,No,0,Second-Hand Dwelling house /Apartment,,53.3611267,-6.505652
27/08/2021,"12 CADDELL, THE LINKS, PORTMARNOCK",Dublin,D13AD72,352000,No,No,0,Second-Hand Dwelling house /Apartment,,53.33306,-6.24889
19/08/2021,"STANLEY LODGE, GULLANE, CLONAKILTY",Cork,,525000,No,No,0,Second-Hand Dwelling house /Apartment,,51.62306,-8.87056
9/3/2021,"16 ASHLEY AVENUE, CHERRYMOUNT, WATERFORD",Waterford,,222500,No,No,0,Second-Hand Dwelling house /Apartment,,52.25833,-7.11194
19/05/2021,"NO. 21 THE GLADES, OLD GRANGE WOOD, MONASTEREVIN",Kildare,,158590,No,Yes,1,New Dwelling house /Apartment,,53.14056,-7.06639
31/05/2021,"COOLDELANE, LISMORE, CO WATERFORD",Waterford,,159000,No,No,0,Second-Hand Dwelling house /Apartment,,52.13667,-7.93083
24/08/2021,"31 CULRUA, BROWN ST, PORTLAW",Waterford,,163000,No,No,0,Second-Hand Dwelling house /Apartment,,52.28833,-7.32056
19/10/2021,"41 OSCAR SQ, DUBLIN 8, DUBLIN",Dublin,D08Y8N2,665000,No,No,0,Second-Hand Dwelling house /Apartment,,53.3366623,-6.2793079
6/8/2021,"CLONGEE HOUSE, FOXFORD, COUNTY MAYO",Mayo,F26PC81,400000,No,No,0,Second-Hand Dwelling house /Apartment,,53.98333,-9.11667
3/8/2021,"APT 19, 61 CORK ST, DUBLIN 8",Dublin,D08KT95,317500,Yes,No,0,Second-Hand Dwelling house /Apartment,,53.338045,-6.2830357
17/06/2021,"84 SAND DUNE HOLIDAY COTTAGES, BANNA, KERRY",Kerry,,107500,No,No,0,Second-Hand Dwelling house /Apartment,,52.36167,-9.82889
3/6/2021,"35 NEWGRANGE RD, CABRA, DUBLIN 7",Dublin,D07PPW1,105000,Yes,No,0,Second-Hand Dwelling house /Apartment,,53.362193,-6.2819936
12/11/2021,"153 Ardmore Hills, Mullingar",Westmeath,,246700,No,Yes,1,New Dwelling house /Apartment,,53.5190136,-7.310489
19/03/2021,"5 MILLBROOK RD, AYRFIELD, DUBLIN 13",Dublin,,300000,No,No,0,Second-Hand Dwelling house /Apartment,,53.3947379,-6.1786579
16/12/2021,"20 BEECH COURT, GREENFIELDS, OLD TRAMORE RD",Waterford,X91H30H,185000,No,No,0,Second-Hand Dwelling house /Apartment,,52.25833,-7.11194
8/1/2021,"GLENMORGAN, HOLLYFORD, TIPPERARY",Tipperary,,115000,No,No,0,Second-Hand Dwelling house /Apartment,,52.47333,-8.15583
29/10/2021,"SESSUECOMMON, CLOONACOOL, CO SLIGO",Sligo,,105000,No,No,0,Second-Hand Dwelling house /Apartment,,54.10194,-8.7775
5/11/2021,"40 POPES HILL, POPES RD, CORK",Cork,T23VY96,235000,No,No,0,Second-Hand Dwelling house /Apartment,,51.89797,-8.47061
1/2/2021,"47 ASHDALE RD, TERENURE, DUBLIN",Dublin,,899960,No,No,0,Second-Hand Dwelling house /Apartment,,53.3146339,-6.2848578
16/12/2021,"1 WILLINGTON GROVE, TEMPLEOGUE, DUBLIN 6W",Dublin,D6WVK58,535000,No,No,0,Second-Hand Dwelling house /Apartment,,53.3014118,-6.326593
20/07/2021,"139 Kilbelin Abbey, Athgarvan Road, Newbridge",Kildare,,356830,No,Yes,1,New Dwelling house /Apartment,,53.18194,-6.79667
7/12/2021,"14 The Green, An Glasan, Greenville Lane",Wexford,,206350,No,Yes,1,New Dwelling house /Apartment,,52.5,-6.66667
21/12/2021,"APT4 HILL 16, 28-29 MIDDLE GARDINER ST, DUBLIN 1",Dublin,D01PK61,310000,No,No,0,Second-Hand Dwelling house /Apartment,,53.33306,-6.24889
9/9/2021,"43 BOTHAR GLAS, BALLYCONNELL, CAVAN",Cavan,H14H348,128000,No,No,0,Second-Hand Dwelling house /Apartment,,54.11667,-7.58333
8/7/2021,"KNOCKANELEIGH, AHERLA, CORK",Cork,,120000,No,No,0,Second-Hand Dwelling house /Apartment,,51.85722,-8.73889
10/9/2021,"44 St Josephs Grove, Clonsilla",Dublin,,337180,No,Yes,1,New Dwelling house /Apartment,,53.33306,-6.24889
25/06/2021,"13 RUSHDALE DR, CLAREVIEW, LIMERICK",Limerick,V94XD9Y,262000,No,No,0,Second-Hand Dwelling house /Apartment,,52.6717947,-8.6530767
6/8/2021,"3 CONNOLLY STREET, MOUNTMELLICK, CO LAOIS",Laois,R32FV40,100000,No,No,0,Second-Hand Dwelling house /Apartment,,53.11361,-7.32
1/11/2021,"8 An Sruthan Beag, Clogheen, Clonakilty",Cork,,281940,No,Yes,1,New Dwelling house /Apartment,,51.62306,-8.87056
15/10/2021,"61 WILLOW GROVE, SALLINS, KILDARE",Kildare,W91AV66,240000,No,No,0,Second-Hand Dwelling house /Apartment,,53.24889,-6.66611
29/01/2021,"No.14 Doire Fea, Moycullen",Galway,,303960,No,Yes,1,New Dwelling house /Apartment,,53.33783,-9.18002
3/2/2021,"KILMASHOGUE, RATHFARNHAM, DUBLIN",Dublin,,725000,No,No,0,Second-Hand Dwelling house /Apartment,,53.33306,-6.24889
30/03/2021,"1 WHITECHURCH VIEW, BALLYBODEN, DUBLIN 16",Dublin,,303000,No,No,0,Second-Hand Dwelling house /Apartment,,53.2751029,-6.2853058
18/08/2021,"44 GLENCLOY RD, WHITEHALL, DUBLIN 9",Dublin,D09C566,372000,No,No,0,Second-Hand Dwelling house /Apartment,,53.3836206,-6.2449225
16/02/2021,"??THAN BUI, FALLEIGHTER, AGHAMORE",Mayo,,165000,No,No,0,Second-Hand Dwelling house /Apartment,,53.81667,-8.81667
7/4/2021,"88 ELMGROVE, SALLYBROOK, GLANMIRE",Cork,T45TC98,267500,No,No,0,Second-Hand Dwelling house /Apartment,,51.91583,-8.39972
10/12/2021,"71 TULLY ESTATE, MONAGHAN TOWN, COUNTY MONAGHAN",Monaghan,H18N220,122500,No,No,0,Second-Hand Dwelling house /Apartment,,54.25,-6.96667
1/6/2021,"12 The Courtyard, Morrissons Road, Waterford",Waterford,,171810,Yes,Yes,1,New Dwelling house /Apartment,,52.25833,-7.11194
1/10/2021,"82 ST PETER'S TERRACE, HOWTH, CO DUBLIN",Dublin,D13E273,430000,No,No,0,Second-Hand Dwelling house /Apartment,,53.383174,-6.0678467
8/2/2021,"1 CLOUGHBRODY, THOMASTOWN, CO KILKENNY",Kilkenny,,150000,No,No,0,Second-Hand Dwelling house /Apartment,,52.52667,-7.13722
13/12/2021,"237 PALACE FIELDS, TUAM, GALWAY",Galway,H54VW73,245000,No,No,0,Second-Hand Dwelling house /Apartment,,53.5236404,-8.8478007
30/09/2021,"MILL RD, KILLARNEY, KERRY",Kerry,,380000,No,No,0,Second-Hand Dwelling house /Apartment,,52.0514138,-9.485793
10/12/2021,"36 FRIARS WALK, CORK",Cork,T12KFP5,345000,No,No,0,Second-Hand Dwelling house /Apartment,,51.891109,-8.474299
28/06/2021,"15 MALONE GARDENS, BATH AVE, SANDYMOUNT DUBLIN 4",Dublin,D04KT28,535000,No,No,0,Second-Hand Dwelling house /Apartment,,53.33306,-6.24889
15/02/2021,"42 LOUGH RD, THE LOUTH, CORK",Cork,,182500,No,No,0,Second-Hand Dwelling house /Apartment,,51.89797,-8.47061
8/12/2021,"MOFFAT STREET, HACKETSTOWN, CO CARLOW",Carlow,,120000,No,No,0,Second-Hand Dwelling house /Apartment,,52.86389,-6.55694
14/04/2021,"13 Orwell Park Gardens, Orwell Park, Rathgar",Dublin,,1057270,No,Yes,1,New Dwelling house /Apartment,,53.33306,-6.24889
28/10/2021,"91 POLEBERRY, WATERFORD, WATERFORD",Waterford,X91X5AN,115000,No,No,0,Second-Hand Dwelling house /Apartment,,52.2517856,-7.110356
26/08/2021,"1 CASTLEWOOD CLOSE, CASTLEWOOD AVE, RATHMINES DUBLIN 6",Dublin,D06A527,410000,No,No,0,Second-Hand Dwelling house /Apartment,,53.33306,-6.24889
4/6/2021,"BALLINGUILE, RATHDANGAN, KILTEGAN",Wicklow,,297500,No,No,0,Second-Hand Dwelling house /Apartment,,52.90111,-6.60722
15/03/2021,"2 ST ANTHONYS VILLAS, OLD YOUGHAL RD, DILLONS CROSS",Cork,,236000,No,No,0,Second-Hand Dwelling house /Apartment,,51.80556,-9.10417
12/8/2021,"38 SWEETMAN HOUSE, MYRTLE DR, DUBLIN 13",Dublin,D13YX74,270000,No,No,0,Second-Hand Dwelling house /Apartment,,53.33306,-6.24889
13/08/2021,"36 PEARSE SQ, CARRICK ON SUIR, TIPPERARY",Tipperary,E32C582,100000,No,No,0,Second-Hand Dwelling house /Apartment,,52.3477281,-7.4123024
7/9/2021,"3 GOODWIN EST, ROSENALLIS, LAOIS",Laois,R32K5D4,100000,No,No,0,Second-Hand Dwelling house /Apartment,,53.13444,-7.40444
25/08/2021,"GURTEENROE, MACROOM, CO CORK",Cork,,146000,No,No,0,Second-Hand Dwelling house /Apartment,,51.9060672,-8.9731927
4/6/2021,"CARRIG BARRA, 13 BEAUMONT DR, BALLINTEMPLE",Cork,T12F78K,510000,No,No,0,Second-Hand Dwelling house /Apartment,,51.89306,-8.43528
7/5/2021,"49 Strand View, Howth Road",Dublin,,357830,No,Yes,1,New Dwelling house /Apartment,,53.33306,-6.24889
14/10/2021,"GLENCORIA, MONEYSTOWN, ROUNDWOOD",Wicklow,,400000,No,No,0,Second-Hand Dwelling house /Apartment,,53.05861,-6.22611
22/10/2021,"doon east, ballybunion, kerry",Kerry,,145000,No,Yes,1,New Dwelling house /Apartment,,52.51108,-9.67097
30/08/2021,"6 Elder Heath Lane, Elder Heath, Kiltipper Road",Dublin,,303960,No,Yes,1,New Dwelling house /Apartment,,53.33306,-6.24889
