Date of Sale (dd/mm/yyyy),Address,County,Eircode,Not Full Market Price,VAT Exclusive,"Price(1,000 €)",Price_Range,Date of Sale,sale_year,sale_month,sale_quarter,price_eur,is_new_property,lat,lng,distance_to_local_economic_center_km,Description of Property
14/10/2021,"52 CEDAR BROOK WAY, CHERRY ORCHARD, DUBLIN 10",Dublin,D10T841,0,0,165.0,<200k,2021-10-14,2021,10,4,165000,0.0,53.3370207,-6.3794062,8.033574560631715,
11/06/2021,"4 Curragh Ard, Kanturk",Cork,,0,1,245.12,200k-400k,2021-06-11,2021,6,2,245118,1.0,52.1889663,-8.910728,43.917805579190926,
05/02/2021,"9 ESMONDALE, NAAS, KILDARE",Kildare,,0,0,250.0,200k-400k,2021-02-05,2021,2,1,250000,0.0,53.2046808,-6.667875,16.898656338545237,
25/06/2021,"161 CRUISE PARK DR, TYRRELSTOWN, DUBLIN 15",Dublin,D15X653,0,0,272.0,200k-400k,2021-06-25,2021,6,2,272000,0.0,53.4205557,-6.3969417,12.000922466505632,
09/04/2021,"75 HIGHFIELD PARK, DUNDRUM, DUBLIN 14",Dublin,,0,0,850.0,800k-1M,2021-04-09,2021,4,2,850000,0.0,53.2994717,-6.2500332,5.637638844574422,
16/08/2021,"55 GLENSIDE, BALLYCARNANE WOODS, TRAMORE",Waterford,X91T2N1,0,0,320.0,200k-400k,2021-08-16,2021,8,3,320000,0.0,52.1633954,-7.1693224,11.401981038865063,
17/12/2021,"81 THE SPIRES, CARRIGNAFOY, COBH",Cork,P24AT80,0,0,280.0,200k-400k,2021-12-17,2021,12,4,280000,0.0,51.85722,-8.29917,12.951704995467544,
30/06/2021,"HILL VIEW, KILLONE, STRADBALLY",Laois,,0,0,310.0,200k-400k,2021-06-30,2021,6,2,310000,0.0,53.01556,-7.15278,9.991892280620942,
01/10/2021,"16 The Rise, Westfield, Leixlip",Kildare,,0,1,370.04,200k-400k,2021-10-01,2021,10,4,370044,1.0,53.3688935,-6.5204856,34.841538855221614,
15/07/2021,"66 AN DUICHE, SCALLAGHEEN, CO TIPPERARY",Tipperary,E34Y793,0,0,136.0,<200k,2021-07-15,2021,7,3,136000,0.0,52.66667,-7.83333,30.571163791006676,
10/08/2021,"51 KILWARDEN COURT, BOOT RD, CLONDALKIN DUBLIN 22",Dublin,D22PF75,0,0,195.0,<200k,2021-08-10,2021,8,3,195000,0.0,53.33306,-6.24889,2.0096305578111666,
28/06/2021,"14 Castle Park, Killycard, Castleblayney",Monaghan,,0,1,224.67,200k-400k,2021-06-28,2021,6,2,224670,1.0,54.11667,-6.73333,21.23547946020456,
31/03/2021,"10 LORETO WOOD, CAVAN, CAVAN",Cavan,,0,0,137.5,<200k,2021-03-31,2021,3,1,137500,0.0,54.0159817,-7.3709647,2.9765769793278154,
12/07/2021,"27 ARD NA GREINE, ROSCREA, TIPPERARY",Tipperary,E53DA39,0,0,144.0,<200k,2021-07-12,2021,7,3,144000,0.0,52.47333,-8.15583,0.0529981793748362,
20/12/2021,"18 THE PARK, THE HAWTHORNS, ARDEN ROAD",Offaly,,0,1,242.29,200k-400k,2021-12-20,2021,12,4,242290,1.0,53.2686568,-7.4984017,18.62012414063073,
10/12/2021,"38 PAIRC NA HABAIN, EDGEWORTHSTOWN, LONGFORD",Longford,N39XT22,1,0,175.0,<200k,2021-12-10,2021,12,4,175000,0.0,53.7,-7.61667,11.99995200852492,
15/10/2021,"31 BOROIMHE ROWAN, SWORDS, DUBLIN",Dublin,K67X211,0,0,275.0,200k-400k,2021-10-15,2021,10,4,275000,0.0,53.4447525,-6.2410083,10.635429641399169,
21/09/2021,"52 Park Avenue, Millers Glen, Swords",Dublin,,0,1,370.04,200k-400k,2021-09-21,2021,9,3,370044,1.0,53.33306,-6.24889,2.0096305578111666,
08/01/2021,"ARDMAYLE, CASHEL, TIPPERARY",Tipperary,,0,0,247.5,200k-400k,2021-01-08,2021,1,1,247500,0.0,52.5651949,-7.9426649,17.636559491657977,
06/05/2021,"3 Albany, Killiney Hill Road, Killiney",Dublin,,0,1,788.55,600k-800k,2021-05-06,2021,5,2,788546,1.0,53.33306,-6.24889,2.0096305578111666,
17/12/2021,"KATHREW, 4 MOUNT PLEASANT RD, TURNERS CROSS",Cork,T12NY8K,0,0,210.0,200k-400k,2021-12-17,2021,12,4,210000,0.0,51.80556,-9.10417,44.392523171457114,
11/11/2021,"56 Hollywoodrath Drive, Hollystown",Dublin,,0,1,383.26,200k-400k,2021-11-11,2021,11,4,383260,1.0,53.33306,-6.24889,2.0096305578111666,
26/05/2021,"146 KILBARRY PLACE, FARRANREE, CORK",Cork,T23W5R5,0,0,160.0,<200k,2021-05-26,2021,5,2,160000,0.0,51.916144,-8.4794815,1.9799099285188932,
26/03/2021,"29 BUTLER AVE, THURLES, TIPPERARY",Tipperary,,0,0,87.0,<200k,2021-03-26,2021,3,1,87000,0.0,52.6767801,-7.8196167,32.018769951821575,
02/07/2021,"5 THE DUNES SANDHILL, DUNFANAGHY, LETTERKENNY",Donegal,,0,0,270.0,200k-400k,2021-07-02,2021,7,3,270000,0.0,54.95,-7.73333,40.8183301987259,
15/03/2021,"DOGSTOWN, CROSSAKIEL, KELLS",Meath,,0,0,335.0,200k-400k,2021-03-15,2021,3,1,335000,0.0,53.72639,-6.87917,19.90220032315331,
09/12/2021,"45 RAHYLIN GLEBE, BALLYBANE, GALWAY",Galway,H91NV9K,0,0,239.0,200k-400k,2021-12-09,2021,12,4,239000,0.0,53.2835943,-9.0097314,3.4423259233135943,
07/09/2021,"2 Beechwood Avenue, Park Road, Killarney",Kerry,,0,1,236.12,200k-400k,2021-09-07,2021,9,3,236122,1.0,52.05,-9.51667,12.115766262065764,
14/05/2021,"6 Gateway Park, Skagh, Croom",Limerick,,0,1,295.11,200k-400k,2021-05-14,2021,5,2,295110,1.0,52.51944,-8.71778,17.19076784370616,
10/11/2021,"1 DRUMALEE MANOR, CAVAN, CAVAN",Cavan,H12C566,0,0,177.0,<200k,2021-11-10,2021,11,4,177000,0.0,53.9983848,-7.3494407,1.1600435069031272,
27/08/2021,"BOG ROAD VIEW, NASH'S BOREEN, UPPER FAIRFIELD",Cork,T23H4XR,0,0,215.0,200k-400k,2021-08-27,2021,8,3,215000,0.0,51.89797,-8.47061,0.3474186045968561,
13/05/2021,"8 Farmhill Manor, Strandhill Road, Sligo",Sligo,,0,1,254.63,200k-400k,2021-05-13,2021,5,2,254626,1.0,54.26969,-8.46943,0.8820024879802578,
22/10/2021,"BALLINCONNELL, BALLINFULL, SLIGO",Sligo,,0,0,298.0,200k-400k,2021-10-22,2021,10,4,298000,0.0,54.26969,-8.46943,0.8820024879802578,
08/07/2021,"25 HERON ST, ASTON VILLAGE, DROGHEDA",Louth,A92D50F,0,0,205.0,200k-400k,2021-07-08,2021,7,3,205000,0.0,53.71889,-6.34778,31.22984457593267,
25/11/2021,"5 THE PARK, THE HAWTHORNS, TULLAMORE",Offaly,R35W9H3,0,1,251.1,200k-400k,2021-11-25,2021,11,4,251101,1.0,53.2681137,-7.4990903,18.5762828779572,
27/08/2021,"4 MONASTERY HEATH COURT, CLONDALKIN, DUBLIN 22",Dublin,D22WY43,0,0,225.0,200k-400k,2021-08-27,2021,8,3,225000,0.0,53.3201106,-6.3817618,8.71440763175004,
28/10/2021,"GLENBOY, MANORHAMILTON, CO LEITRIM",Leitrim,F91V085,0,0,120.0,<200k,2021-10-28,2021,10,4,120000,0.0,54.289722,-8.12,19.90944608792275,
27/08/2021,"RAMPARK HOUSE, CORRACREIGH, ELPHIN",Roscommon,F45CY56,0,0,210.0,200k-400k,2021-08-27,2021,8,3,210000,0.0,53.85,-8.2,10.98416841611704,
24/03/2021,"51 MELLOWS PARK, OLDCASTLE, MEATH",Meath,,0,0,97.5,<200k,2021-03-24,2021,3,1,97500,0.0,53.76648,-7.16284,37.84961090749554,
31/03/2021,"6 AN LOCHAN, CASTLEGAR, HEADFORD RD",Galway,H91W1X7,0,0,165.5,<200k,2021-03-31,2021,3,1,165500,0.0,53.27194,-9.04889,0.5437668292500759,
26/03/2021,"3 OLD FARM, CARPENTERSTOWN, CASTLEKNOCK DUBLIN 15",Dublin,,0,0,300.0,200k-400k,2021-03-26,2021,3,1,300000,0.0,53.33306,-6.24889,2.0096305578111666,
27/08/2021,"42 MOANBANE PARK, KILCULLEN, KILDARE",Kildare,R56H022,0,0,275.0,200k-400k,2021-08-27,2021,8,3,275000,0.0,53.1396811,-6.7356669,11.822074375362694,
10/05/2021,"3 WILLOWWOOD VIEW, CLONSILLA, DUBLIN 15",Dublin,D15W60H,0,0,300.0,200k-400k,2021-05-10,2021,5,2,300000,0.0,53.33306,-6.24889,2.0096305578111666,
23/04/2021,"4 BEECH LAWN, DUNDRUM, DUBLIN 16",Dublin,D16XE48,0,0,605.0,600k-800k,2021-04-23,2021,4,2,605000,0.0,53.2854318,-6.2569256,7.160926163866899,
23/02/2021,"2 BEECHLAWNS, JOHNSWELL RD, KILKENNY",Kilkenny,,0,0,270.0,200k-400k,2021-02-23,2021,2,1,270000,0.0,52.65417,-7.25222,0.5005663805450715,
05/11/2021,"37 CROZON PARK, SLIGO, SLIGO",Sligo,F91YWF9,0,0,265.0,200k-400k,2021-11-05,2021,11,4,265000,0.0,54.2624297,-8.4715138,1.603561360522128,
14/10/2021,"9 GRANITE TERRACE, INCHICORE, DUBLIN 8",Dublin,D08YX5X,0,0,505.0,400k-600k,2021-10-14,2021,10,4,505000,0.0,53.3395271,-6.3231339,4.324711053358799,
15/01/2021,"BANNONS CROSS, LOUTH VILLAGE, DUNDALK",Louth,,0,0,200.0,<200k,2021-01-15,2021,1,1,200000,0.0,54.0,-6.41667,0.96782088498138,
22/12/2021,"MUNTERMELLON, HORNHEAD, DUNFANAGHY",Donegal,,0,0,350.0,200k-400k,2021-12-22,2021,12,4,350000,0.0,55.18333,-7.96667,59.56727101282174,
09/08/2021,"9 CASTLEKNOCK AVENUE, BANESHANE, MIDDLETON",Cork,P25VW40,0,0,310.0,200k-400k,2021-08-09,2021,8,3,310000,0.0,51.91526,-8.18052,20.32830098260768,
25/03/2021,"CARRICKNAGORE, BRUCKLESS, CO. DONEGAL",Donegal,,0,0,360.0,200k-400k,2021-03-25,2021,3,1,360000,0.0,54.63639,-8.38333,17.695158791060894,
27/07/2021,"No 8 An Gairdin Cuil, Cosmona, Loughrea",Galway,,0,1,246.7,200k-400k,2021-07-27,2021,7,3,246695,1.0,53.19694,-8.56694,33.61876194990016,
09/02/2021,"4 THE ROCKS, STONEPARK, BALLYMACORMACK",Longford,,0,0,220.0,200k-400k,2021-02-09,2021,2,1,220000,0.0,53.72536,-7.79823,0.4183382356519619,
10/05/2021,"15 CASTLEVIEW ROW, SWORDS, DUBLIN",Dublin,K67W272,0,0,360.0,200k-400k,2021-05-10,2021,5,2,360000,0.0,53.4708298,-6.2371911,13.54478179926326,
09/04/2021,"AHERINA, KILMORE, CLARE",Clare,,0,0,150.0,<200k,2021-04-09,2021,4,2,150000,0.0,52.75722,-8.60167,10.52379366865852,
01/12/2021,"77 Barnwell Park, Clonsilla, Hansfield",Dublin,,0,1,325.99,200k-400k,2021-12-01,2021,12,4,325990,1.0,53.33306,-6.24889,2.0096305578111666,
29/11/2021,"10 ARBUTUS, MONTENOTTE, CORK",Cork,,0,1,649.78,600k-800k,2021-11-29,2021,11,4,649780,1.0,51.89797,-8.47061,0.3474186045968561,
20/08/2021,"85 SAILIN, DUBLIN RD, GALWAY",Galway,H91DW9T,0,0,306.0,200k-400k,2021-08-20,2021,8,3,306000,0.0,53.27194,-9.04889,0.5437668292500759,
04/11/2021,"9 THE WOOD, OLDBRIDGE MANOR, RATHMULLAN",Louth,,0,1,290.75,200k-400k,2021-11-04,2021,11,4,290748,1.0,53.94861,-6.54139,10.620121053783487,
18/10/2021,"10 The Crescent, Ruxton Oaks, Navan",Meath,,0,1,277.53,200k-400k,2021-10-18,2021,10,4,277533,1.0,53.65278,-6.68139,5.509492786401523,
21/12/2021,"NO.1 THE WELLNESS CENTRE, GORTAMULLEN, KENMARE",Kerry,V93TX45,0,0,350.0,200k-400k,2021-12-21,2021,12,4,350000,0.0,51.88333,-9.58333,30.173681421844105,
27/09/2021,"110 Drakes Point, Crosshaven",Cork,,0,1,414.1,400k-600k,2021-09-27,2021,9,3,414096,1.0,51.79833,-8.30083,16.376278132627775,
20/04/2021,"7 AN SRAID BHAILE, BWEENG, MALLOW",Cork,,0,0,190.0,<200k,2021-04-20,2021,4,2,190000,0.0,52.13333,-8.63333,28.25497026599154,
09/09/2021,"MOUNTLUCAS, DAINGEAN, OFFALY",Offaly,,1,0,180.0,<200k,2021-09-09,2021,9,3,180000,0.0,53.29611,-7.28944,32.595651968785674,
21/10/2021,"126 CHERRY AVE, SWORDS, DUBLIN",Dublin,K67T256,0,0,264.0,200k-400k,2021-10-21,2021,10,4,264000,0.0,53.4494535,-6.2352657,11.204571139242285,
15/03/2021,"126 BALLYROAN, RD, DUBLIN 16",Dublin,,0,0,580.0,400k-600k,2021-03-15,2021,3,1,580000,0.0,53.2913552,-6.3078733,7.226247724548842,
19/07/2021,"6 Walker Row, Parkside, Balgriffin",Dublin,,0,1,343.61,200k-400k,2021-07-19,2021,7,3,343612,1.0,53.33306,-6.24889,2.0096305578111666,
01/12/2021,"90 CARRIG COURT, FORTUNESTOWN LANE, SAGGART",Dublin,D24HD62,0,0,255.0,200k-400k,2021-12-01,2021,12,4,255000,0.0,53.33306,-6.24889,2.0096305578111666,
29/09/2021,"29 GRAND CANAL COURT, TULLAMORE, OFFALY",Offaly,R35R9T8,0,0,170.0,<200k,2021-09-29,2021,9,3,170000,0.0,53.2781415,-7.4785447,19.93786119062103,
19/11/2021,"BARNAMUINGA, SHILLELAGH, WICKLOW",Wicklow,Y14XT96,0,0,399.0,200k-400k,2021-11-19,2021,11,4,399000,0.0,52.7447708,-6.5805884,30.41864834417777,
20/05/2021,"2 OAK LAWN, CASTLEKNOCK, DUBLIN 15",Dublin,D15FK6K,0,0,950.0,800k-1M,2021-05-20,2021,5,2,950000,0.0,53.3760792,-6.364763,7.5223845096642545,
04/02/2021,"39 WATERMINT COURT, PELLETSTOWN AVE, ROYAL CANAL PARK DUBLIN 15",Dublin,,0,0,210.0,200k-400k,2021-02-04,2021,2,1,210000,0.0,53.33306,-6.24889,2.0096305578111666,
16/04/2021,"46 SLI GHEAL, BALLYMONEEN RD, KNOCKNACARRA",Galway,H91H22W,0,0,295.0,200k-400k,2021-04-16,2021,4,2,295000,0.0,53.27194,-9.04889,0.5437668292500759,
22/04/2021,"148 THE ELMS, MOUNT MERRION AVE, BLACKROCK",Dublin,A94R2N7,0,0,380.0,200k-400k,2021-04-22,2021,4,2,380000,0.0,53.33306,-6.24889,2.0096305578111666,
06/12/2021,"WEAVERS COTTAGE, BALTYBOYS, BLESSINGTON",Wicklow,W91WC92,0,0,740.0,600k-800k,2021-12-06,2021,12,4,740000,0.0,53.17,-6.5325,23.220075409132708,
20/04/2021,"APT 18 BOWERS VIEW, BALLINROBE, CO MAYO",Mayo,,0,0,120.0,<200k,2021-04-20,2021,4,2,120000,0.0,53.63333,-9.23333,25.012749497774355,
01/07/2021,"39 WOODLANDS PARK, RATOATH, MEATH",Meath,A85HX92,0,0,368.0,200k-400k,2021-07-01,2021,7,3,368000,0.0,53.5076676,-6.4689028,16.484012225450343,
12/02/2021,"38 THE GREEN, DUNBOYNE CASTLE, DUNBOYNE",Meath,,0,0,325.0,200k-400k,2021-02-12,2021,2,1,325000,0.0,53.4,-6.46667,26.06920341354807,
22/07/2021,"19 TAMARISK LAWNS, KILNAMANAOH, DUBLIN 24",Dublin,D24XFW3,0,0,273.7,200k-400k,2021-07-22,2021,7,3,273700,0.0,53.33306,-6.24889,2.0096305578111666,
18/06/2021,"4 HURDLESTOWN MEADOWS, BROADFORD, CLARE",Clare,V94X4EN,0,0,320.0,200k-400k,2021-06-18,2021,6,2,320000,0.0,52.80472,-8.63222,15.67399607747758,
09/04/2021,"BALLINAHONE, FAHAN, LIFFORD",Donegal,,0,0,140.0,<200k,2021-04-09,2021,4,2,140000,0.0,54.83194,-7.48361,44.81054397985614,
31/12/2021,"32 THE ORCHARDS, KINSALE, CORK",Cork,P17N129,0,0,290.0,200k-400k,2021-12-31,2021,12,4,290000,0.0,51.7021046,-8.5295573,22.151115542180097,
25/06/2021,"14 POWERSCOURT, EYRE ST, NEWBRIDGE",Kildare,W12K854,0,0,172.0,<200k,2021-06-25,2021,6,2,172000,0.0,53.18194,-6.79667,7.95602455716664,
01/10/2021,"5 HAZELWOOD CLOSE, FOXWOOD, WATERFORD",Waterford,,0,1,229.03,200k-400k,2021-10-01,2021,10,4,229032,1.0,52.2326708,-7.1360926,3.4495301679270276,
13/09/2021,"22 TULLYVARRAGA CRESENT, SHANNON, CLARE",Clare,V14FV04,0,0,255.0,200k-400k,2021-09-13,2021,9,3,255000,0.0,52.70389,-8.86417,16.61644192122487,
14/06/2021,"RUSHAUN, KILNAMONA, ENNIS",Clare,,1,0,100.0,<200k,2021-06-14,2021,6,2,100000,0.0,52.858399,-9.1021512,38.62284523216485,
27/07/2021,"25 Loughcrew Hills, Oldcastle",Meath,,0,1,220.26,200k-400k,2021-07-27,2021,7,3,220264,1.0,53.7689423,-7.1681766,38.28793393806578,
10/11/2021,"APT 601 CUBE 3, BEACON SOUTH QUARTER, SANDYFORD",Dublin,D18T634,0,0,280.0,200k-400k,2021-11-10,2021,11,4,280000,0.0,53.33306,-6.24889,2.0096305578111666,
01/10/2021,"82 TONLEGEE RD, RAHENY, DUBLIN 5",Dublin,D05T6Y8,0,0,500.0,400k-600k,2021-10-01,2021,10,4,500000,0.0,53.33306,-6.24889,2.0096305578111666,
06/12/2021,"50 PINE COPSE RD, WYCKHAM PARK, DUNDRUM DUBLIN 16",Dublin,D16FX29,0,0,742.5,600k-800k,2021-12-06,2021,12,4,742500,0.0,53.33306,-6.24889,2.0096305578111666,
19/06/2021,"ABBEY HOUSE, SMITHS RD, CHARLEVILLE",Cork,,0,0,242.5,200k-400k,2021-06-19,2021,6,2,242500,0.0,52.35,-8.68333,52.168932596797696,
30/07/2021,"CUAN OIR, ROGERSTOWN, RUSH",Dublin,K56NT98,0,0,670.0,600k-800k,2021-07-30,2021,7,3,670000,0.0,53.33306,-6.24889,2.0096305578111666,
28/01/2021,"14 Oileain Na Cranoige.Cranogue Isl, Balbutcher Lane, BALLYMUN",Dublin,,0,1,233.48,200k-400k,2021-01-28,2021,1,1,233480,1.0,53.33306,-6.24889,2.0096305578111666,
10/12/2021,"APT 17, CEDAR HALL MILLBROOK, MILLTOWN DUBLIN 6",Dublin,D06C956,0,0,460.0,400k-600k,2021-12-10,2021,12,4,460000,0.0,53.33306,-6.24889,2.0096305578111666,
23/07/2021,"3 MELLOWES CRESCENT, FINGLAS, DUBLIN 11",Dublin,D11A4A4,0,0,190.0,<200k,2021-07-23,2021,7,3,190000,0.0,53.3889553,-6.3041473,5.236289204193227,
17/12/2021,"11 CHURCHFIELD, ST PATRICKS RD, LIMERICK CITY",Limerick,V94A4AA,0,0,208.0,200k-400k,2021-12-17,2021,12,4,208000,0.0,52.66472,-8.62306,0.2659375696724005,
09/07/2021,"41 The Meadows, Castle Farm, Dunboyne",Meath,,0,1,317.18,200k-400k,2021-07-09,2021,7,3,317180,1.0,53.4,-6.46667,26.06920341354807,
18/08/2021,"140 CITY PARK, FORTUNESTOWN LANE, CITYWEST DUBLIN 24",Dublin,,0,0,250.0,200k-400k,2021-08-18,2021,8,3,250000,0.0,53.33306,-6.24889,2.0096305578111666,
19/01/2021,"44 MOUNT SANDFORD, MILLTOWN, SANDFORD DUBLIN 6",Dublin,,0,0,660.0,600k-800k,2021-01-19,2021,1,1,660000,0.0,53.33306,-6.24889,2.0096305578111666,
05/08/2021,"CROSSABEAGH, KNOCKBRIDGE, DUNDALK",Louth,,0,0,325.0,200k-400k,2021-08-05,2021,8,3,325000,0.0,54.0,-6.41667,0.96782088498138,
11/03/2021,"19 PUNCHESTOWN GATE, BRABAZON HOUSE, NAAS",Kildare,,0,0,187.5,<200k,2021-03-11,2021,3,1,187500,0.0,53.21583,-6.66694,17.36544204088041,
05/02/2021,"6 MERTON, SEA RAOD, ARKLOW",Wicklow,,1,0,237.0,200k-400k,2021-02-05,2021,2,1,237000,0.0,52.79306,-6.14139,26.29341318645993,
03/08/2021,"7 Wilmount View, Moynalty Road, Kells",Meath,,0,1,96.92,<200k,2021-08-03,2021,8,3,96916,1.0,53.72639,-6.87917,19.90220032315331,
11/11/2021,"52 BARTER'S WOOD, TOWER, BLARNEY",Cork,,0,1,308.37,200k-400k,2021-11-11,2021,11,4,308370,1.0,51.9296489,-8.594794,8.878913421073708,
03/08/2021,"122 BRAYTON PARK, KILCOCK, CO KILDARE",Kildare,W23E292,0,0,321.5,200k-400k,2021-08-03,2021,8,3,321500,0.0,53.4014002,-6.6760194,31.088231183599476,
23/04/2021,"14 BLOSSOM COURT, ESKER HILLS, PORTLAOISE",Laois,R32NWV9,0,0,164.0,<200k,2021-04-23,2021,4,2,164000,0.0,53.03441,-7.29979,0.0697768566049224,
30/06/2021,"3 WOODFORD CRESCENT, CLONDALKIN, DUBLIN 22",Dublin,D22EW93,0,0,335.0,200k-400k,2021-06-30,2021,6,2,335000,0.0,53.3253818,-6.3802919,8.416762145213045,
17/11/2021,"09 MOYGLARE HEATH, MARIAVILLA, MAYNOOTH",Kildare,W23WFP8,0,1,248.42,200k-400k,2021-11-17,2021,11,4,248422,1.0,53.389509,-6.5898941,33.28682070981808,
21/05/2021,"27 LAUREL DRIVE, ESKER HILLS, PORTLAOISE",Laois,R32VW86,0,0,147.0,<200k,2021-05-21,2021,5,2,147000,0.0,53.0432152,-7.2981532,1.0262463824274222,
14/07/2021,"COOLEENEY, MOYNE, THURLES",Tipperary,,0,0,191.0,<200k,2021-07-14,2021,7,3,191000,0.0,52.47333,-8.15583,0.0529981793748362,
17/08/2021,"90 BALLINTYRE GROVE, BALLINTEER AVE, DUBLIN 16",Dublin,D16V0T9,0,0,525.0,400k-600k,2021-08-17,2021,8,3,525000,0.0,53.33306,-6.24889,2.0096305578111666,
13/07/2021,"WILLOW HOUSE, ISLAND, RYFIELD",Cavan,,0,0,320.0,200k-400k,2021-07-13,2021,7,3,320000,0.0,53.99083,-7.36056,0.0992875453960635,
26/03/2021,"42 CLONUSKE RISE, HAMLET LANE, BALBRIGGAN",Dublin,,0,0,163.0,<200k,2021-03-26,2021,3,1,163000,0.0,53.33306,-6.24889,2.0096305578111666,
18/05/2021,"7 RECTORY MEWS, DUNCORMICK, WEXFORD",Wexford,Y35DC61,0,0,202.5,200k-400k,2021-05-18,2021,5,2,202500,0.0,52.2280414,-6.6519789,17.642457463519,
31/03/2021,"5 CEOL NA MARA, CLIFFONEY, SLIGO",Sligo,,0,0,225.0,200k-400k,2021-03-31,2021,3,1,225000,0.0,54.26969,-8.46943,0.8820024879802578,
07/01/2021,"SEICEAMAIR, COOLROE, BALLINCOLLIG",Cork,,0,0,425.0,400k-600k,2021-01-07,2021,1,1,425000,0.0,51.88333,-8.58333,7.582981539911482,
20/12/2021,"11 The Downs, Barnhall Meadows, Leixlip",Kildare,,1,1,270.0,200k-400k,2021-12-20,2021,12,4,270000,1.0,53.3606452,-6.5146626,34.53067536603863,
05/03/2021,"11 MOUNTAIN PARK, COOLANEY, CO SLIGO",Sligo,,0,0,155.0,<200k,2021-03-05,2021,3,1,155000,0.0,54.17806,-8.59972,13.587773828848254,
15/07/2021,"4 MOUNTAIN VIEW, BREENY BEG, KEALKILL",Cork,P75VP64,0,0,180.0,<200k,2021-07-15,2021,7,3,180000,0.0,51.75722,-9.39917,65.38379487585557,
03/08/2021,"14 THE MEADOWS, ROS MOR, KILMALLOCK ROAD",Limerick,V944H24,0,0,266.0,200k-400k,2021-08-03,2021,8,3,266000,0.0,52.66472,-8.62306,0.2659375696724005,
20/07/2021,"1 Clay Farm Grove, Clay Farm, Leopardstown",Dublin,,0,1,440.53,400k-600k,2021-07-20,2021,7,3,440529,1.0,53.33306,-6.24889,2.0096305578111666,
03/12/2021,"GALLOWS HILL, LEAP, CO CORK",Cork,,0,0,98.0,<200k,2021-12-03,2021,12,4,98000,0.0,51.5925,-9.13,56.458096418719464,
01/12/2021,"TULLIGMORE, COACHFORD, CORK",Cork,P12YY32,0,0,150.0,<200k,2021-12-01,2021,12,4,150000,0.0,51.9,-8.78333,21.11473823535733,
23/06/2021,"2 BAWNOGUES, BALTINGLASS, WICKLOW",Wicklow,,0,0,190.0,<200k,2021-06-23,2021,6,2,190000,0.0,52.93722,-6.70917,23.523552871334783,
16/04/2021,"AGGARD, CRAUGHWELL, GALWAY",Galway,,0,0,245.0,200k-400k,2021-04-16,2021,4,2,245000,0.0,53.2271754,-8.7363661,21.861623370003368,
24/11/2021,"93 MARSH ROAD, DROGHEDA, COUNTY LOUTH",Louth,A92E8PT,0,0,130.0,<200k,2021-11-24,2021,11,4,130000,0.0,53.7144086,-6.3395215,31.790550492276243,
19/11/2021,"105 Beaulieu Village, Termonfeckin Road, Drogheda",Louth,,0,1,231.0,200k-400k,2021-11-19,2021,11,4,231000,1.0,53.71889,-6.34778,31.22984457593267,
16/06/2021,"RATHBRIST, TALLANSTOWN, DUNDALK",Louth,,0,0,312.0,200k-400k,2021-06-16,2021,6,2,312000,0.0,54.0,-6.41667,0.96782088498138,
02/11/2021,"23 Longstone, Blessington Road, Craddockstown",Kildare,,0,1,389.87,200k-400k,2021-11-02,2021,11,4,389868,1.0,53.15611,-6.91444,0.4663131929096804,
19/10/2021,"12 BEECH SQUARE, LACKEN WOOD, WATERFORD",Waterford,X91X4TD,1,0,142.12,<200k,2021-10-19,2021,10,4,142122,0.0,52.2401575,-7.1289212,2.4844258954873744,
27/08/2021,"LEAFY LANE HOUSE, PENANE, LOUGHMORE",Tipperary,E41VH75,0,0,297.0,200k-400k,2021-08-27,2021,8,3,297000,0.0,52.47333,-8.15583,0.0529981793748362,
05/11/2021,"7 ST MOCHTAS GREEN, CLONSILLA, DUBLIN 15",Dublin,D15AD9D,0,0,380.0,200k-400k,2021-11-05,2021,11,4,380000,0.0,53.33306,-6.24889,2.0096305578111666,
13/12/2021,"14 Carrigvale, Kilanerin, Gorey",Wexford,,0,1,277.53,200k-400k,2021-12-13,2021,12,4,277533,1.0,52.67472,-6.2925,39.30239724018922,
21/01/2021,"83 An Saileachan, Raheen, Athenry",Galway,,0,1,264.32,200k-400k,2021-01-21,2021,1,1,264318,1.0,53.29639,-8.74306,21.051655355157187,
17/08/2021,"SEASCANN AN ROIN, AN CLOCHAN LIATH, CO. DHUN NA NGALL",Donegal,F94XF24,0,0,180.0,<200k,2021-08-17,2021,8,3,180000,0.0,54.9734285,-8.3562199,38.86487481653787,
22/12/2021,"ST MARYS RECTORY, MOHILL, CO LEITRIM",Leitrim,,0,0,155.0,<200k,2021-12-22,2021,12,4,155000,0.0,53.91667,-7.86667,24.748543351157693,
22/07/2021,"44C MOATVIEW GDNS, PRIORSWOOD, COOLOCK DUBLIN 17",Dublin,D17AX86,0,0,152.0,<200k,2021-07-22,2021,7,3,152000,0.0,53.33306,-6.24889,2.0096305578111666,
30/11/2021,"9 RIVERSDALE, ATHY, CO KILDARE",Kildare,R14HK02,0,0,125.0,<200k,2021-11-30,2021,11,4,125000,0.0,52.9906652,-6.9885008,19.47261085609596,
09/12/2021,"33 OAK PARK GROVE, CRADDOCKSTOWN, NAAS",Kildare,W91C2CP,0,1,222.84,200k-400k,2021-12-09,2021,12,4,222842,1.0,53.21583,-6.66694,17.36544204088041,
04/03/2021,"10 KELLETTS ROAD, LAGORE ROAD, DUNSHAUGHLIN",Meath,,0,0,390.0,200k-400k,2021-03-04,2021,3,1,390000,0.0,53.5125,-6.54,12.885888602470857,
05/07/2021,"24 BELMONT DRIVE, BELMONT AIKENS VILLAGE, STEPASIDE",Dublin,D18FNK4,0,0,557.0,400k-600k,2021-07-05,2021,7,3,557000,0.0,53.33306,-6.24889,2.0096305578111666,
12/07/2021,"13 TYMON NORTH GARDENS, TALLAGHT, DUBLIN 24",Dublin,D24P7RW,0,0,315.0,200k-400k,2021-07-12,2021,7,3,315000,0.0,53.2941654,-6.3434531,8.292932947554245,
09/02/2021,"6 PARK AVENUE, PHELIM WOOD, TULLOW",Carlow,,0,0,150.0,<200k,2021-02-09,2021,2,1,150000,0.0,52.80028,-6.73694,,
15/06/2021,"15 SEABROOK, DROMISKIN, LOUTH",Louth,A91CK10,0,0,415.0,400k-600k,2021-06-15,2021,6,2,415000,0.0,53.9256839,-6.4002702,8.031161762763876,
06/12/2021,"2 KILEELY VILLAS NEW RD, THOMONDGATE, LIMERICK",Limerick,V94F5YY,0,0,180.0,<200k,2021-12-06,2021,12,4,180000,0.0,52.66472,-8.62306,0.2659375696724005,
08/04/2021,"95 THE WALK, OLDBRIDGE, OSBERSTOWN",Kildare,,0,0,230.3,200k-400k,2021-04-08,2021,4,2,230296,0.0,53.15611,-6.91444,0.4663131929096804,
28/10/2021,"21 ARDLEIGH CRESCENT, ATHLONE RD, MULLINGAR",Westmeath,N91P0K7,0,0,235.0,200k-400k,2021-10-28,2021,10,4,235000,0.0,53.53333,-7.35,1.0619528767145334,
02/02/2021,"288 SYCAMORES PARK, EDENDERRY, CO OFFALY",Offaly,,0,0,163.0,<200k,2021-02-02,2021,2,1,163000,0.0,53.34528,-7.04972,49.06086129051742,
08/07/2021,"25 RIVER LANE, ROCHFORD MANOR, TRIM",Meath,C15WK30,0,0,210.0,200k-400k,2021-07-08,2021,7,3,210000,0.0,53.555,-6.79167,10.548776625784198,
22/04/2021,"20 NEWLANDS MANOR PARK, CLONDALKIN, DUBLIN 22",Dublin,D22Y6C2,0,0,226.0,200k-400k,2021-04-22,2021,4,2,226000,0.0,53.3094718,-6.4075365,10.756779165776692,
27/05/2021,"21 BALLYCASEY CRESCENT, BALLYCASEY, SHANNON",Clare,V14NT92,0,0,149.0,<200k,2021-05-27,2021,5,2,149000,0.0,52.70389,-8.86417,16.61644192122487,
20/08/2021,"71 HILLCREST DR, LUCAN, CO DUBLIN",Dublin,K78K8P9,0,0,326.0,200k-400k,2021-08-20,2021,8,3,326000,0.0,53.3511862,-6.4531926,12.8040333498468,
10/12/2021,"13 DE LA SALLE CRESCENT, ARDEE, LOUTH",Louth,A92NY52,0,0,155.0,<200k,2021-12-10,2021,12,4,155000,0.0,53.85972,-6.54056,17.83306050694585,
13/01/2021,"24 TIRELLAN, HEADFORD RD, GALWAY",Galway,,0,0,257.5,200k-400k,2021-01-13,2021,1,1,257500,0.0,53.27194,-9.04889,0.5437668292500759,
13/12/2021,"6 The Lawn, Ledwill Park, Kilcock",Kildare,,0,1,427.31,400k-600k,2021-12-13,2021,12,4,427314,1.0,53.3932214,-6.6621151,30.78951358417604,
08/03/2021,"195 COLLINS AVE, BEAUMONT, DUBLIN 9",Dublin,,0,0,611.0,600k-800k,2021-03-08,2021,3,1,611000,0.0,53.3784322,-6.2311781,3.72427012712343,
18/11/2021,"48 DUN NA CARRAIGE, BLACKROCK, SALTHILL",Galway,H91X088,0,0,410.0,400k-600k,2021-11-18,2021,11,4,410000,0.0,53.27194,-9.04889,0.5437668292500759,
29/09/2021,"108 SNOWDROP WALK, DARNDALE, DUBLIN 17",Dublin,D17T202,0,0,156.0,<200k,2021-09-29,2021,9,3,156000,0.0,53.4010434,-6.189047,7.403243943293527,
09/12/2021,"THE LANDLORDS APARTMENT, GRAND CENTRAL APARTMENTS, CANAL RD",Donegal,F92F5XT,0,0,130.0,<200k,2021-12-09,2021,12,4,130000,0.0,54.91667,-8.0,30.04710666480101,
11/06/2021,"TIDEWAYS, STRAND ROAD, CARIGALINE",Cork,P43HF20,0,0,830.0,800k-1M,2021-06-11,2021,6,2,830000,0.0,51.89797,-8.47061,0.3474186045968561,
05/02/2021,"176 CRODAUN FOREST PARK, CELBRIDGE, KILDARE",Kildare,,0,0,350.0,200k-400k,2021-02-05,2021,2,1,350000,0.0,53.3541865,-6.5445804,32.55987530848356,
15/10/2021,"WHITEROCK, TINAHELY, WICKLOW",Wicklow,,0,0,195.0,<200k,2021-10-15,2021,10,4,195000,0.0,52.8304681,-6.5170335,20.0105350811141,
17/12/2021,"28 Cnoc an Cairn, Dingle",Kerry,,0,1,259.91,200k-400k,2021-12-17,2021,12,4,259911,1.0,52.14083,-10.26889,47.92237411558307,
29/09/2021,"2 HIGHFIELD, MAGAZINE RD, CORK",Cork,T12W9N1,0,0,210.0,200k-400k,2021-09-29,2021,9,3,210000,0.0,51.89797,-8.47061,0.3474186045968561,
29/01/2021,"BALLYHUGH, GORT, CO GALWAY",Galway,,0,0,187.5,<200k,2021-01-29,2021,1,1,187500,0.0,53.0639686,-8.8254155,27.68246621447868,
28/07/2021,"25 CHARTER HOUSE, MAYNOOTH, KILDARE",Kildare,W23E621,0,0,180.0,<200k,2021-07-28,2021,7,3,180000,0.0,53.3829153,-6.5886893,32.77956451833817,
11/06/2021,"28 CLEARWATER COVE, ROSSLARE, WEXFORD",Wexford,Y35X389,0,0,340.0,200k-400k,2021-06-11,2021,6,2,340000,0.0,52.2669548,-6.3850263,9.42427346082276,
28/04/2021,"23 CARRICKFOYLE TERRACE, KILMAINHAM DUBLIN 8, DUBLIN",Dublin,D08R5FR,0,0,370.0,200k-400k,2021-04-28,2021,4,2,370000,0.0,53.3408591,-6.3067084,3.2371433792087685,
22/12/2021,"6 The Grove Barnhall Meadows, Leixlip",Kildare,,0,1,431.72,400k-600k,2021-12-22,2021,12,4,431718,1.0,53.3669998,-6.5231208,34.57085389334568,
03/08/2021,"27 SPRINGVALE, TUBBERCURRY, SLIGO",Sligo,F91A2KF,0,0,110.0,<200k,2021-08-03,2021,8,3,110000,0.0,54.0555639,-8.7235895,29.387828561071085,
12/11/2021,"7 ROYAL COURT, BORRIS IN OSSORY, PORTLAOISE",Laois,R32DX34,0,0,190.0,<200k,2021-11-12,2021,11,4,190000,0.0,53.03441,-7.29979,0.0697768566049224,
02/12/2021,"19 COIS COILLE, KILCASH, CLONMEL",Tipperary,E91E0E8,0,0,212.5,200k-400k,2021-12-02,2021,12,4,212500,0.0,52.4022654,-7.5400165,42.48616386682015,
26/04/2021,"50 CARTON SQ, MAYNOOTH, KILDARE",Kildare,W23NTV0,0,0,325.0,200k-400k,2021-04-26,2021,4,2,325000,0.0,53.383754,-6.5865417,32.94325960857522,
22/09/2021,"7 BAWNMORE TERRACE, NEW ROSS, CO WEXFORD",Wexford,Y34TY05,0,0,110.0,<200k,2021-09-22,2021,9,3,110000,0.0,52.397544,-6.9243386,32.02045555277246,
12/05/2021,"8 CROAGHROSS, PORTSALON, CO DONEGAL",Donegal,,0,0,300.0,200k-400k,2021-05-12,2021,5,2,300000,0.0,55.2,-7.61667,68.4070817999156,
05/11/2021,"2 DERG MARINE VILLAGE, BALLINA, TIPPERARY",Tipperary,V94C9T7,0,0,438.0,400k-600k,2021-11-05,2021,11,4,438000,0.0,52.47333,-8.15583,0.0529981793748362,
19/01/2021,"13 TRINITY PLAZA APTS, TARA ST, DUBLIN 2",Dublin,,0,0,375.0,200k-400k,2021-01-19,2021,1,1,375000,0.0,53.33306,-6.24889,2.0096305578111666,
29/06/2021,"5A BALLYMOUNT SQ, WALKINSTOWN, DUBLIN",Dublin,,0,0,275.0,200k-400k,2021-06-29,2021,6,2,275000,0.0,53.3174404,-6.3356594,6.163301304365404,
25/08/2021,"34 Cooline Heights, Ballyvoloon, Cobh",Cork,,0,1,235.24,200k-400k,2021-08-25,2021,8,3,235242,1.0,51.85722,-8.29917,12.951704995467544,
30/09/2021,"10 The Lawns, Barnhall Meadows, Leixlip",Kildare,,0,1,370.04,200k-400k,2021-09-30,2021,9,3,370044,1.0,53.3621654,-6.5118786,34.78089662320824,
24/11/2021,"137 HOWTH RD, CLONTARF, DUBLIN 3",Dublin,D03C6Y3,0,0,835.0,800k-1M,2021-11-24,2021,11,4,835000,0.0,53.3713574,-6.2030025,4.494723611183453,
26/07/2021,"136 CASTLE AVENUE, CLONTARF, DUBLIN 3",Dublin,D03F300,0,0,820.0,800k-1M,2021-07-26,2021,7,3,820000,0.0,53.3632673,-6.2054158,3.938203879823917,
16/02/2021,"THE BUNGALOW, NURSING HOME, FERMOY",Cork,,0,0,100.0,<200k,2021-02-16,2021,2,1,100000,0.0,52.13583,-8.27583,29.720575982931376,
23/08/2021,"57 IRISH STREET, ARDEE, CO LOUTH",Louth,A92P924,0,0,114.4,<200k,2021-08-23,2021,8,3,114400,0.0,53.8594389,-6.5409696,17.87362025534943,
10/11/2021,"THE PADDOCKS, BOLEYNASS, ASHFORD",Wicklow,A67Y209,0,0,540.0,400k-600k,2021-11-10,2021,11,4,540000,0.0,53.00833,-6.11139,17.315387784096483,
17/11/2021,"71 THE COOMBE, DUBLIN 8, DUBLIN",Dublin,D08T0A6,0,0,375.0,200k-400k,2021-11-17,2021,11,4,375000,0.0,53.3395348,-6.279873,1.7294847358761258,
18/10/2021,"92 Cois Dara, Chapelstown, Tullow Road",Carlow,,0,1,189.43,<200k,2021-10-18,2021,10,4,189427,1.0,52.84083,-6.92611,,
08/12/2021,"36 CHESTNUT AVE, ESKER HILLS, RIDGE RD",Laois,R32PTK4,0,0,215.0,200k-400k,2021-12-08,2021,12,4,215000,0.0,53.0,-7.4,7.741995117891213,
23/04/2021,"30A BRACKERNAGH, BALLINASLOE, GALWAY",Galway,H53AX52,0,0,110.0,<200k,2021-04-23,2021,4,2,110000,0.0,53.319954,-8.2396723,54.58159726206512,
30/08/2021,"651 CHESTNUT CLOSE, ELM PARK, CASTLETROY",Limerick,V94KXK1,0,0,220.0,200k-400k,2021-08-30,2021,8,3,220000,0.0,52.6693861,-8.5606,4.500484144723278,
22/02/2021,"72 Mill View, Ballinglanna, Glanmire",Cork,,0,1,215.86,200k-400k,2021-02-22,2021,2,1,215859,1.0,51.91583,-8.39972,5.550627168807347,
27/04/2021,"43 HEATHFIELD, CLONARD, WEXFORD TOWN",Wexford,Y35C3K7,0,0,192.0,<200k,2021-04-27,2021,4,2,192000,0.0,52.5,-6.66667,22.784327206944493,
26/05/2021,"APARTMENT 1, 134 BARRACK STREET, WATERFORD",Waterford,X91WCR9,0,0,150.0,<200k,2021-05-26,2021,5,2,150000,0.0,52.2557192,-7.1201451,0.791198323547937,
16/08/2021,"54 BARGY ROAD, DUBLIN 3",Dublin,D03YD56,0,0,305.0,200k-400k,2021-08-16,2021,8,3,305000,0.0,53.3558937,-6.2316347,2.019594347903547,
24/11/2021,"22 WOOD GREEN, FOREST PARK, DROMAHAIR",Leitrim,F91D8Y0,0,0,200.0,<200k,2021-11-24,2021,11,4,200000,0.0,54.23333,-8.3,22.940171471447194,
31/08/2021,"THE BUNGALOW, KINGSMEADOW, WATERFORD CITY",Waterford,X91YY3D,0,0,580.0,400k-600k,2021-08-31,2021,8,3,580000,0.0,52.25833,-7.11194,0.1652789234369528,
03/11/2021,"BROOK LODGE, BROOKFIELD TERRACE, BLACKROCK",Dublin,A94YW83,0,0,95.0,<200k,2021-11-03,2021,11,4,95000,0.0,53.33306,-6.24889,2.0096305578111666,
10/06/2021,"LAHINCH, DURROW, TULLAMORE",Offaly,,0,0,321.24,200k-400k,2021-06-10,2021,6,2,321240,0.0,53.27389,-7.48889,19.244059611113396,
29/01/2021,"25 MORLEY TERRACE, WATERFORD, WATERFORD",Waterford,,0,0,130.0,<200k,2021-01-29,2021,1,1,130000,0.0,52.2620458,-7.1237578,0.9783962494368704,
11/06/2021,"No. 62 Kerlogue Manor, Rocksborough, Wexford",Wexford,,0,1,232.16,200k-400k,2021-06-11,2021,6,2,232159,1.0,52.33417,-6.4575,0.4974392595880751,
04/01/2021,"13 ARDSALLAGH WOODS, ROSCOMMON, ROSCOMMON",Roscommon,,0,0,237.0,200k-400k,2021-01-04,2021,1,1,237000,0.0,53.621683,-8.1743316,16.55491446197431,
29/01/2021,"5 IVAR ST, STONEYBATTER, DUBLIN 7",Dublin,,0,0,349.0,200k-400k,2021-01-29,2021,1,1,349000,0.0,53.33306,-6.24889,2.0096305578111666,
10/09/2021,"3 DEANSTOWN PARK, FINGLAS WEST, DUBLIN 11",Dublin,D11DNH0,0,0,245.0,200k-400k,2021-09-10,2021,9,3,245000,0.0,53.3860716,-6.3147096,5.412796941259967,
15/01/2021,"21 WESTWOOD PARK, CLARA, OFFALY",Offaly,,0,0,184.0,<200k,2021-01-15,2021,1,1,184000,0.0,53.3401988,-7.6211076,12.816093837915334,
21/12/2021,"APT 59 -  BURNELL COURT, NORTHERN CROSS, MALAHIDE",Dublin,D17XK11,0,0,187.5,<200k,2021-12-21,2021,12,4,187500,0.0,53.33306,-6.24889,2.0096305578111666,
09/07/2021,"30 MOERAN RD, WALKINSTOWN, DUBLIN 12",Dublin,D12T611,0,0,350.0,200k-400k,2021-07-09,2021,7,3,350000,0.0,53.3185676,-6.3211542,5.328055487673475,
24/08/2021,"RATHONOANE, CARRIGADROHID, CORK",Cork,,0,0,335.0,200k-400k,2021-08-24,2021,8,3,335000,0.0,51.9,-8.85,25.68899733311641,
24/08/2021,"NO 10, HAVENWOOD RETIREMENT VILLAGE, BALLYGUNNER",Waterford,,0,0,125.0,<200k,2021-08-24,2021,8,3,125000,0.0,52.25833,-7.11194,0.1652789234369528,
27/08/2021,"1 WATERMILL SQUARE, MAIN STREET, MONASTEREVIN",Kildare,W34E300,0,0,164.94,<200k,2021-08-27,2021,8,3,164935,0.0,53.14056,-7.06639,10.64172744174616,
15/07/2021,"CAHERTYMORE SOUTH, MONIVEA ROAD, ATHENRY",Galway,,0,0,300.0,200k-400k,2021-07-15,2021,7,3,300000,0.0,53.29639,-8.74306,21.051655355157187,
14/12/2021,"78 BLACKTHORN DRIVE, RATH ULLORD, BONNETTSRATH ROAD",Kilkenny,,0,1,308.4,200k-400k,2021-12-14,2021,12,4,308400,1.0,52.65417,-7.25222,0.5005663805450715,
09/06/2021,"101 CLONLEA, MOUNT OVAL VILLAGE, ROCHESTOWN",Cork,T12ENK5,0,0,358.0,200k-400k,2021-06-09,2021,6,2,358000,0.0,51.87,-8.38306,7.098211132938924,
05/07/2021,"1 C CHERRYDALE COURT, DUBLIN RD, LIMERICK",Limerick,,0,0,90.0,<200k,2021-07-05,2021,7,3,90000,0.0,52.66472,-8.62306,0.2659375696724005,
07/10/2021,"5 THOMPSONS COTTAGES, SUMMER HILL, DUBLIN 1",Dublin,D01P2F1,0,0,132.0,<200k,2021-10-07,2021,10,4,132000,0.0,53.33306,-6.24889,2.0096305578111666,
03/12/2021,"Apartment 45, The Brickworks, Station Road",Dublin,,0,1,345.44,200k-400k,2021-12-03,2021,12,4,345444,1.0,53.33306,-6.24889,2.0096305578111666,
29/09/2021,"CHAPEL GARDEN, CARLINGFORD, LOUTH",Louth,,0,0,128.0,<200k,2021-09-29,2021,9,3,128000,0.0,54.04,-6.18833,14.741481201054386,
30/06/2021,"THE WARREN, WARREN BEACH, ROSSCARBERY",Cork,,0,0,690.0,600k-800k,2021-06-30,2021,6,2,690000,0.0,51.89797,-8.47061,0.3474186045968561,
09/04/2021,"PARK HOUSE, BALLINTIM, CAMOLIN",Wexford,,0,0,635.0,600k-800k,2021-04-09,2021,4,2,635000,0.0,52.61556,-6.42056,31.12049422853347,
20/04/2021,"124 DROMINBEG, DUBLIN RD, LIMERICK",Limerick,V94XW9R,0,0,230.0,200k-400k,2021-04-20,2021,4,2,230000,0.0,52.66472,-8.62306,0.2659375696724005,
16/11/2021,"OLD GORT RD, ENNIS, CO CLARE",Clare,V95XP7N,0,0,120.0,<200k,2021-11-16,2021,11,4,120000,0.0,52.8573019,-8.9836083,32.24478306457179,
28/05/2021,"20 BALLSBRIDGE WOOD, BALLSBRIDGE, DUBLIN",Dublin,D04HY95,0,0,800.0,600k-800k,2021-05-28,2021,5,2,800000,0.0,53.33306,-6.24889,2.0096305578111666,
16/06/2021,"25 THE MOORINGS, FITZWILLIAM QUAY, DUBLIN",Dublin,D04PD73,0,0,297.5,200k-400k,2021-06-16,2021,6,2,297500,0.0,53.33306,-6.24889,2.0096305578111666,
16/06/2021,"5 HIGHFIELD, TRAMORE HEIGHTS, TRAMORE",Waterford,X91D5R6,0,0,223.0,200k-400k,2021-06-16,2021,6,2,223000,0.0,52.16235,-7.15244,11.159673262378943,
19/05/2021,"120 THE WATERMILL, WATERMILL RD, RAHENY DUBLIN 5",Dublin,D05E822,0,0,407.0,400k-600k,2021-05-19,2021,5,2,407000,0.0,53.33306,-6.24889,2.0096305578111666,
30/06/2021,"61 AVONDALE COURT, BLACKROCK, DUBLIN",Dublin,A94E4C4,0,0,825.0,800k-1M,2021-06-30,2021,6,2,825000,0.0,53.2938312,-6.1753442,8.400656757986617,
14/05/2021,"ANNABASKY, COUNTYBROOK, ENNISKERRY",Wicklow,,0,0,845.0,800k-1M,2021-05-14,2021,5,2,845000,0.0,53.1925,-6.16917,26.48843615439205,
03/02/2021,"BEAGH, ARDARA, DONEGAL",Donegal,,0,0,160.0,<200k,2021-02-03,2021,2,1,160000,0.0,54.76444,-8.4075,22.716829444564635,
22/03/2021,"5 St. Pancras House, Mount Tallant Avenue, Terenure",Dublin,,0,1,427.31,400k-600k,2021-03-22,2021,3,1,427313,1.0,53.33306,-6.24889,2.0096305578111666,
05/01/2021,"KILAHARD, BLACKWATER, ENNISCORTHY",Wexford,,0,0,300.0,200k-400k,2021-01-05,2021,1,1,300000,0.0,52.50083,-6.55778,19.321477610811513,
23/02/2021,"3B Church Street, Skerries",Dublin,,0,1,572.69,400k-600k,2021-02-23,2021,2,1,572687,1.0,53.5784196,-6.107654,27.35597717672329,
17/12/2021,"26 CHURCHFIELDS WAY, ASHBOURNE, MEATH",Meath,A84Y282,0,0,381.0,200k-400k,2021-12-17,2021,12,4,381000,0.0,53.5086253,-6.4116828,19.424556545666057,
21/06/2021,"75 SUMMERSEAT COURT, CLONEE, MEATH",Meath,D15F2WV,0,0,186.0,<200k,2021-06-21,2021,6,2,186000,0.0,53.4096269,-6.4389181,26.10003760785431,
30/07/2021,"36 Westwood, Golf Links Road, Ennis",Clare,,0,1,220.26,200k-400k,2021-07-30,2021,7,3,220263,1.0,52.84361,-8.98639,31.396463451049097,
27/08/2021,"4 NEW PARK, KINNEGAD, COUNTY WESTMEATH",Westmeath,,0,0,210.0,200k-400k,2021-08-27,2021,8,3,210000,0.0,53.45222,-7.09972,17.837122723853618,
03/12/2021,"29 BINSIN, WESTERN DISTRIBUTOR RD, GALWAY",Galway,H91VPH0,0,0,261.0,200k-400k,2021-12-03,2021,12,4,261000,0.0,53.27194,-9.04889,0.5437668292500759,
17/08/2021,"278 KEEPER RD, DUBLIN 12, DUBLIN",Dublin,D12N560,0,0,285.0,200k-400k,2021-08-17,2021,8,3,285000,0.0,53.3318255,-6.3018634,3.4071694403282664,
12/02/2021,"33 KILMORE CRESCENT, COOLOCK, DUBLIN 5",Dublin,,0,0,344.0,200k-400k,2021-02-12,2021,2,1,344000,0.0,53.3918975,-6.2089068,5.791123337625795,
29/01/2021,"LOURDESVILLE, CASTLEREDMOND, MIDLETON",Cork,,0,0,362.0,200k-400k,2021-01-29,2021,1,1,362000,0.0,51.91526,-8.18052,20.32830098260768,
09/07/2021,"41 Hammerstone, Straffan",Kildare,,0,1,431.72,400k-600k,2021-07-09,2021,7,3,431718,1.0,53.3149221,-6.6091638,26.457665809879344,
04/01/2021,"6 Whitethorn Lawn, Whitethorn Village, Naas",Kildare,,0,1,299.56,200k-400k,2021-01-04,2021,1,1,299559,1.0,53.21583,-6.66694,17.36544204088041,
16/02/2021,"4 WILLOW DR, NEWTOWN CLUAIN ARD, COBH",Cork,,0,0,263.0,200k-400k,2021-02-16,2021,2,1,263000,0.0,51.85722,-8.29917,12.951704995467544,
08/10/2021,"13 CLOISTER GROVE, BLACKROCK, DUBLIN",Dublin,A94A7P6,0,0,725.0,600k-800k,2021-10-08,2021,10,4,725000,0.0,53.2907263,-6.1807737,8.429107256203183,
04/03/2021,"8 RAILWAY BRIDGE, BRACKHILL, CASTLEMAINE",Kerry,,0,0,200.0,<200k,2021-03-04,2021,3,1,200000,0.0,52.16667,-9.7,9.179389719357252,
02/09/2021,"13 BALLYKEEFFE EST, DOORADOYLE, LIMERICK",Limerick,V94KXP7,0,0,225.0,200k-400k,2021-09-02,2021,9,3,225000,0.0,52.6420965,-8.6500147,2.880539090397574,
10/10/2021,"15 SWAN HALL, BELGARD SQUARE, TALLAGHT",Dublin,D24H7KV,0,0,257.0,200k-400k,2021-10-10,2021,10,4,257000,0.0,53.33306,-6.24889,2.0096305578111666,
11/11/2021,"Carrowreagh, Dromard",Sligo,,0,1,97.0,<200k,2021-11-11,2021,11,4,97000,1.0,54.24,-8.67611,13.613694671906504,
03/02/2021,"5 DRISARDEN, GORTLEE, LETTERKENNY",Donegal,,0,0,105.0,<200k,2021-02-03,2021,2,1,105000,0.0,54.95,-7.73333,40.8183301987259,
01/10/2021,"APT 31, ARDKEEN WOODS, ARDKEEN",Waterford,,0,0,195.0,<200k,2021-10-01,2021,10,4,195000,0.0,,,,
05/03/2021,"96 AN CIMIN MOR, CAPPAGH RD, GALWAY",Galway,,0,0,300.0,200k-400k,2021-03-05,2021,3,1,300000,0.0,53.27194,-9.04889,0.5437668292500759,
11/03/2021,"52 ST JAMES CRESCENT, MERVUE, GALWAY",Galway,,0,0,207.0,200k-400k,2021-03-11,2021,3,1,207000,0.0,53.2804886,-9.0148255,2.995654103741955,
25/11/2021,"18 ARDMORE CLOSE, NARROWAYS RD, BETTYSTOWN",Meath,A92Y9T4,0,0,193.0,<200k,2021-11-25,2021,11,4,193000,0.0,53.70139,-6.24611,29.06512612515301,
29/09/2021,"KILMACOW POST OFFICE, KILMACOW, WATERFORD",Waterford,,0,0,204.0,200k-400k,2021-09-29,2021,9,3,204000,0.0,52.25833,-7.11194,0.1652789234369528,
15/02/2021,"22 Maple Hill, Castle Heights, Carrigaline",Cork,,0,1,308.37,200k-400k,2021-02-15,2021,2,1,308370,1.0,51.81167,-8.39861,11.008152165429374,
10/09/2021,"35 BLUE CEDARS, CAPPRY RD, BALLYBOFEY",Donegal,F93DR92,0,0,124.0,<200k,2021-09-10,2021,9,3,124000,0.0,54.8,-7.78333,26.524597708766656,
16/12/2021,"46 MOUNT ANDREW COURT, LUCAN, DUBLIN",Dublin,K78EY65,0,0,322.0,200k-400k,2021-12-16,2021,12,4,322000,0.0,53.3576727,-6.4126558,10.149559227317653,
03/12/2021,"7 NEWPARK CLOSE, CHAPEL ROAD, KINSEALY",Dublin,,0,1,546.26,400k-600k,2021-12-03,2021,12,4,546255,1.0,53.33306,-6.24889,2.0096305578111666,
09/12/2021,"7 SUNDALE PARADE, TALLAGHT, DUBLIN 24",Dublin,D24K4A8,0,0,270.0,200k-400k,2021-12-09,2021,12,4,270000,0.0,53.2830733,-6.4100446,12.409544907967142,
30/07/2021,"24 CHURCH HILL, SLIGO",Sligo,F91XNW2,0,0,135.0,<200k,2021-07-30,2021,7,3,135000,0.0,54.0730224,-8.6132243,24.33253634726116,
10/06/2021,"22 MEADOWLANDS, BANDON, CORK",Cork,P72A977,0,0,245.0,200k-400k,2021-06-10,2021,6,2,245000,0.0,51.7413379,-8.7330034,24.86787645392658,
02/09/2021,"10 GLINCOOL GARDENS, MAGLIN RD, BALLINCOLLIG",Cork,P31Y327,0,0,305.0,200k-400k,2021-09-02,2021,9,3,305000,0.0,51.88333,-8.58333,7.582981539911482,
10/12/2021,"32 KEMPTON GREEN, ASHTOWN, NAVAN RD DUBLIN 15",Dublin,D07N7C2,0,0,560.0,400k-600k,2021-12-10,2021,12,4,560000,0.0,53.33306,-6.24889,2.0096305578111666,
09/11/2021,"12 Clos Molua, Sli Na Manach, Mungret",Limerick,,0,1,370.04,200k-400k,2021-11-09,2021,11,4,370044,1.0,52.6366903,-8.6754772,4.462545014283701,
28/05/2021,"16 ADDISON HALL, ADDISON AVE, ADDISON PARK DUBLIN 11",Dublin,D11TY02,0,0,390.0,200k-400k,2021-05-28,2021,5,2,390000,0.0,53.3773263,-6.2778951,3.275892257354926,
17/09/2021,"BIRDIES NEST COTTAGE, THE CURRAGH, KILDARE",Kildare,,0,0,165.0,<200k,2021-09-17,2021,9,3,165000,0.0,53.15278,-6.84694,4.260106795397654,
06/10/2021,"5 Vernon Mews, Vernon Avenue, Clontarf",Dublin,,0,1,682.82,600k-800k,2021-10-06,2021,10,4,682819,1.0,53.33306,-6.24889,2.0096305578111666,
15/12/2021,"GLENACUNNA, BALLYPOREEN, CO. TIPPERARY",Tipperary,E21FR90,0,0,250.0,200k-400k,2021-12-15,2021,12,4,250000,0.0,52.2489366,-8.1006201,25.281855829033795,
15/10/2021,"17 TI NA RI, LOUGHREA, GALWAY",Galway,H62YW35,0,0,260.0,200k-400k,2021-10-15,2021,10,4,260000,0.0,53.2038095,-8.5834491,32.36783389221285,
22/01/2021,"BALLINATONA, KLBEHENY, LIMERICK",Limerick,,0,0,165.0,<200k,2021-01-22,2021,1,1,165000,0.0,52.66472,-8.62306,0.2659375696724005,
03/09/2021,"NEW ROAD, KILROSS, CO TIPPERARY",Tipperary,E34FY98,0,0,225.0,200k-400k,2021-09-03,2021,9,3,225000,0.0,52.66667,-7.83333,30.571163791006676,
23/09/2021,"MOLLY, AUGHNACLIFFE, COUNTY LONGFORD",Longford,,0,0,440.0,400k-600k,2021-09-23,2021,9,3,440000,0.0,53.72536,-7.79823,0.4183382356519619,
25/06/2021,"46A ST JUDES CRESCENT, LIFFORD, DONEGAL",Donegal,F93K77F,0,0,123.0,<200k,2021-06-25,2021,6,2,123000,0.0,54.83194,-7.48361,44.81054397985614,
26/10/2021,"145 CROSBIES YARD, OSSORY RD, DUBLIN 3",Dublin,D03TC64,0,0,308.0,200k-400k,2021-10-26,2021,10,4,308000,0.0,53.33306,-6.24889,2.0096305578111666,
20/04/2021,"27 SLIEVEMORE HOLIDAY VILLAGE, DUGORT, ACHILL",Mayo,F28YF54,0,0,130.0,<200k,2021-04-20,2021,4,2,130000,0.0,53.93111,-9.915,41.30600228917531,
03/07/2021,"10 SUMMERHILL SOUTH, CORK, CORK",Cork,T12A4P6,0,0,252.0,200k-400k,2021-07-03,2021,7,3,252000,0.0,51.8908614,-8.4691852,0.956657486364138,
30/03/2021,"FARTAGH, LISDUFF, VIRGINIA",Cavan,,0,0,390.0,200k-400k,2021-03-30,2021,3,1,390000,0.0,53.83389,-7.07556,25.463606043023077,
02/07/2021,"55 CLONTARF RD, TULLAMORE, OFFALY",Offaly,R35XW92,0,0,185.0,<200k,2021-07-02,2021,7,3,185000,0.0,53.2779822,-7.4964296,18.748673675357537,
20/12/2021,"20 THE RISE, BARNHALL MEADOWS, LEIXLIP",Kildare,W23XF5F,1,0,246.0,200k-400k,2021-12-20,2021,12,4,246000,0.0,53.3613417,-6.5131781,34.65590023488296,
01/10/2021,"DROIM LACH, CUL LE GREIN, BEAL EASA",Mayo,,0,0,385.0,200k-400k,2021-10-01,2021,10,4,385000,0.0,53.98333,-9.11667,18.564107722434017,
04/06/2021,"4 St Josephs, Grove, Clonsoilla",Dublin,,0,1,308.37,200k-400k,2021-06-04,2021,6,2,308370,1.0,53.33306,-6.24889,2.0096305578111666,
04/05/2021,"FARREN REDMOND, DINGLE, COUNTY KERRY",Kerry,,0,0,185.0,<200k,2021-05-04,2021,5,2,185000,0.0,52.14083,-10.26889,47.92237411558307,
17/06/2021,"15 the pines, avourwen, drogheda",Meath,,0,1,259.47,200k-400k,2021-06-17,2021,6,2,259471,1.0,53.7026554,-6.3549575,22.61274594194075,
25/05/2021,"70  RATOATH AVENUE, FINGLAS WEST, DUBLIN 11",Dublin,D11H6V0,0,0,205.0,200k-400k,2021-05-25,2021,5,2,205000,0.0,53.3872721,-6.3178469,5.651433986783828,
19/11/2021,"9 THE VILLAGE, ALLEN, KILMEAGUE",Kildare,W91YK3D,0,1,507.05,400k-600k,2021-11-19,2021,11,4,507053,1.0,53.15611,-6.91444,0.4663131929096804,
13/07/2021,"31 THE PADDOCKS, KILMAINHAM, DUBLIN 8",Dublin,D08X2H3,0,0,545.0,400k-600k,2021-07-13,2021,7,3,545000,0.0,53.33306,-6.24889,2.0096305578111666,
01/12/2021,"5 BALLINTYRE WOODS, BALLINTYRE HALL, BALLINTEER AVE DUBLIN 16",Dublin,D16AH67,0,0,520.0,400k-600k,2021-12-01,2021,12,4,520000,0.0,,,,
07/09/2021,"34 ARKLOW ST, STONEYBATTER, DUBLIN 7",Dublin,D07H1X6,0,0,365.0,200k-400k,2021-09-07,2021,9,3,365000,0.0,53.33306,-6.24889,2.0096305578111666,
14/04/2021,"28 PARK COURT, GRANGE RATH, COLPE",Meath,,0,0,258.0,200k-400k,2021-04-14,2021,4,2,258000,0.0,53.66667,-6.66667,6.83541116583885,
26/01/2021,"MONEYCROSS UPPER, LESKINFERE, GOREY",Wexford,,0,0,267.0,200k-400k,2021-01-26,2021,1,1,267000,0.0,52.67472,-6.2925,39.30239724018922,
17/06/2021,"ALTORE, BALLINLOUGH, CO ROSCOMMON",Roscommon,,0,0,115.0,<200k,2021-06-17,2021,6,2,115000,0.0,53.7048749,-8.6804634,27.797164487038405,
24/09/2021,"282 GRIFFITH AVE, DRUMCONDRA, DUBLIN 9",Dublin,D09V2R8,0,0,695.0,600k-800k,2021-09-24,2021,9,3,695000,0.0,53.3763074,-6.2537549,2.9793124871974666,
29/01/2021,"153 CORBAWN WOOD, SHANKILL, DUBLIN 18",Dublin,,0,0,600.0,400k-600k,2021-01-29,2021,1,1,600000,0.0,53.2344947,-6.1156818,16.024322709568064,
08/11/2021,"16 BELLEVUE RISE, FRANKFIELD, CORK",Cork,T12W1RP,0,0,357.0,200k-400k,2021-11-08,2021,11,4,357000,0.0,51.89797,-8.47061,0.3474186045968561,
25/02/2021,"272 THE ASGARD, CUSTOM HOUSE HARBOUR, DUBLIN 1",Dublin,,0,0,425.0,400k-600k,2021-02-25,2021,2,1,425000,0.0,53.33306,-6.24889,2.0096305578111666,
30/03/2021,"Elstar House, 4 The Orchard, Kindlestown Lower",Wicklow,,0,1,596.03,400k-600k,2021-03-30,2021,3,1,596032,1.0,53.0,-6.41667,3.6310917203361233,
12/03/2021,"26 MANORLANDS CLOSE, TRIM, MEATH",Meath,C15YTP9,0,0,225.0,200k-400k,2021-03-12,2021,3,1,225000,0.0,53.5505748,-6.7988868,11.215620103393052,
24/05/2021,"9 STRADBALLY MORE, STRADBALLY, WATERFORD",Waterford,X42N510,0,0,273.0,200k-400k,2021-05-24,2021,5,2,273000,0.0,52.1298036,-7.4601666,27.86884217035097,
03/06/2021,"MOUNT CARMEL BUNGALOW, OLD LUCAN ROAD, MOUNT CARMEL",Dublin,D20DA38,0,0,480.0,400k-600k,2021-06-03,2021,6,2,480000,0.0,53.33306,-6.24889,2.0096305578111666,
06/12/2021,"29 WHITETHORN GROVE, KNOCKBROGAN, BANDON",Cork,P72H958,0,0,240.0,200k-400k,2021-12-06,2021,12,4,240000,0.0,51.74694,-8.7425,24.91000063024601,
30/09/2021,"NEWSTONE, DRUMCONRATH, CO. MEATH",Meath,,0,0,212.0,200k-400k,2021-09-30,2021,9,3,212000,0.0,53.66667,-6.66667,6.83541116583885,
24/09/2021,"24 MEASOWBROOK MILL RD, CORBALLY, LIMERICK",Limerick,V94E1TT,0,0,200.0,<200k,2021-09-24,2021,9,3,200000,0.0,52.66472,-8.62306,0.2659375696724005,
23/04/2021,"GARRYGLASS, TEMPLEDERRY, NENAGH",Tipperary,,0,0,172.0,<200k,2021-04-23,2021,4,2,172000,0.0,52.7486481,-8.1181879,30.666487107177723,
15/03/2021,"90 PRIORY COURT, EDEN GATE, DELGANY",Wicklow,,1,0,225.51,200k-400k,2021-03-15,2021,3,1,225509,0.0,53.13083,-6.09139,24.476630306580024,
18/01/2021,"17 ROSSMOR, PONTOON RD, CASTLEBAR",Mayo,,0,0,199.51,<200k,2021-01-18,2021,1,1,199509,0.0,53.85,-9.3,0.5712407909709523,
21/04/2021,"KILNAGARNA, BALLINAHOWN, ATHLONE",Offaly,,0,0,300.0,200k-400k,2021-04-21,2021,4,2,300000,0.0,53.25,-7.5,18.692387552188546,
20/09/2021,"6 AIRFIELD POINT, COXTOWN, DUNMORE EAST",Waterford,X91E5F2,0,0,425.0,400k-600k,2021-09-20,2021,9,3,425000,0.0,52.15139,-6.98611,14.675332674988748,
29/01/2021,"4 Hallwell Park, Adamstown, Lucan",Dublin,,0,1,374.45,200k-400k,2021-01-29,2021,1,1,374449,1.0,53.348052,-6.4736843,14.165080459397004,
21/09/2021,"26 Seascape, Broomhill Court, Keatingstown Road",Wicklow,,0,1,334.76,200k-400k,2021-09-21,2021,9,3,334755,1.0,53.0,-6.41667,3.6310917203361233,
26/10/2021,"39 SLIEVE MISH PARK, KINSALE ROAD, CORK",Cork,T12F5K0,0,0,240.0,200k-400k,2021-10-26,2021,10,4,240000,0.0,51.89797,-8.47061,0.3474186045968561,
21/12/2021,"66 PEMBROKE SQ, GRAND CANAL ST UPPER, DUBLIN",Dublin,D04YY44,0,0,425.0,400k-600k,2021-12-21,2021,12,4,425000,0.0,53.33306,-6.24889,2.0096305578111666,
15/12/2021,"2 ATLANTIC WAY  MOUNTAIN COMMON, ARDFIELD, CLONAKILTY",Cork,P85Y791,0,0,500.0,400k-600k,2021-12-15,2021,12,4,500000,0.0,51.62306,-8.87056,40.95032611981491,
20/09/2021,"5 GRANGE TERRACE, WATERFORD",Waterford,X91R9KT,0,0,147.0,<200k,2021-09-20,2021,9,3,147000,0.0,52.2515595,-7.1089867,0.8640338068552087,
26/10/2021,"72 HAMPTON WOOD RD, FINGLAS, DUBLIN 11",Dublin,D11Y951,0,0,230.0,200k-400k,2021-10-26,2021,10,4,230000,0.0,53.33306,-6.24889,2.0096305578111666,
10/03/2021,"57 PAIRC CHUIMIN KILCUMMIN, KILLARNEY, KERRY",Kerry,,0,0,226.0,200k-400k,2021-03-10,2021,3,1,226000,0.0,52.05,-9.51667,12.115766262065764,
24/08/2021,"KILMACOMMA, CLONMEL, CO TIPPERARY",Tipperary,,0,0,128.0,<200k,2021-08-24,2021,8,3,128000,0.0,52.3470085,-7.7104844,33.32742145678538,
09/03/2021,"APT 2 - 1 HOLLYBANK ROAD, DRUMCONDRA, DUBLIN 9",Dublin,,0,0,142.86,<200k,2021-03-09,2021,3,1,142857,0.0,53.33306,-6.24889,2.0096305578111666,
16/08/2021,"APT 22 C, THE BOTTLEWORKS, IRISHTOWN",Dublin,,0,0,380.0,200k-400k,2021-08-16,2021,8,3,380000,0.0,53.3404148,-6.2259471,2.507881119227271,
15/10/2021,"60 BELFRY GROVE, CITYWEST, SAGGART",Dublin,D24HC82,0,0,196.0,<200k,2021-10-15,2021,10,4,196000,0.0,53.33306,-6.24889,2.0096305578111666,
02/07/2021,"38 ROCHESTOWN PARK, DUN LAOGHAIRE, DUBLIN",Dublin,A96CV63,0,0,495.0,400k-600k,2021-07-02,2021,7,3,495000,0.0,53.2702501,-6.1394671,11.945263444117195,
14/12/2021,"COTTAGE I, OYSTERHAVEN CENTRE, KINSALE",Cork,,0,0,292.5,200k-400k,2021-12-14,2021,12,4,292500,0.0,51.7075,-8.53056,21.571817330762975,
27/01/2021,"SEAPOINT, TERMONFECKIN, DROGHEDA",Louth,,1,0,160.0,<200k,2021-01-27,2021,1,1,160000,0.0,53.7598638,-6.2489034,28.313923845409654,
24/09/2021,"15 CUIL BEAG, MONVOY, TRAMORE",Waterford,X91Y6R2,0,0,242.5,200k-400k,2021-09-24,2021,9,3,242500,0.0,52.16235,-7.15244,11.159673262378943,
22/04/2021,"12 Brook Glen, Manor Farm, Lehanagmore",Cork,,0,1,308.37,200k-400k,2021-04-22,2021,4,2,308371,1.0,51.89797,-8.47061,0.3474186045968561,
11/06/2021,"3 Lios na mBan, Ladysbridge",Cork,,1,1,246.0,200k-400k,2021-06-11,2021,6,2,246000,1.0,51.89528,-8.04583,29.49123268511787,
01/12/2021,"4 CROSTHWAITE HALL, LOWER GLENAGEARY RD, DUN LAOGHAIRE",Dublin,A96K6X2,0,0,1160.0,1M-2M,2021-12-01,2021,12,4,1160000,0.0,53.284623,-6.1330863,11.132465010483624,
01/02/2021,"41 CARRIGEEN, CLYBAUN, KNOCKNACARRA",Galway,,0,0,312.5,200k-400k,2021-02-01,2021,2,1,312500,0.0,53.27194,-9.04889,0.5437668292500759,
27/09/2021,"26 GRAY ST, THE LIBERTIES, DUBLIN 8",Dublin,D08N4A8,0,0,475.0,400k-600k,2021-09-27,2021,9,3,475000,0.0,53.3404304,-6.2787926,1.61010184064429,
01/09/2021,"130 BALLSGROVE EST, DROGHEDA, LOUTH",Louth,A92HWX2,0,0,200.0,<200k,2021-09-01,2021,9,3,200000,0.0,53.71889,-6.34778,31.22984457593267,
26/03/2021,"3 PROSPECT HILL, DONABATE, DUBLIN",Dublin,,0,0,685.0,600k-800k,2021-03-26,2021,3,1,685000,0.0,53.4841278,-6.1535471,16.52727593726672,
30/04/2021,"CLYGEEN, LEGAN, LONGFORD",Longford,,0,0,100.0,<200k,2021-04-30,2021,4,2,100000,0.0,53.61667,-7.61667,16.934853922191625,
18/10/2021,"4A THE HOLLOWS, NEWCASTLE RD, LUCAN",Dublin,K78VN51,0,0,150.0,<200k,2021-10-18,2021,10,4,150000,0.0,53.33306,-6.24889,2.0096305578111666,
13/04/2021,"15 Castle Manor, Naul Road, Naul",Dublin,,0,1,409.69,400k-600k,2021-04-13,2021,4,2,409691,1.0,53.33306,-6.24889,2.0096305578111666,
02/06/2021,"SILVANUS, GLENCAR, LETTERKENNY",Donegal,F92RYH7,0,0,340.0,200k-400k,2021-06-02,2021,6,2,340000,0.0,54.95,-7.73333,40.8183301987259,
16/08/2021,"EDEN COTTAGE, 2 RAILWAY COTTAGES, MCCURTAINS TOWN",Cork,P36D925,0,0,135.0,<200k,2021-08-16,2021,8,3,135000,0.0,51.89797,-8.47061,0.3474186045968561,
10/05/2021,"126 NEWBOURAGH, GOREY, WEXFORD",Wexford,Y25N156,0,0,146.0,<200k,2021-05-10,2021,5,2,146000,0.0,52.67472,-6.2925,39.30239724018922,
17/12/2021,"32 Sli na Misean, West Road, Westport",Mayo,,0,1,252.86,200k-400k,2021-12-17,2021,12,4,252863,1.0,53.8,-9.51667,15.59991697438606,
17/12/2021,"7 WYNDHAM COURT, DELGANY, COUNTY WICKLOW",Wicklow,A63FE43,0,0,200.0,<200k,2021-12-17,2021,12,4,200000,0.0,53.1339883,-6.0906583,24.744821462911595,
21/12/2021,"245 CHARLESLAND PARK, GREYSTONES, WICKLOW",Wicklow,A63HW01,0,0,365.0,200k-400k,2021-12-21,2021,12,4,365000,0.0,53.1265748,-6.0709425,25.22784481322861,
15/10/2021,"34 EAST PRIORY, NAVAN ROAD, DUBLIN 7",Dublin,D07XT80,0,0,370.0,200k-400k,2021-10-15,2021,10,4,370000,0.0,53.3707232,-6.3139348,4.252110258520867,
06/09/2021,"35 COOLRUA DR, BEAUMONT, DUBLIN 9",Dublin,D09KC57,0,0,375.0,200k-400k,2021-09-06,2021,9,3,375000,0.0,53.3887346,-6.2335826,4.678150532244431,
25/11/2021,"1 LOFTUS SQ, RATHFARNHAM GATE, MAIN ST DUBLIN 14",Dublin,D14EV62,0,0,322.0,200k-400k,2021-11-25,2021,11,4,322000,0.0,53.33306,-6.24889,2.0096305578111666,
12/08/2021,"93 AN PLASAN, COIS NA HABHAINN, STATION RD MOATE",Westmeath,,0,0,195.0,<200k,2021-08-12,2021,8,3,195000,0.0,53.39389,-7.71722,29.08702316938528,
09/07/2021,"35 GLENAYLE RD, RAHENY, DUBLIN 5",Dublin,D05A6X4,0,0,420.0,400k-600k,2021-07-09,2021,7,3,420000,0.0,53.33306,-6.24889,2.0096305578111666,
28/10/2021,"APARTMENT 19, THE REEKS GATEWAY, KILLARNEY",Kerry,V93HD96,0,0,250.0,200k-400k,2021-10-28,2021,10,4,250000,0.0,52.068003,-9.5171179,10.201138835579762,
17/09/2021,"ST MARTINS, TOBERGREGAN, GARRISTOWN",Dublin,A42HH95,0,0,420.0,400k-600k,2021-09-17,2021,9,3,420000,0.0,53.33306,-6.24889,2.0096305578111666,
31/03/2021,"15 WATERSTONE, FOXFORD RD, BALLINA",Mayo,,0,0,171.0,<200k,2021-03-31,2021,3,1,171000,0.0,54.11667,-9.16667,30.336874368917407,
26/08/2021,"3 Taylor Hill Mews, Balbriggan",Dublin,,0,1,340.0,200k-400k,2021-08-26,2021,8,3,340000,1.0,53.33306,-6.24889,2.0096305578111666,
03/12/2021,"Apartment 23, The Brickworks, Station Road",Dublin,,0,1,345.44,200k-400k,2021-12-03,2021,12,4,345444,1.0,53.33306,-6.24889,2.0096305578111666,
24/11/2021,"2 Clogheraun Brook, Staplestown, Donadea",Kildare,W91KN9F,0,1,550.0,400k-600k,2021-11-24,2021,11,4,550000,1.0,53.35028,-6.74583,23.87661512492088,
12/10/2021,"STATION RD, GLENTIES, DONEGAL",Donegal,,0,0,165.0,<200k,2021-10-12,2021,10,4,165000,0.0,55.1208328,-7.9003206,53.61368200198907,
09/12/2021,"ROSHAN FARM, FORQUAR, MILFORD",Donegal,F92Y1K1,0,0,250.0,200k-400k,2021-12-09,2021,12,4,250000,0.0,55.08806,-7.69889,54.967519885646645,
18/06/2021,"48 CNOC NA SLÍ, TUBBERCURRY, CO SLIGO",Sligo,F91R3N1,0,0,142.0,<200k,2021-06-18,2021,6,2,142000,0.0,54.05,-8.73333,30.25408968412146,
18/06/2021,"24 The Crescent, Churchfield, Knock",Mayo,,0,0,202.5,200k-400k,2021-06-18,2021,6,2,202500,1.0,53.79391,-8.91961,25.747468824633163,
15/10/2021,"4 WOLSELEY VILLAGE, MOUNTWOLSELEY, TULLOW",Carlow,R93W960,0,0,150.0,<200k,2021-10-15,2021,10,4,150000,0.0,52.80028,-6.73694,,
06/05/2021,"31 PIER 19, BRIDGEFOOT ST, DUBLIN 8",Dublin,D08R863,0,0,225.0,200k-400k,2021-05-06,2021,5,2,225000,0.0,53.33306,-6.24889,2.0096305578111666,
29/04/2021,"7 Blackwater Grove, Kilmacow",Kilkenny,,1,1,251.78,200k-400k,2021-04-29,2021,4,2,251784,1.0,52.30611,-7.17167,39.010361526849586,
21/07/2021,"20 OLD QUAY COURT, QUAY ST, SLIGO",Sligo,F91D322,0,0,140.33,<200k,2021-07-21,2021,7,3,140333,0.0,54.26969,-8.46943,0.8820024879802578,
11/06/2021,"CHURCH STREET, KELLS, CO MEATH",Meath,,0,0,245.0,200k-400k,2021-06-11,2021,6,2,245000,0.0,53.7272712,-6.8786731,19.94435088326152,
07/07/2021,"54 Ridgewood Manor, Melitta Road, The Curragh",Kildare,,0,1,254.63,200k-400k,2021-07-07,2021,7,3,254626,1.0,53.15278,-6.84694,4.260106795397654,
29/10/2021,"108 BELGROVE PARK, MOUNT PROSPECT LAWNS, CLONTARF DUBLIN 3",Dublin,D03W840,0,0,390.0,200k-400k,2021-10-29,2021,10,4,390000,0.0,53.33306,-6.24889,2.0096305578111666,
12/07/2021,"WOODWINDS, RED ROW, COURTOWN",Wexford,Y25XV24,0,0,290.0,200k-400k,2021-07-12,2021,7,3,290000,0.0,52.64424,-6.22899,37.67722270104538,
21/09/2021,"17 ELMCASTLE COURT, KILNAMANAGH, DUBLIN 24",Dublin,D24TPA9,0,0,345.0,200k-400k,2021-09-21,2021,9,3,345000,0.0,53.3035679,-6.353264,8.03393812779653,
20/01/2021,"27 ARLINGTON EST, PORTARLINGTON, LAOIS",Laois,,0,0,120.0,<200k,2021-01-20,2021,1,1,120000,0.0,53.153072,-7.1775113,15.527762883136411,
13/08/2021,"APT 20 BUTLER COURT, 77 SIR JOHN ROGERSON QUAY, DUBLIN 2",Dublin,,0,0,512.0,400k-600k,2021-08-13,2021,8,3,512000,0.0,53.3452101,-6.2332949,1.863810159908454,
01/10/2021,"9 SAUNDERS LANE, WILTON MANOR, RATHNEW",Wicklow,A67NV05,0,0,320.0,200k-400k,2021-10-01,2021,10,4,320000,0.0,52.99056,-6.08528,18.89710755350146,
30/04/2021,"APT 205, RICHMOND COURT, MOUNT KENNETH PLACE",Limerick,,0,0,88.5,<200k,2021-04-30,2021,4,2,88500,0.0,52.66472,-8.62306,0.2659375696724005,
17/12/2021,"37 DROMIN GREEN, LISTOWEL, KERRY",Kerry,V31YD23,0,0,210.0,200k-400k,2021-12-17,2021,12,4,210000,0.0,52.44639,-9.485,32.93099324548493,
24/09/2021,"6 COIS NA HABHANN, BELCARRA, CASTLEBAR",Mayo,,0,0,155.0,<200k,2021-09-24,2021,9,3,155000,0.0,53.8038778,-9.2154874,7.850859398495442,
05/03/2021,"1 HEATHERFIELD, BALLYMAH, CORK",Cork,,0,0,705.0,600k-800k,2021-03-05,2021,3,1,705000,0.0,51.89797,-8.47061,0.3474186045968561,
18/02/2021,"22 DUNSOGHLY DRIVE, FINGLAS WEST, DUBLIN 11",Dublin,,0,0,255.0,200k-400k,2021-02-18,2021,2,1,255000,0.0,53.33306,-6.24889,2.0096305578111666,
30/11/2021,"KILTANNON HOME FARM, KILTANNON, TULLA",Clare,,0,0,700.0,600k-800k,2021-11-30,2021,11,4,700000,0.0,52.86472,-8.76056,24.08839904413993,
30/03/2021,"20 THE PADDOCKS, GOWRAN, KILKENNY",Kilkenny,,0,0,215.0,200k-400k,2021-03-30,2021,3,1,215000,0.0,52.6295213,-7.0712168,12.026762107162742,
19/07/2021,"41 Martello, Rushbrooke, Cobh",Cork,,0,1,288.55,200k-400k,2021-07-19,2021,7,3,288546,1.0,51.85722,-8.29917,12.951704995467544,
30/09/2021,"12 DUNRAVEN DOWNS, BLACKROCK RD, CORK",Cork,T12YE29,0,0,190.0,<200k,2021-09-30,2021,9,3,190000,0.0,51.89797,-8.47061,0.3474186045968561,
03/09/2021,"41 BARLEY HILL, COURT BOHOLA, CLAREMORRIS",Mayo,F12PY90,0,0,167.0,<200k,2021-09-03,2021,9,3,167000,0.0,,,,
12/11/2021,"41 SHANGANAGH GROVE, SHANKILL, DUBLIN",Dublin,D18Y2X8,0,0,745.0,600k-800k,2021-11-12,2021,11,4,745000,0.0,53.2289242,-6.1144891,16.57071047669607,
21/09/2021,"92 LIOS ARD, TULLA RD, ENNIS",Clare,V95RYV9,0,0,210.0,200k-400k,2021-09-21,2021,9,3,210000,0.0,52.84361,-8.98639,31.396463451049097,
03/09/2021,"KINCORA, BAILY GREEN, HOWTH",Dublin,D13DH67,0,0,810.0,800k-1M,2021-09-03,2021,9,3,810000,0.0,53.33306,-6.24889,2.0096305578111666,
25/11/2021,"60 Cathedral View, Rampart Road, Dundalk",Louth,,0,1,233.48,200k-400k,2021-11-25,2021,11,4,233480,1.0,54.0,-6.41667,0.96782088498138,
29/10/2021,"59 CNOC TIARNACH, GRANGE END, DUNSHAUGHLIN",Meath,A85KW40,0,0,500.0,400k-600k,2021-10-29,2021,10,4,500000,0.0,53.5125,-6.54,12.885888602470857,
06/08/2021,"26 Kinsealy Manor, Chapel Road, Kinsealy",Dublin,,0,1,405.29,400k-600k,2021-08-06,2021,8,3,405286,1.0,53.33306,-6.24889,2.0096305578111666,
05/05/2021,"CARROWMORE, DRUMNACOOL, SLIGO",Sligo,,0,0,387.0,200k-400k,2021-05-05,2021,5,2,387000,0.0,54.26969,-8.46943,0.8820024879802578,
17/12/2021,"32 The Green, Bellingsmore, Church Road",Dublin,,0,1,405.29,400k-600k,2021-12-17,2021,12,4,405286,1.0,53.33306,-6.24889,2.0096305578111666,
07/10/2021,"56 BLUE CEDARS, CAPPRY, BALLYBOFEY",Donegal,F93PX29,0,0,178.0,<200k,2021-10-07,2021,10,4,178000,0.0,54.8,-7.78333,26.524597708766656,
10/06/2021,"KINGFISHERS, TOWER RD, PILTOWN",Kilkenny,,0,0,310.0,200k-400k,2021-06-10,2021,6,2,310000,0.0,52.35333,-7.34028,34.06277157795979,
31/03/2021,"2A IRISH ST, ENNISCORTHY, CO WEXFORD",Wexford,,0,0,110.0,<200k,2021-03-31,2021,3,1,110000,0.0,52.502659,-6.5699235,19.79909653142359,
30/08/2021,"27 CARAGH MEADOWS, NAAS, KILDARE",Kildare,W91V22A,0,0,325.0,200k-400k,2021-08-30,2021,8,3,325000,0.0,53.21583,-6.66694,17.36544204088041,
21/10/2021,"GLENTRASNA, BALLYNOE, MALLOW",Cork,,0,0,150.0,<200k,2021-10-21,2021,10,4,150000,0.0,52.13333,-8.63333,28.25497026599154,
19/11/2021,"181 CASTLEMOYNE, BALGRIFFIN, DUBLIN 13",Dublin,D13F9X4,0,0,541.85,400k-600k,2021-11-19,2021,11,4,541850,0.0,53.409771,-6.16779,9.061996287461842,
25/11/2021,"GAULSTOWN, GLENMORE, CO KILKENNY",Kilkenny,Y34EK61,0,0,200.0,<200k,2021-11-25,2021,11,4,200000,0.0,52.35167,-7.025,36.77262960418074,
13/10/2021,"23 WATERS GATE, BILBERRY, WATERFORD",Waterford,X91Y409,0,0,145.0,<200k,2021-10-13,2021,10,4,145000,0.0,52.25833,-7.11194,0.1652789234369528,
28/06/2021,"18 MANOR PLACE, ONGAR VILLAGE, DUBLIN 15",Dublin,D15CK26,0,0,167.0,<200k,2021-06-28,2021,6,2,167000,0.0,53.33306,-6.24889,2.0096305578111666,
07/05/2021,"26 HEATHERFIELD, CARRIGALINE, CORK",Cork,P43E336,0,0,250.0,200k-400k,2021-05-07,2021,5,2,250000,0.0,51.8215161,-8.388432,10.445566264695415,
28/05/2021,"1 Eastmount Gardens, Chapel Road, Delgany",Wicklow,,0,1,572.69,400k-600k,2021-05-28,2021,5,2,572687,1.0,53.13083,-6.09139,24.476630306580024,
10/09/2021,"33 GORT NA RI, BALLYHUGH, GORT",Galway,H91Y0F6,0,0,185.5,<200k,2021-09-10,2021,9,3,185500,0.0,53.06639,-8.81667,27.790669648995273,
09/03/2021,"13 ASHGROVE, PARCNAGOWAN, KILKENNY",Kilkenny,R95VH67,0,0,143.0,<200k,2021-03-09,2021,3,1,143000,0.0,52.65417,-7.25222,0.5005663805450715,
29/07/2021,"2 GLENDOWN CRESCENT, TEMPLEOGUE, DUBLIN 6W",Dublin,D6WKC97,0,0,760.0,600k-800k,2021-07-29,2021,7,3,760000,0.0,53.3037346,-6.3208378,6.511593945114313,
20/04/2021,"23 HIGHLAND PARK, KILKELLY, BALLYHAUNIS",Mayo,F35PY04,0,0,90.0,<200k,2021-04-20,2021,4,2,90000,0.0,53.76667,-8.76667,36.24088841882479,
27/01/2021,"87A ALBERT RD LOWER, SANDYCOVE, DUBLIN",Dublin,,0,0,900.0,800k-1M,2021-01-27,2021,1,1,900000,0.0,53.2855523,-6.1185739,11.817963063544282,
20/12/2021,"72 BROIMHEHAZEL, SWORDS, DUBLIN",Dublin,K67XK00,0,0,210.0,200k-400k,2021-12-20,2021,12,4,210000,0.0,53.33306,-6.24889,2.0096305578111666,
01/10/2021,"THE SQUARE, CAHERCONLISH, CO. LIMERICK",Limerick,,0,0,130.0,<200k,2021-10-01,2021,10,4,130000,0.0,52.59361,-8.47028,13.128955305626956,
03/09/2021,"FREAGH, NEWPORT, TIPPERARY",Tipperary,,0,0,420.0,400k-600k,2021-09-03,2021,9,3,420000,0.0,52.47333,-8.15583,0.0529981793748362,
09/08/2021,"ARM, WILLIAMSTOWN ROAD, CASTLEREA",Roscommon,F45CK29,0,0,116.0,<200k,2021-08-09,2021,8,3,116000,0.0,53.76667,-8.5,15.255326373333368,
12/04/2021,"15 Gandon Place, Gandon Park, Lucan",Dublin,,0,1,383.26,200k-400k,2021-04-12,2021,4,2,383260,1.0,53.3476834,-6.4650365,13.591831388717589,
19/10/2021,"16 PORTVIEW, THORNCASTLE ST, RINGSEND",Dublin,D04AF84,0,0,468.0,400k-600k,2021-10-19,2021,10,4,468000,0.0,53.33306,-6.24889,2.0096305578111666,
14/06/2021,"9  The Oaks, Bellevue, Frankfield",Cork,,0,1,395.04,200k-400k,2021-06-14,2021,6,2,395044,1.0,51.89797,-8.47061,0.3474186045968561,
10/11/2021,"72 The Riverside, Ryebridge, Kilcock",Kildare,,0,1,356.83,200k-400k,2021-11-10,2021,11,4,356827,1.0,53.4059548,-6.6687023,31.770102219195422,
09/11/2021,"171 CLUAIN RIOCAIRD, BOTHAR NA COISTE, GALWAY",Galway,H91HRP4,0,0,231.0,200k-400k,2021-11-09,2021,11,4,231000,0.0,53.27194,-9.04889,0.5437668292500759,
14/07/2021,"34 THE SQUARE, DRUMMIN VILLAGE, BORRISOKANE ROAD",Tipperary,,0,1,171.81,<200k,2021-07-14,2021,7,3,171806,1.0,52.47333,-8.15583,0.0529981793748362,
31/08/2021,"122 THE COURT, DUNBOYNE CASTLE, MEATH",Meath,A86WA24,1,0,140.0,<200k,2021-08-31,2021,8,3,140000,0.0,53.4155932,-6.4788313,24.161549262104735,
20/04/2021,"DEERPARK, VIRGINIA, COUNTY CAVAN",Cavan,A82DA06,0,0,135.0,<200k,2021-04-20,2021,4,2,135000,0.0,53.8392627,-7.0932884,24.2086000314023,
16/06/2021,"97 DROMROE, RHEBOGUE, LIMERICK",Limerick,V94DY8V,0,0,342.58,200k-400k,2021-06-16,2021,6,2,342578,0.0,52.66472,-8.62306,0.2659375696724005,
30/09/2021,"74 GLENCLOY RD, WHITEHALL, DUBLIN 9",Dublin,D09WD89,0,0,316.0,200k-400k,2021-09-30,2021,9,3,316000,0.0,53.3842807,-6.2476764,3.924495255708957,
27/05/2021,"SUNHILL, KILLORGLIN, KERRY",Kerry,,0,0,322.0,200k-400k,2021-05-27,2021,5,2,322000,0.0,52.1110393,-9.8288351,18.52004484802715,
04/11/2021,"PROPERTY NO 2, DUBLIN ROAD, MAYNOOTH",Kildare,W23D8W9,0,0,445.0,400k-600k,2021-11-04,2021,11,4,445000,0.0,53.385,-6.59361,32.744287990411955,
16/06/2021,"MEWS COTTAGE, MOUNT CARMEL, OLD LUCAN RD WEST DUBLIN 20",Dublin,D20CP46,0,0,207.5,200k-400k,2021-06-16,2021,6,2,207500,0.0,53.33306,-6.24889,2.0096305578111666,
30/06/2021,"KNOCKERAGH, KILLARNEY, CO. KERRY",Kerry,,0,0,160.0,<200k,2021-06-30,2021,6,2,160000,0.0,52.05,-9.51667,12.115766262065764,
31/03/2021,"6 REDWOOD LAWNS, KILNAMANAGH, DUBLIN 24",Dublin,,0,0,324.0,200k-400k,2021-03-31,2021,3,1,324000,0.0,53.33306,-6.24889,2.0096305578111666,
05/03/2021,"37 CHURCH AVE, DRUMCONDRA, DUBLIN 9",Dublin,,0,0,595.0,400k-600k,2021-03-05,2021,3,1,595000,0.0,53.3708091,-6.2515275,2.407544102746786,
09/04/2021,"GORTADERRA, SCARRIFF, CLARE",Clare,,0,0,228.0,200k-400k,2021-04-09,2021,4,2,228000,0.0,52.90872,-8.53316,27.950913354444022,
20/08/2021,"6 CHURCH HILL, BALLINASLOE, GALWAY",Galway,H53N8X3,0,0,125.0,<200k,2021-08-20,2021,8,3,125000,0.0,53.3299837,-8.2234258,55.77030652807956,
15/11/2021,"106 castleland park way, blabriggan",Dublin,,0,1,277.53,200k-400k,2021-11-15,2021,11,4,277533,1.0,53.33306,-6.24889,2.0096305578111666,
21/12/2021,"3 KILGLASS FOREST PARK, BARRAVALLY, ROOSKY",Roscommon,F42R894,0,0,130.0,<200k,2021-12-21,2021,12,4,130000,0.0,53.83333,-7.91667,24.492645093738258,
01/10/2021,"3 SARSFIELD PARK, LUCAN, COUNTY DUBLIN",Dublin,K78Y2H0,0,0,305.0,200k-400k,2021-10-01,2021,10,4,305000,0.0,53.3568896,-6.4476061,12.45644450986176,
08/12/2021,"LOUGHANBREAN, CROSSAKIEL, KELLS",Meath,A82VH50,0,0,230.0,200k-400k,2021-12-08,2021,12,4,230000,0.0,53.72639,-6.87917,19.90220032315331,
12/07/2021,"13 BOTHAR SHEEN, GLANEROUGHT, KENMARE",Kerry,V93PD65,0,0,155.0,<200k,2021-07-12,2021,7,3,155000,0.0,51.88333,-9.58333,30.173681421844105,
07/12/2021,"1 PEARSE SQUARE, RINGSEND, DUBLIN 4",Dublin,D02PC61,0,0,1000.0,800k-1M,2021-12-07,2021,12,4,1000000,0.0,53.33306,-6.24889,2.0096305578111666,
13/10/2021,"FOUNTAIN LODGE, ISLANDBGIDGE, DUBLIN 8",Dublin,,0,0,565.0,400k-600k,2021-10-13,2021,10,4,565000,0.0,53.33306,-6.24889,2.0096305578111666,
12/08/2021,"CORRAN MORE HOUSE, BARLEYCOVE, GOLEEN",Cork,,0,0,440.0,400k-600k,2021-08-12,2021,8,3,440000,0.0,51.49389,-9.70917,96.18857373042772,
28/10/2021,"118 GLASNEVIN AVE, GLASNEVIN, DUBLIN 11",Dublin,D11C2W6,0,0,625.0,600k-800k,2021-10-28,2021,10,4,625000,0.0,53.33306,-6.24889,2.0096305578111666,
23/03/2021,"DERRINTIN, LEENANE, CO GALWAY",Galway,,0,0,130.0,<200k,2021-03-23,2021,3,1,130000,0.0,53.6,-9.68333,55.34614915519569,
18/05/2021,"24 ST JOHNS RD, LAKESIDE, HEBRON RD",Kilkenny,R95T683,0,0,149.0,<200k,2021-05-18,2021,5,2,149000,0.0,52.65417,-7.25222,0.5005663805450715,
12/03/2021,"TAWLEY, CASTLEGAL, SLIGO",Leitrim,,0,0,195.0,<200k,2021-03-12,2021,3,1,195000,0.0,53.99083,-8.06361,15.485918602950717,
01/02/2021,"14 PARKLYN, BROCKLESBY ST, BLACKPOOL",Cork,,0,0,160.0,<200k,2021-02-01,2021,2,1,160000,0.0,51.91028,-8.47139,1.3413410200891656,
13/12/2021,"BARROW HOUSE, MONASTEREVIN, CO KILDARE",Kildare,W34YF44,0,0,935.0,800k-1M,2021-12-13,2021,12,4,935000,0.0,53.14056,-7.06639,10.64172744174616,
17/06/2021,"36 Foxhollow, Golf Links Road, Castletroy",Limerick,,0,1,766.52,600k-800k,2021-06-17,2021,6,2,766520,1.0,52.66472,-8.62306,0.2659375696724005,
22/06/2021,"30 THE CRESCENT, PIPERSHILL  KILLASHEE, NAAS",Kildare,,0,0,445.0,400k-600k,2021-06-22,2021,6,2,445000,0.0,53.21583,-6.66694,17.36544204088041,
02/12/2021,"31 DOWDALLSHILL, OLD NEWRY RD, DUNDALK",Louth,,0,0,155.0,<200k,2021-12-02,2021,12,4,155000,0.0,54.0,-6.41667,0.96782088498138,
08/09/2021,"GARROWART, ARDARA, DONEGAL",Donegal,,0,0,90.0,<200k,2021-09-08,2021,9,3,90000,0.0,54.76444,-8.4075,22.716829444564635,
09/02/2021,"12 CEOL NA MARA, KILL, WATERFORD",Waterford,,0,0,150.0,<200k,2021-02-09,2021,2,1,150000,0.0,52.1759288,-7.333775,17.836317239567368,
28/06/2021,"102 STILLORGAN HEATH, STILLORGAN, DUBLIN",Dublin,A94W448,0,0,651.0,600k-800k,2021-06-28,2021,6,2,651000,0.0,53.2813,-6.2059256,8.429894367605856,
06/10/2021,"ROCKSPRINGS, CAMOLIN, ENNISCORTHY",Wexford,,0,0,435.0,400k-600k,2021-10-06,2021,10,4,435000,0.0,52.50083,-6.55778,19.321477610811513,
29/07/2021,"8 GLASHEEN PARK, GLASHEEN RD, CORK",Cork,T12A6W9,0,0,290.0,200k-400k,2021-07-29,2021,7,3,290000,0.0,51.89797,-8.47061,0.3474186045968561,
11/11/2021,"5 ROS AIRGID, LIS CARA, CARRICK ON SHANNON",Leitrim,N41WN53,0,0,95.0,<200k,2021-11-11,2021,11,4,95000,0.0,53.94694,-8.09,20.65323985245686,
05/08/2021,"2 PORTNOO, LACKAGH, CO DONEGAL",Donegal,F94A362,0,0,250.0,200k-400k,2021-08-05,2021,8,3,250000,0.0,54.65,-8.11667,0.6180164947367002,
17/05/2021,"13 DROMCAIRN, SKAHANAGH, TRALEE",Kerry,V92N8C7,0,0,325.0,200k-400k,2021-05-17,2021,5,2,325000,0.0,52.27042,-9.70264,15.864334312360056,
14/05/2021,"KEELWEST, ACHILL, MAYO",Mayo,,0,0,121.0,<200k,2021-05-14,2021,5,2,121000,0.0,53.93111,-9.915,41.30600228917531,
08/12/2021,"74 THE MEADOWS, BELGOOLY, CORK",Cork,P17AD77,0,0,420.0,400k-600k,2021-12-08,2021,12,4,420000,0.0,51.7389181,-8.48738,17.76316161376642,
15/06/2021,"46 OXMANTOWN RD, DUBLIN 7, DUBLIN",Dublin,D07E1R0,0,0,300.0,200k-400k,2021-06-15,2021,6,2,300000,0.0,53.3537372,-6.2916308,2.125082407597392,
16/12/2021,"BURROW ROAD, PORTRANE, CO DUBLIN",Dublin,,0,0,350.0,200k-400k,2021-12-16,2021,12,4,350000,0.0,53.5072637,-6.1260076,19.64004377566425,
06/05/2021,"60, BALLYNEETY ROAD, BALLYFERMOT DUBLIN 10",Dublin,D10H578,1,0,90.0,<200k,2021-05-06,2021,5,2,90000,0.0,53.33306,-6.24889,2.0096305578111666,
15/03/2021,"2A WOODBINE ROAD, MOUNTROSE, DONNYBROOK",Dublin,,0,0,530.0,400k-600k,2021-03-15,2021,3,1,530000,0.0,53.33306,-6.24889,2.0096305578111666,
07/07/2021,"13 BALLINTYRE DOWNS, BALLINTEER AVE, DUBLIN 16",Dublin,D16HH51,0,0,650.0,600k-800k,2021-07-07,2021,7,3,650000,0.0,53.33306,-6.24889,2.0096305578111666,
05/11/2021,"2 NATUIR, CORK ST, MACROON",Cork,P12HX63,0,0,196.0,<200k,2021-11-05,2021,11,4,196000,0.0,51.89797,-8.47061,0.3474186045968561,
07/05/2021,"KENTSTOWN RD, ATHLUMNEY, NAVAN",Meath,,0,0,300.0,200k-400k,2021-05-07,2021,5,2,300000,0.0,53.65278,-6.68139,5.509492786401523,
13/04/2021,"4 ST BRENDANS AVE, WOODQUAY, GALWAY",Galway,H91WF6W,0,0,270.0,200k-400k,2021-04-13,2021,4,2,270000,0.0,53.27194,-9.04889,0.5437668292500759,
05/08/2021,"179 HAMPTON SQ, NAVAN RD, DUBLIN 7",Dublin,D07FX7X,0,0,295.0,200k-400k,2021-08-05,2021,8,3,295000,0.0,53.3610103,-6.302845,3.0864823822634335,
30/08/2021,"56 ASHTON WOOD, BRAY, WICKLOW",Wicklow,A98H6C6,0,0,412.0,400k-600k,2021-08-30,2021,8,3,412000,0.0,53.1886438,-6.1364106,27.292947750949843,
17/05/2021,"10 ORWELL GARDENS, DUBLIN 14, DUBLIN",Dublin,D14DK35,1,0,176.0,<200k,2021-05-17,2021,5,2,176000,0.0,53.3054099,-6.2650257,4.94592078258256,
11/10/2021,"8 CHERRY AVE, CARNDONAGH, DONEGAL",Donegal,F93T252,0,0,225.0,200k-400k,2021-10-11,2021,10,4,225000,0.0,55.25,-7.26667,85.39145247926129,
08/03/2021,"12 CUL RUA, AGLISH, CAPPOQUIN",Waterford,,0,0,192.5,<200k,2021-03-08,2021,3,1,192500,0.0,52.14722,-7.85528,52.288555741454694,
25/01/2021,"78 SUNDAYS WELL, LISLOOSE, TRALEE",Kerry,,0,0,153.0,<200k,2021-01-25,2021,1,1,153000,0.0,52.27042,-9.70264,15.864334312360056,
26/11/2021,"BALLYNAMONA, SHANAGARRY, MIDLETON",Cork,P25TF38,0,0,700.0,600k-800k,2021-11-26,2021,11,4,700000,0.0,51.91526,-8.18052,20.32830098260768,
01/07/2021,"MULLAHILL, KILLURIN, TULLAMORE",Offaly,,0,0,245.0,200k-400k,2021-07-01,2021,7,3,245000,0.0,53.27389,-7.48889,19.244059611113396,
05/07/2021,"16 KINGS PARK, MUCKROSS RD, KILLARNEY",Kerry,V93E2N1,0,0,283.0,200k-400k,2021-07-05,2021,7,3,283000,0.0,52.05,-9.51667,12.115766262065764,
30/06/2021,"42 WOODSTOWN HEIGHTS, KNOCKLYON, DUBLIN 16",Dublin,D16Y1T7,0,0,500.0,400k-600k,2021-06-30,2021,6,2,500000,0.0,53.2727218,-6.3268284,9.6432323776131,
25/01/2021,"15 CHARLETON HILL, NEW ROSS, CO WEXFORD",Wexford,,0,0,88.0,<200k,2021-01-25,2021,1,1,88000,0.0,52.390142,-6.9423002,33.05900620135187,
27/07/2021,"9 BEECHURST, KILLARNEY RD, BRAY",Wicklow,A98CA48,0,0,600.0,400k-600k,2021-07-27,2021,7,3,600000,0.0,53.20278,-6.09833,30.04996442143383,
29/04/2021,"46 MONKSFIELD, BEALNAMULLA, ATHLONE",Roscommon,N37FD63,0,0,165.0,<200k,2021-04-29,2021,4,2,165000,0.0,53.63333,-8.18333,15.1321308089237,
01/10/2021,"OLD GRANGE, MONASTEREVIN, KILDARE",Kildare,,0,0,415.0,400k-600k,2021-10-01,2021,10,4,415000,0.0,53.1480005,-7.0537651,9.674911460614364,
14/12/2021,"1 MAPLE VIEW, PARCNAGOWAN, OUTRATH RD",Kilkenny,R95F1P2,0,0,320.0,200k-400k,2021-12-14,2021,12,4,320000,0.0,52.65417,-7.25222,0.5005663805450715,
27/04/2021,"APARTMENT 202, THE WILLOWS, BOREENMANA ROAD",Cork,,0,0,337.5,200k-400k,2021-04-27,2021,4,2,337500,0.0,51.89797,-8.47061,0.3474186045968561,
16/04/2021,"27 AN SRUTHAN BEAG, CLOGHEEN, CLONAKILTY",Cork,P85DX88,0,1,268.72,200k-400k,2021-04-16,2021,4,2,268722,1.0,51.62306,-8.87056,40.95032611981491,
16/04/2021,"20 CLARIN WOOD, RATHMORE, KERRY",Kerry,P51XC93,0,0,171.0,<200k,2021-04-16,2021,4,2,171000,0.0,52.08333,-9.21667,25.187917806906373,
08/10/2021,"3 OLD COURT HOUSE, MARKET SQ, COLLON",Louth,A92YD37,0,0,130.0,<200k,2021-10-08,2021,10,4,130000,0.0,53.78111,-6.48694,24.735837801359388,
21/12/2021,"BROOKLAWN, MULLAGH, CAVAN",Cavan,,0,0,130.0,<200k,2021-12-21,2021,12,4,130000,0.0,53.81306,-6.95139,33.2218637036336,
31/03/2021,"50 LEE ESTATE, LIMERICK",Limerick,,0,0,124.0,<200k,2021-03-31,2021,3,1,124000,0.0,52.66472,-8.62306,0.2659375696724005,
09/07/2021,"54 CASTLEKNOCK GRANGE, CASTLEKNOCK, DUBLIN",Dublin,D15N294,0,0,405.0,400k-600k,2021-07-09,2021,7,3,405000,0.0,53.3791711,-6.3774001,8.428362826786717,
11/06/2021,"76 CARRIGCOURT, CARRIGALINE, COUNTY CORK",Cork,P43W597,0,0,308.0,200k-400k,2021-06-11,2021,6,2,308000,0.0,51.8243386,-8.3986833,9.792900412027064,
10/12/2021,"47 BROTHERTON, SLEATY ROAD, GRAIGUECULLEN",Laois,R93N9W9,0,0,120.16,<200k,2021-12-10,2021,12,4,120160,0.0,53.0,-7.4,7.741995117891213,
22/09/2021,"37 LEIM AN BHRADAIN, GORT RD, ENNIS",Clare,V95KW02,0,0,95.0,<200k,2021-09-22,2021,9,3,95000,0.0,52.84361,-8.98639,31.396463451049097,
10/02/2021,"21 LYNALLY GROVE, MUCKLAGH TULLAMORE, OFFALY",Offaly,,0,0,252.0,200k-400k,2021-02-10,2021,2,1,252000,0.0,53.2508785,-7.5451839,15.705896234497969,
27/04/2021,"36 NEWPORTS SQUARE, WATERFORD",Waterford,X91WPK8,0,0,125.0,<200k,2021-04-27,2021,4,2,125000,0.0,52.25833,-7.11194,0.1652789234369528,
16/07/2021,"BALLYHIST, ARDFINNAN, CLONMEL",Tipperary,,0,0,325.0,200k-400k,2021-07-16,2021,7,3,325000,0.0,52.47333,-8.15583,0.0529981793748362,
16/12/2021,"34 THE MOORINGS, SKULL, CORK",Cork,P81H996,0,0,140.0,<200k,2021-12-16,2021,12,4,140000,0.0,51.5240168,-9.546758,84.737514580907,
22/11/2021,"ROCKBROOK, RIVERSTOWN, SLIGO",Sligo,F52H588,0,0,117.0,<200k,2021-11-22,2021,11,4,117000,0.0,54.13167,-8.39444,16.96806437840338,
28/05/2021,"1520 ST BRIGIDS TERRACE, ROBERTSTOWN, NAAS",Kildare,W91EHP4,0,0,250.0,200k-400k,2021-05-28,2021,5,2,250000,0.0,53.21583,-6.66694,17.36544204088041,
15/10/2021,"10 WILLOWFIELD PARK AVEUNE, SANDYMOUNT, DUBLIN 4",Dublin,D04P990,0,0,395.0,200k-400k,2021-10-15,2021,10,4,395000,0.0,53.33306,-6.24889,2.0096305578111666,
21/01/2021,"19 Lios na mBan, Ladysbridge, Castlemartyr",Cork,,0,1,251.1,200k-400k,2021-01-21,2021,1,1,251101,1.0,51.91028,-8.05389,28.960823322133415,
29/07/2021,"38 BEECHWOOD PARK, BALLINLOUGH, CORK",Cork,T12E8Y6,0,0,180.0,<200k,2021-07-29,2021,7,3,180000,0.0,51.8879273,-8.4474116,2.263571127020284,
04/05/2021,"2 TEMPLE COURT, MOUNT SAINT ANNES, MILLTOWN",Dublin,D06TR84,0,0,580.0,400k-600k,2021-05-04,2021,5,2,580000,0.0,53.33306,-6.24889,2.0096305578111666,
01/04/2021,"15 Cill Stiufin, School Road, Lahinch",Clare,,0,1,345.81,200k-400k,2021-04-01,2021,4,2,345815,1.0,52.93268,-9.33666,56.32171437196919,
06/05/2021,"No 1 Galbolie, Bailieborough",Cavan,,0,1,167.4,<200k,2021-05-06,2021,5,2,167401,1.0,53.913789,-6.9820867,26.1401721075507,
14/10/2021,"13 PARK HEATH, GRANGE RATH, DROGHEDA",Meath,A92P6KP,0,0,290.0,200k-400k,2021-10-14,2021,10,4,290000,0.0,53.7066114,-6.3131556,25.25911387328577,
08/12/2021,"9 EARLS COURT LYREEN MANOR, MAYNOOTH, KILDARE",Kildare,W23WD86,0,0,297.02,200k-400k,2021-12-08,2021,12,4,297021,0.0,53.385,-6.59361,32.744287990411955,
09/09/2021,"69 CAISEAL CAM, ROSCAM, GALWAY",Galway,H91C583,0,0,302.0,200k-400k,2021-09-09,2021,9,3,302000,0.0,53.2750747,-8.9708226,5.737729981836259,
22/01/2021,"46 ODWYERS VILLAS, THOMONDGATE, LIMERICK",Limerick,,0,0,145.0,<200k,2021-01-22,2021,1,1,145000,0.0,52.66472,-8.62306,0.2659375696724005,
09/09/2021,"41 CENTREPOINT APTS, LIOSBAN BUSINESS PARKTUAM RD, GALWAY",Galway,H91X4P6,0,0,140.0,<200k,2021-09-09,2021,9,3,140000,0.0,53.27194,-9.04889,0.5437668292500759,
23/07/2021,"56 The Avenue, Heathfield, Carriganarra",Cork,P31PW32,0,1,295.15,200k-400k,2021-07-23,2021,7,3,295153,1.0,51.88972,-8.55639,5.629138119746403,
28/05/2021,"21 VERDEMONT, BLANCHARDSTOWN, DUBLIN 15",Dublin,D15E620,0,0,290.0,200k-400k,2021-05-28,2021,5,2,290000,0.0,53.38799,-6.3930314,9.776567462948178,
05/03/2021,"53 DERG HILL, CULLENAGH, BALLINA",Tipperary,,0,0,390.0,200k-400k,2021-03-05,2021,3,1,390000,0.0,52.8179077,-8.4379939,42.74082082691313,
16/12/2021,"36 THE PARK WOLSTAN HAVEN, CELBRIDGE, KILDARE",Kildare,W23D622,0,0,420.0,400k-600k,2021-12-16,2021,12,4,420000,0.0,53.3421479,-6.5499116,31.416109289225258,
29/10/2021,"9 BELARMINE CLOSE, STEPASIDE, DUBLIN 18",Dublin,D18YR25,0,0,620.0,600k-800k,2021-10-29,2021,10,4,620000,0.0,53.2605215,-6.2187032,10.304887391244018,
23/02/2021,"2 MARLEY CLOSE, MARLEY GRANGE, RATHFARNHAM DUBLIN 16",Dublin,,0,0,755.0,600k-800k,2021-02-23,2021,2,1,755000,0.0,53.33306,-6.24889,2.0096305578111666,
21/07/2021,"19 THE BURROWS, CALVERSTOWN, KILDARE",Kildare,R56A702,0,0,375.0,200k-400k,2021-07-21,2021,7,3,375000,0.0,53.083273,-6.794203,11.4487384081795,
12/03/2021,"1 The View, Oldbridge Manor, Rathmullen",Meath,,0,1,255.18,200k-400k,2021-03-12,2021,3,1,255175,1.0,53.66667,-6.66667,6.83541116583885,
30/09/2021,"182 Drakes Point, Crosshaven",Cork,,0,1,274.16,200k-400k,2021-09-30,2021,9,3,274164,1.0,51.79833,-8.30083,16.376278132627775,
24/02/2021,"BALLYVAKE, GLENBRIEN, ENNISCORTHY",Wexford,,0,0,227.0,200k-400k,2021-02-24,2021,2,1,227000,0.0,52.50083,-6.55778,19.321477610811513,
18/05/2021,"21 Marella, Muckduff, Enniscrone",Sligo,,0,1,150.0,<200k,2021-05-18,2021,5,2,150000,1.0,54.21285,-9.09317,40.71513970573315,
14/10/2021,"4 WOODFORD, BREWERY RD, STILLORGAN",Dublin,A94FH30,0,0,685.0,600k-800k,2021-10-14,2021,10,4,685000,0.0,53.33306,-6.24889,2.0096305578111666,
03/12/2021,"20 ARRANMORE, PEMBROKE RD, DUBLIN 4",Dublin,D04H227,0,0,252.5,200k-400k,2021-12-03,2021,12,4,252500,0.0,53.33306,-6.24889,2.0096305578111666,
25/01/2021,"63 OLD BALREASK WOODS, NAVAN, MEATH",Meath,,0,0,240.0,200k-400k,2021-01-25,2021,1,1,240000,0.0,,,,
10/11/2021,"7 THE OLD MILL, PORTLAOISE, LAOIS",Laois,R32FC97,0,0,105.0,<200k,2021-11-10,2021,11,4,105000,0.0,53.03441,-7.29979,0.0697768566049224,
26/08/2021,"DUNMORE, DOONBEG, CLARE",Clare,,0,0,132.0,<200k,2021-08-26,2021,8,3,132000,0.0,52.73194,-9.52278,60.85645796645304,
14/12/2021,"3 CLOGHER RD, CRUMLIN, DUBLIN 12",Dublin,D12P2K1,0,0,268.0,200k-400k,2021-12-14,2021,12,4,268000,0.0,53.3253307,-6.2993652,3.759046037805588,
19/04/2021,"7 LIOS ANAMA, SIXMILEBRIDGE, CLARE",Clare,V95KP30,0,0,240.0,200k-400k,2021-04-19,2021,4,2,240000,0.0,52.74139,-8.77417,13.15928464043592,
09/12/2021,"42 WESTPARK, BLESSINGTON, CO WICKLOW",Wicklow,W91Y3C2,0,0,250.0,200k-400k,2021-12-09,2021,12,4,250000,0.0,53.1686242,-6.5408559,23.357256065812923,
10/02/2021,"16 SANDYMOUNT AVE, GLASHEEN RD, WILTON",Cork,,0,0,305.0,200k-400k,2021-02-10,2021,2,1,305000,0.0,51.89797,-8.47061,0.3474186045968561,
15/12/2021,"LOUGH SILLAN HOUSE, CARRICKACREENY, SHERCOCK",Cavan,A81Y751,0,0,1000.0,800k-1M,2021-12-15,2021,12,4,1000000,0.0,54.0,-6.9,30.08913059908227,
18/02/2021,"1 RIVERSIDE, THOMOND RD, THURLES",Tipperary,,0,0,165.0,<200k,2021-02-18,2021,2,1,165000,0.0,,,,
16/06/2021,"APT 5 CHESTNUT HOUSE, APPLEWOOD VILLAGE, SWORDS",Dublin,K67KX85,0,0,220.0,200k-400k,2021-06-16,2021,6,2,220000,0.0,53.33306,-6.24889,2.0096305578111666,
23/02/2021,"7 Coill Doire, Faha East, Killarney",Kerry,,0,1,305.73,200k-400k,2021-02-23,2021,2,1,305726,1.0,52.05,-9.51667,12.115766262065764,
20/09/2021,"11 PARK LANE, GRANGERATH, COLPE",Meath,A92X5DD,0,0,335.0,200k-400k,2021-09-20,2021,9,3,335000,0.0,53.66667,-6.66667,6.83541116583885,
29/04/2021,"COMMONS, KILLYBEGS, DONEGAL",Donegal,,0,0,126.0,<200k,2021-04-29,2021,4,2,126000,0.0,54.6554289,-8.4273673,20.415742347821595,
02/11/2021,"MONEYVOULIHANE, SKIBBEREEN, WEST CORK",Cork,P81W603,0,0,280.0,200k-400k,2021-11-02,2021,11,4,280000,0.0,51.89797,-8.47061,0.3474186045968561,
07/12/2021,"10 ASHBROOK GROVE, ENNIS RD, LIMERICK",Limerick,V947W84,0,0,440.0,400k-600k,2021-12-07,2021,12,4,440000,0.0,52.66472,-8.62306,0.2659375696724005,
10/09/2021,"11 The Park, Citywest Village, Citywest",Dublin,,0,1,348.02,200k-400k,2021-09-10,2021,9,3,348018,1.0,53.2886535,-6.4192706,12.558961916634733,
11/03/2021,"137 THE GALLERY, TURVEY WALK, DONABATE",Dublin,,0,0,300.0,200k-400k,2021-03-11,2021,3,1,300000,0.0,53.33306,-6.24889,2.0096305578111666,
08/12/2021,"10 BREGA HAMLET LANE, BALBRIGGAN, DUBLIN",Dublin,K32FD70,0,0,246.0,200k-400k,2021-12-08,2021,12,4,246000,0.0,53.6150035,-6.2027144,29.73443415098016,
19/11/2021,"FARNAUGHT, WESTPORT, MAYO",Mayo,F28NW93,0,0,335.0,200k-400k,2021-11-19,2021,11,4,335000,0.0,53.8,-9.51667,15.59991697438606,
07/05/2021,"4 BROOKWOOD MEADOW, ARTANE, DUBLIN 5",Dublin,D05A023,0,0,605.0,600k-800k,2021-05-07,2021,5,2,605000,0.0,53.33306,-6.24889,2.0096305578111666,
23/07/2021,"KILMORE, LACKEN, BLESSINGTON",Wicklow,,0,0,240.0,200k-400k,2021-07-23,2021,7,3,240000,0.0,53.17,-6.5325,23.220075409132708,
25/08/2021,"2 ST PATRICKS TERRACE, PORTARLINGTON, OFFALY",Offaly,R32HH01,0,0,178.0,<200k,2021-08-25,2021,8,3,178000,0.0,53.25,-7.5,18.692387552188546,
12/10/2021,"3 Walker Grove, Parkside, Balgriffin",Dublin,,0,1,365.64,200k-400k,2021-10-12,2021,10,4,365638,1.0,53.33306,-6.24889,2.0096305578111666,
26/08/2021,"66 DURROW RD, STANNAWAY RD, CRUMLIN DUBLIN 12",Dublin,D12K66X,0,0,327.0,200k-400k,2021-08-26,2021,8,3,327000,0.0,53.33306,-6.24889,2.0096305578111666,
15/12/2021,"61B LOWER O'CONNELL STREET, KINSALE, CO. CORK",Cork,P17E046,0,0,220.0,200k-400k,2021-12-15,2021,12,4,220000,0.0,51.70262,-8.5207493,22.001010428511908,
27/10/2021,"RATHDRINAGH, BEAUPARC, NAVAN",Meath,,0,0,294.0,200k-400k,2021-10-27,2021,10,4,294000,0.0,53.65278,-6.68139,5.509492786401523,
07/12/2021,"4 Rathangan Manor, Bracknagh Road, Rathangan",Kildare,,0,1,264.32,200k-400k,2021-12-07,2021,12,4,264317,1.0,53.22139,-6.995,8.933723243914555,
18/02/2021,"55 TIRCROGHAN, KINNEGAD, COUNTY WESTMEATH",Westmeath,,0,0,175.0,<200k,2021-02-18,2021,2,1,175000,0.0,53.45222,-7.09972,17.837122723853618,
25/02/2021,"22 THE DRIVE, HARBOUR HEIGHTS, PASSAGE WEST",Cork,,0,0,251.0,200k-400k,2021-02-25,2021,2,1,251000,0.0,51.8750949,-8.3526628,8.829614061541356,
04/03/2021,"APT 3, CHAMBERLAIN COURT, RICHMOND AVE DUBLIN 3",Dublin,,0,0,272.5,200k-400k,2021-03-04,2021,3,1,272500,0.0,53.3641371,-6.243269,1.9542202363442336,
18/11/2021,"39 BROOK NA GILLE, MOYVANE, KERRY",Kerry,V31T950,0,0,138.0,<200k,2021-11-18,2021,11,4,138000,0.0,52.16667,-9.75,12.562816983458044,
25/11/2021,"CASTLEVIEW, CLOONEEN, DUNMORE",Galway,,0,0,155.0,<200k,2021-11-25,2021,11,4,155000,0.0,53.61667,-8.73333,44.03282676605415,
09/09/2021,"10 Churchlands, Delgany, Co. Wicklow",Wicklow,,0,1,436.12,400k-600k,2021-09-09,2021,9,3,436123,1.0,53.1397203,-6.0817415,25.612775201049892,
05/02/2021,"17 THE ELMS, LOUGH NA GLACK, CARRICKMACROSS",Monaghan,,0,1,127.75,<200k,2021-02-05,2021,2,1,127753,1.0,53.97278,-6.71889,34.77124278238651,
28/06/2021,"9 BALOOR, CASTLEBAR, MAYO",Mayo,,0,0,440.0,400k-600k,2021-06-28,2021,6,2,440000,0.0,53.85,-9.3,0.5712407909709523,
30/08/2021,"1 MARIAN TERRACE, MARKET SQ, KINSALE",Cork,P17P718,0,0,475.0,400k-600k,2021-08-30,2021,8,3,475000,0.0,51.7075,-8.53056,21.571817330762975,
22/01/2021,"29 The Oaks, Ballinahinch Wood, Ashford",Wicklow,,0,1,339.21,200k-400k,2021-01-22,2021,1,1,339207,1.0,53.00833,-6.11139,17.315387784096483,
08/11/2021,"77 ARDLEA, DUNSHAUGHLIN, CO MEATH",Meath,A85AW63,0,0,405.0,400k-600k,2021-11-08,2021,11,4,405000,0.0,53.5161064,-6.545284,12.355724572133523,
19/10/2021,"29 GREENHILLS VIEW, THE PINES, BALLINASLOE",Galway,H53EK15,0,0,182.0,<200k,2021-10-19,2021,10,4,182000,0.0,53.3275,-8.21944,56.003109712601386,
21/09/2021,"MONROE, PORTLOMAN, MULLINGAR",Westmeath,,0,0,200.0,<200k,2021-09-21,2021,9,3,200000,0.0,53.53333,-7.35,1.0619528767145334,
21/09/2021,"33 Slan Duff View, Kentstown, Co Meath",Meath,,0,1,231.28,200k-400k,2021-09-21,2021,9,3,231278,1.0,53.66667,-6.66667,6.83541116583885,
30/06/2021,"19 PARK RIDGE, GRANGE RATH, DUBLIN RD DROGHEDA",Meath,A92CT82,0,0,195.0,<200k,2021-06-30,2021,6,2,195000,0.0,53.66667,-6.66667,6.83541116583885,
05/10/2021,"EVERGREEN HOUSE, YOUGHAL, CORK",Cork,P36W867,0,0,176.0,<200k,2021-10-05,2021,10,4,176000,0.0,51.9403361,-7.8470499,43.3571179518673,
22/01/2021,"40 Sika Woods, Enniskerry",Wicklow,,0,1,724.96,600k-800k,2021-01-22,2021,1,1,724964,1.0,53.1930393,-6.1889442,25.906657737052157,
22/10/2021,"42 HOWTH ROAD, SUTTON, DUBLIN 13",Dublin,D13K5F2,0,0,875.0,800k-1M,2021-10-22,2021,10,4,875000,0.0,53.3901066,-6.1034055,11.33290243270122,
07/12/2021,"10 RIVERSDALE GROVE, PALMERSTOWN VILLAGE, DUBLIN 20",Dublin,D20V267,0,0,450.0,400k-600k,2021-12-07,2021,12,4,450000,0.0,53.33306,-6.24889,2.0096305578111666,
19/05/2021,"72 BLUE CEDARS, CAPPRY, BALLYBOFEY",Donegal,F93E8F2,0,0,140.0,<200k,2021-05-19,2021,5,2,140000,0.0,54.8,-7.78333,26.524597708766656,
16/07/2021,"3 MADDENSTOW NORTH, SUNCROFT, CURRAGH",Kildare,R56NP62,0,0,183.08,<200k,2021-07-16,2021,7,3,183084,0.0,53.15278,-6.84694,4.260106795397654,
28/05/2021,"20 WOODVIEW, RATHANGAN, KILDARE",Kildare,R51NW94,0,0,320.0,200k-400k,2021-05-28,2021,5,2,320000,0.0,53.2252885,-7.002558,9.588792980228114,
20/07/2021,"6 KNIGHTS PARK, RATHBAWN RD, CASTLEBAR",Mayo,F23VX66,0,0,185.0,<200k,2021-07-20,2021,7,3,185000,0.0,53.85,-9.3,0.5712407909709523,
29/11/2021,"STONEHAVEN, LEA RD, PORTARLINGTON",Laois,R32E6D6,0,0,370.0,200k-400k,2021-11-29,2021,11,4,370000,0.0,53.16222,-7.19111,15.973834473240409,
30/06/2021,"12 JOY ST, RINGSEND, DUBLIN 4",Dublin,D04E398,0,0,470.0,400k-600k,2021-06-30,2021,6,2,470000,0.0,53.33306,-6.24889,2.0096305578111666,
08/12/2021,"64 Barnwell Park, Hansfield",Dublin,,0,1,348.02,200k-400k,2021-12-08,2021,12,4,348016,1.0,53.33306,-6.24889,2.0096305578111666,
17/09/2021,"3 EASCANRATH BROOK, SUNCROFT, THE CURRAGH",Kildare,R56TR80,0,0,430.0,400k-600k,2021-09-17,2021,9,3,430000,0.0,53.15278,-6.84694,4.260106795397654,
30/09/2021,"3 ROCKWELL, SCHULL RD, BALLYDEHOB",Cork,P81AY23,0,0,175.0,<200k,2021-09-30,2021,9,3,175000,0.0,51.55,-9.46667,78.49539064721255,
03/03/2021,"ATHGARVAN, NEWBRIDGE, KILDARE",Kildare,,0,0,540.0,400k-600k,2021-03-03,2021,3,1,540000,0.0,53.1751523,-6.7998014,7.547808537513861,
29/10/2021,"39 PALMERSTOWN AVE, PALMERSTOWN, DUBLIN 20",Dublin,D20KP59,0,0,445.0,400k-600k,2021-10-29,2021,10,4,445000,0.0,53.3540142,-6.3705311,7.331258786215728,
19/11/2021,"1 THE GREEN, BARNHALL MEADOWS, LEIXLIP",Kildare,W23AW9Y,0,1,356.83,200k-400k,2021-11-19,2021,11,4,356828,1.0,53.3617137,-6.5123017,34.727013326887786,
14/10/2021,"CARVAGH, LINSFORT, BUNCRANA",Donegal,,0,0,199.0,<200k,2021-10-14,2021,10,4,199000,0.0,55.13333,-7.45,67.98534925118464,
19/08/2021,"RADAM, TUBBER LANE RD, ADERRIG",Dublin,K78DY79,0,0,810.0,800k-1M,2021-08-19,2021,8,3,810000,0.0,53.33306,-6.24889,2.0096305578111666,
24/03/2021,"175 ST HELENS VILLAGE, KILRANE, ROSSLARE",Wexford,,0,0,142.0,<200k,2021-03-24,2021,3,1,142000,0.0,52.27583,-6.38444,8.652171200382242,
13/07/2021,"169 SEVEN OAKS, SARSFIELD RD DUBLIN, DUBLIN 10",Dublin,D10RC59,1,0,119.27,<200k,2021-07-13,2021,7,3,119271,0.0,53.33306,-6.24889,2.0096305578111666,
16/09/2021,"93 CHARLESLAND PARK, CHARLESLAND, GREYSTONES",Wicklow,A63Y961,0,0,325.1,200k-400k,2021-09-16,2021,9,3,325100,0.0,53.1255174,-6.0688101,25.267894226867337,
06/10/2021,"9 CARMICHAEL HALL, ST COLUMBANUS RD, DUNDRUM DUBLIN 14",Dublin,D14Y298,0,0,350.0,200k-400k,2021-10-06,2021,10,4,350000,0.0,53.33306,-6.24889,2.0096305578111666,
26/03/2021,"188A SUNDRIVE RD, CRUMLIN, DUBLIN 12",Dublin,,0,0,395.0,200k-400k,2021-03-26,2021,3,1,395000,0.0,53.3265404,-6.2972853,3.5663832101097945,
07/05/2021,"8 ASHDOWN, CIRCULAR RD, GALWAY",Galway,H91PY8E,0,0,450.0,400k-600k,2021-05-07,2021,5,2,450000,0.0,53.27194,-9.04889,0.5437668292500759,
06/10/2021,"ARDEE RD, CARRICKMACROSS, MONAGHAN",Monaghan,,0,0,245.1,200k-400k,2021-10-06,2021,10,4,245100,0.0,53.9679132,-6.7156064,35.35019238951583,
23/06/2021,"APT 65 WESTPOINT, ALTAMONT ST, WESTPORT",Mayo,,0,0,174.0,<200k,2021-06-23,2021,6,2,174000,0.0,53.8,-9.51667,15.59991697438606,
26/04/2021,"7 CASTLEGROUNDS, COROFIN, GALWAY",Galway,H54YN72,0,0,270.0,200k-400k,2021-04-26,2021,4,2,270000,0.0,53.43333,-8.85,22.70268631583561,
29/03/2021,"75 MOYLARAGH DR, BALBRIGGAN, DUBLIN",Dublin,,0,0,165.0,<200k,2021-03-29,2021,3,1,165000,0.0,53.6112678,-6.2017402,29.33098507119837,
15/12/2021,"MOOR, ARDAGH, CO LONGFORD",Longford,N39XF65,0,1,225.0,200k-400k,2021-12-15,2021,12,4,225000,1.0,53.6679082,-7.703702,8.858165310516044,
19/01/2021,"38 BINN BHAN CAPPAGH RD, GALWAY",Galway,,0,0,290.5,200k-400k,2021-01-19,2021,1,1,290500,0.0,53.27194,-9.04889,0.5437668292500759,
09/03/2021,"3 THE AVENUE, GARRANE DARRA, WILTON",Cork,,0,0,207.0,200k-400k,2021-03-09,2021,3,1,207000,0.0,51.89797,-8.47061,0.3474186045968561,
10/03/2021,"3 DRUIDS COURT, ARDRAHAN, GALWAY",Galway,,0,0,265.0,200k-400k,2021-03-10,2021,3,1,265000,0.0,53.1575,-8.80583,20.92134858002124,
13/12/2021,"4 STEEPLE MEADOW WAY, MILLTOWN, KERRY",Kerry,V93T2C7,0,0,240.0,200k-400k,2021-12-13,2021,12,4,240000,0.0,52.1422732,-9.7137111,10.10894773661032,
24/06/2021,"33A THE BOTTLEWORKS, RINGSEND, DUBLIN 4",Dublin,,0,0,390.0,200k-400k,2021-06-24,2021,6,2,390000,0.0,53.33306,-6.24889,2.0096305578111666,
22/10/2021,"THE BURROW, 1 BALLYCAR RD, NEWMARKET ON FERGUS",Clare,V95FE80,0,0,318.0,200k-400k,2021-10-22,2021,10,4,318000,0.0,52.76,-8.89556,21.034598290062288,
30/07/2021,"38 SOUTH DOCK ST, DUBLIN 4, DUBLIN",Dublin,D04XE04,0,0,460.0,400k-600k,2021-07-30,2021,7,3,460000,0.0,53.3410175,-6.2345026,1.9713711245259309,
30/07/2021,"TOGHER, DAINGEAN, CO OFFALY",Offaly,,0,0,150.0,<200k,2021-07-30,2021,7,3,150000,0.0,53.29611,-7.28944,32.595651968785674,
04/10/2021,"16 COIS LI, BALLYVELLY, TRALEE",Kerry,V92X8FP,0,0,220.0,200k-400k,2021-10-04,2021,10,4,220000,0.0,52.27042,-9.70264,15.864334312360056,
08/10/2021,"FEDDAN HOUSE, KILTEGAN, WICKLOW",Wicklow,,0,0,745.0,600k-800k,2021-10-08,2021,10,4,745000,0.0,52.90111,-6.60722,18.642186199883568,
21/06/2021,"9 The Court, Barnhall Meadows, Leixlip",Kildare,,1,1,267.78,200k-400k,2021-06-21,2021,6,2,267781,1.0,53.3620678,-6.5103149,34.85312962375887,
05/03/2021,"66 PARKLANDS, YOUGHAL, CORK",Cork,,0,0,210.0,200k-400k,2021-03-05,2021,3,1,210000,0.0,51.9532281,-7.8570222,42.85114117741105,
07/05/2021,"53 Strand View, Howth Road",Dublin,,0,1,743.88,600k-800k,2021-05-07,2021,5,2,743880,1.0,53.33306,-6.24889,2.0096305578111666,
10/09/2021,"4B KERMON HOUSE, NORTH QUAY, LOUTH",Louth,,0,0,105.0,<200k,2021-09-10,2021,9,3,105000,0.0,53.94861,-6.54139,10.620121053783487,
16/02/2021,"EASTCOTE, GLASSONS AVE, COBH",Cork,,0,0,300.0,200k-400k,2021-02-16,2021,2,1,300000,0.0,51.85722,-8.29917,12.951704995467544,
09/02/2021,"BUMBLE COTTAGE, BRACKWANSHA, KNOCKMORE",Mayo,,0,0,110.0,<200k,2021-02-09,2021,2,1,110000,0.0,54.01889,-9.17528,19.915643421306065,
13/10/2021,"334 CHARLEMONT, GRIFFITH AVE, DUBLIN",Dublin,D09R6V3,0,0,602.0,600k-800k,2021-10-13,2021,10,4,602000,0.0,53.33306,-6.24889,2.0096305578111666,
12/11/2021,"64 HOLLYSTOWN PARK, HOLLYSTOWN, DUBLIN 15",Dublin,D15T2W4,0,0,510.0,400k-600k,2021-11-12,2021,11,4,510000,0.0,53.4335954,-6.3881846,12.598774802462884,
02/03/2021,"3 MARINE VILLAS, HOWTH RD, HOWTH",Dublin,,0,0,275.0,200k-400k,2021-03-02,2021,3,1,275000,0.0,53.33306,-6.24889,2.0096305578111666,
21/12/2021,"33 FRIARS HILL, WICKLOW TOWN, WICKLOW",Wicklow,A67C597,0,0,510.0,400k-600k,2021-12-21,2021,12,4,510000,0.0,52.975,-6.04944,21.330118661805336,
20/05/2021,"11 WEST ST, TALLOW, CO WATERFORD",Waterford,,0,0,110.0,<200k,2021-05-20,2021,5,2,110000,0.0,52.0927419,-8.0161823,64.5003746019383,
31/03/2021,"445 MILLTOWN, CONVOY, LIFFORD",Donegal,,0,0,88.0,<200k,2021-03-31,2021,3,1,88000,0.0,54.83194,-7.48361,44.81054397985614,
12/03/2021,"24 CARTONCOURT, MAYNOOTH, KILDARE",Kildare,,0,0,295.0,200k-400k,2021-03-12,2021,3,1,295000,0.0,53.385,-6.59361,32.744287990411955,
30/09/2021,"APARTMENT 1, KERRY OCEAN SUITES, BALLYBUNION",Kerry,V31W665,0,0,110.0,<200k,2021-09-30,2021,9,3,110000,0.0,52.51108,-9.67097,40.27551395479848,
26/11/2021,"97 SPRINGFIELD, DUNGARVAN, WATERFORD",Waterford,X35P957,0,0,170.0,<200k,2021-11-26,2021,11,4,170000,0.0,52.0858063,-7.6345423,40.635141235810885,
20/12/2021,"5 CHERBURY GARDENS, BOOTERSTOWN, DUBLIN",Dublin,A94F6N7,0,0,955.0,800k-1M,2021-12-20,2021,12,4,955000,0.0,53.33306,-6.24889,2.0096305578111666,
02/06/2021,"AVENUE PARK, AVENUE ROAD, DUNDALK",Louth,A91V2W2,0,0,312.5,200k-400k,2021-06-02,2021,6,2,312500,0.0,54.0,-6.41667,0.96782088498138,
06/10/2021,"14 MAPLEWOOD WAY, DUBLIN 24, DUBLIN",Dublin,D24V4F3,0,0,270.0,200k-400k,2021-10-06,2021,10,4,270000,0.0,53.2863459,-6.383888,10.82481148906241,
24/05/2021,"BUNLAHINCH, FEENONE, MAYO",Mayo,,0,0,225.0,200k-400k,2021-05-24,2021,5,2,225000,0.0,53.75977,-9.11719,15.908362513197387,
13/10/2021,"59 SLIEVENAMON RD, DRIMNAGH, DUBLIN 12",Dublin,D12XK64,0,0,350.0,200k-400k,2021-10-13,2021,10,4,350000,0.0,53.33306,-6.24889,2.0096305578111666,
23/04/2021,"55 BARLEYHOUSE, CORK ST, DUBLIN 8",Dublin,D08T652,0,0,318.5,200k-400k,2021-04-23,2021,4,2,318500,0.0,53.33306,-6.24889,2.0096305578111666,
11/06/2021,"192 CHARLESLAND COURT, GREYSTONES, WICKLOW",Wicklow,A63X594,0,0,342.5,200k-400k,2021-06-11,2021,6,2,342500,0.0,53.1289264,-6.0707042,25.402472272171327,
05/05/2021,"2 Lake Street, Belltree, Clongriffin",Dublin,,0,1,384.96,200k-400k,2021-05-05,2021,5,2,384956,1.0,53.33306,-6.24889,2.0096305578111666,
31/03/2021,"71 SHREWSBURY SQ, SANDYMOUNT AVE, DUBLIN",Dublin,,0,0,780.0,600k-800k,2021-03-31,2021,3,1,780000,0.0,53.33306,-6.24889,2.0096305578111666,
15/02/2021,"5 WOODBURY, BARNA, COUNTY GALWAY",Galway,,0,0,395.0,200k-400k,2021-02-15,2021,2,1,395000,0.0,53.25194,-9.14972,6.522937865062839,
11/08/2021,"40 MONKSFIELD, ABBEYSIDE, DUNGARVAN",Waterford,X35NX60,0,0,410.0,400k-600k,2021-08-11,2021,8,3,410000,0.0,52.0952217,-7.6055733,38.396288421531466,
10/05/2021,"CARRABANE, PETERSWELL, CO GALWAY",Galway,,0,0,100.0,<200k,2021-05-10,2021,5,2,100000,0.0,53.115,-8.74139,27.226136905887024,
13/09/2021,"21 GARRINGREEN, KILKENNY, KILKENNY",Kilkenny,R95Y2DH,0,0,315.0,200k-400k,2021-09-13,2021,9,3,315000,0.0,52.6631217,-7.2285574,1.4854247584396838,
22/10/2021,"12 The Green, An Glasan, Greenville Lane",Wexford,,0,1,206.17,200k-400k,2021-10-22,2021,10,4,206167,1.0,52.5,-6.66667,22.784327206944493,
18/06/2021,"2 ARAVON COURT, MEATH RD, BRAY",Wicklow,A98VX90,0,0,500.0,400k-600k,2021-06-18,2021,6,2,500000,0.0,53.20278,-6.09833,30.04996442143383,
18/02/2021,"10 CHERRYFIELD PARK, CLONSILLA DUBLIN 15, DUBLIN",Dublin,,0,0,275.0,200k-400k,2021-02-18,2021,2,1,275000,0.0,53.33306,-6.24889,2.0096305578111666,
23/03/2021,"GWEEBARA, 26 CLIFF RD, TRAMORE",Waterford,,0,0,475.0,400k-600k,2021-03-23,2021,3,1,475000,0.0,52.16235,-7.15244,11.159673262378943,
30/06/2021,"7 COIS UISCE, CAHEERCIVEEN, KERRY",Kerry,V23ED74,0,0,168.0,<200k,2021-06-30,2021,6,2,168000,0.0,52.16667,-9.75,12.562816983458044,
12/11/2021,"24 EARLSFORT CLOSE, EARLSFORT, LUCAN",Dublin,K78DD83,1,0,290.0,200k-400k,2021-11-12,2021,11,4,290000,0.0,53.3458583,-6.4157998,10.33113333517914,
31/03/2021,"54 INISCEALTRA, BALLINA, TIPPERARY",Tipperary,V94VKP0,0,0,390.0,200k-400k,2021-03-31,2021,3,1,390000,0.0,52.8139138,-8.4445045,42.54348704247584,
16/09/2021,"92 CANTERBROOK, TRIM RD, NAVAN",Meath,C15K2EA,0,0,239.0,200k-400k,2021-09-16,2021,9,3,239000,0.0,53.65278,-6.68139,5.509492786401523,
23/09/2021,"BRACKARAGH, CAHERDANIEL, COUNTY KERRY",Kerry,,0,0,238.0,200k-400k,2021-09-23,2021,9,3,238000,0.0,51.76667,-10.1,56.51505078232248,
01/02/2021,"101 LACKANASH NAVAN RD, TRIM, MEATH",Meath,,0,0,255.0,200k-400k,2021-02-01,2021,2,1,255000,0.0,53.555,-6.79167,10.548776625784198,
05/03/2021,"26 THOMOND COURT, THOMOND HALL, BALLYMAHON",Longford,,0,0,130.0,<200k,2021-03-05,2021,3,1,130000,0.0,,,,
08/12/2021,"84 Ardmore Hills, Mullingar",Westmeath,,0,1,387.66,200k-400k,2021-12-08,2021,12,4,387665,1.0,53.5190136,-7.310489,2.040803012012597,
02/02/2021,"119 THE RICHMOND, NORTH BRUNSWICK ST, DUBLIN 7",Dublin,,0,0,275.0,200k-400k,2021-02-02,2021,2,1,275000,0.0,53.33306,-6.24889,2.0096305578111666,
14/09/2021,"LORETTO, LEE RD, CORK",Cork,,0,0,313.0,200k-400k,2021-09-14,2021,9,3,313000,0.0,51.89797,-8.47061,0.3474186045968561,
31/05/2021,"WHITERATH, DROMISKIN, DUNDALK",Louth,A91R2X6,0,0,168.0,<200k,2021-05-31,2021,5,2,168000,0.0,53.9263036,-6.4168385,8.017765887740797,
06/07/2021,"25 LANSDOWNE VALLEY PARK, BLACKHORSE, DRIMNAGH DUBLIN 12",Dublin,D12WN51,0,0,390.0,200k-400k,2021-07-06,2021,7,3,390000,0.0,53.33306,-6.24889,2.0096305578111666,
25/08/2021,"20 The Avenue, Green Lane Manor, Rathcoole",Dublin,,0,1,458.15,400k-600k,2021-08-25,2021,8,3,458149,1.0,53.33306,-6.24889,2.0096305578111666,
17/09/2021,"39 ROS ARD, UPPER GLANMIRE, CORK",Cork,T23HV56,0,0,265.0,200k-400k,2021-09-17,2021,9,3,265000,0.0,51.95028,-8.42833,6.60742575978195,
27/01/2021,"8 LOWER NEW STREET, SLIGO, CO SLIGO",Sligo,,0,0,109.0,<200k,2021-01-27,2021,1,1,109000,0.0,54.2735689,-8.4758545,0.3374196316828173,
07/10/2021,"9  ESTUARY  VIEW, CROSSTOWN, WEXFORD TOWN",Wexford,Y35N5YA,0,0,330.0,200k-400k,2021-10-07,2021,10,4,330000,0.0,52.5,-6.66667,22.784327206944493,
01/03/2021,"DRUMAMBRY, KILLESHANDRA, CAVAN",Cavan,,0,0,125.0,<200k,2021-03-01,2021,3,1,125000,0.0,54.01667,-7.53333,11.709475396085075,
09/03/2021,"2 ST IGNATIUS TERRACE, FAIRHILL, GALWAY",Galway,,0,0,240.0,200k-400k,2021-03-09,2021,3,1,240000,0.0,53.2651172,-9.0584502,0.6304047302064842,
17/08/2021,"No. 10 Bellfield Park, Dublin Road, Dundalk",Louth,,0,1,286.34,200k-400k,2021-08-17,2021,8,3,286344,1.0,54.0,-6.41667,0.96782088498138,
20/12/2021,"46 RAILWAY VIEW, ROSCREA, TIPPERARY",Tipperary,E53VP70,0,0,109.0,<200k,2021-12-20,2021,12,4,109000,0.0,52.47333,-8.15583,0.0529981793748362,
30/07/2021,"GORTMUNGA, COOLBAWN, NENAGH",Tipperary,,0,0,258.0,200k-400k,2021-07-30,2021,7,3,258000,0.0,52.47333,-8.15583,0.0529981793748362,
20/12/2021,"11 ROSECOURT, CABRA RD, DUBLIN",Dublin,D07W594,0,0,215.0,200k-400k,2021-12-20,2021,12,4,215000,0.0,53.33306,-6.24889,2.0096305578111666,
18/08/2021,"71 ROEBUCK CASTLE, ROEBUCK RD, CLONSKEAGH DUBLIN 14",Dublin,D14E7F6,0,0,539.0,400k-600k,2021-08-18,2021,8,3,539000,0.0,53.33306,-6.24889,2.0096305578111666,
23/03/2021,"BOOLYPATRICK, BLARNEY, CO CORK",Cork,,0,0,270.0,200k-400k,2021-03-23,2021,3,1,270000,0.0,51.9315717,-8.5902876,8.68336398292488,
02/03/2021,"21 WELLINGTON COURT, BRAY, WICKLOW",Wicklow,,0,0,477.0,400k-600k,2021-03-02,2021,3,1,477000,0.0,53.20278,-6.09833,30.04996442143383,
27/08/2021,"CARRIGBEG, BALLINAHINCH, ASHFORD",Wicklow,A67T654,0,0,525.0,400k-600k,2021-08-27,2021,8,3,525000,0.0,53.00833,-6.11139,17.315387784096483,
09/04/2021,"6 ST PATRICKS TERRACE, DUN LAOGHAIRE, DUBLIN",Dublin,A96ED32,0,0,366.0,200k-400k,2021-04-09,2021,4,2,366000,0.0,53.33306,-6.24889,2.0096305578111666,
21/10/2021,"MILL ROAD, DUNGLOE, DONEGAL",Donegal,F94E48X,0,0,220.0,200k-400k,2021-10-21,2021,10,4,220000,0.0,54.9515885,-8.367114,36.96647874223235,
28/10/2021,"11 WOLVERTON GLEN, CASTLEPARK ROAD, DALKEY",Dublin,A96C9Y4,0,0,630.0,600k-800k,2021-10-28,2021,10,4,630000,0.0,53.33306,-6.24889,2.0096305578111666,
18/05/2021,"6 LAKE STREET, BELLTREE, CLONGRIFFIN",Dublin,,0,1,370.04,200k-400k,2021-05-18,2021,5,2,370044,1.0,53.33306,-6.24889,2.0096305578111666,
11/08/2021,"103 RUSHEEN ARD, CALTRAGH, SLIGO",Sligo,F91FAA9,0,0,175.0,<200k,2021-08-11,2021,8,3,175000,0.0,54.26969,-8.46943,0.8820024879802578,
29/01/2021,"BASSETDOWN, RINEEN, SKIBBEREEN",Cork,,0,0,237.5,200k-400k,2021-01-29,2021,1,1,237500,0.0,51.55,-9.26667,66.86235882009935,
30/03/2021,"4 KENT TERRACE, CASTLELYONS, CORK",Cork,P61ND00,0,0,95.0,<200k,2021-03-30,2021,3,1,95000,0.0,52.0807654,-8.2239952,26.600165805760792,
20/09/2021,"16 CEANN MARA COURT, PAIRC NA GLOINE, KENMARE",Kerry,V93V838,0,0,208.0,200k-400k,2021-09-20,2021,9,3,208000,0.0,51.88333,-9.58333,30.173681421844105,
21/09/2021,"ASHLEIGH COURT, COLLEGE RD, KILKENNY",Kilkenny,,0,0,620.0,600k-800k,2021-09-21,2021,9,3,620000,0.0,52.65417,-7.25222,0.5005663805450715,
22/10/2021,"MERSHEEN LODGE, DUNCANNON, WEXFORD",Wexford,Y34EK80,0,0,285.0,200k-400k,2021-10-22,2021,10,4,285000,0.0,52.22028,-6.91694,33.47544972842996,
09/12/2021,"2 CUL NA GREINE, NEWTOWN, BANTRY",Cork,P75XV00,0,0,215.0,200k-400k,2021-12-09,2021,12,4,215000,0.0,51.68333,-9.45,71.15917336126813,
20/01/2021,"POULAKERRY, BRUACH NA HABHAINN, KILSHEELAN",Tipperary,,0,0,385.0,200k-400k,2021-01-20,2021,1,1,385000,0.0,52.47333,-8.15583,0.0529981793748362,
16/04/2021,"KNOWTH LODGE, KNOWTH, SLANE",Meath,,0,0,362.0,200k-400k,2021-04-16,2021,4,2,362000,0.0,53.71,-6.54333,13.80343360122137,
17/05/2021,"ROCKFIELD, 16 KILMORE ROAD, ARTANE",Dublin,D05X8C9,0,0,365.0,200k-400k,2021-05-17,2021,5,2,365000,0.0,53.3826482,-6.2074535,5.063167306014257,
09/02/2021,"15 THE GOLF SUITES, COLDWATER LAKES, SAGGART",Dublin,,0,0,155.0,<200k,2021-02-09,2021,2,1,155000,0.0,53.33306,-6.24889,2.0096305578111666,
