Date of Sale (dd/mm/yyyy),Address,County,Eircode,Price (€),Not Full Market Price,VAT Exclusive,Description of Property,Property Size Description,lat,lng
13/12/2024,"2 MANOR COURT, RIVERSTOWN, GLANMIRE",Cork,T45YA26,"€231,000.00",No,No,Second-Hand Dwelling house /Apartment,,51.91583,-8.39972
19/06/2024,"5 FOXBOROUGH PARK, LUCAN, DUBLIN",Dublin,K78C953,"€443,000.00",No,No,Second-Hand Dwelling house /Apartment,,53.3403885,-6.4256104
29/02/2024,"13 FOSTERSTOWN PLACE, FOSTERSTOWN NORTH, SWORDS",Dublin,K67H6Y6,"€428,175.00",No,Yes,New Dwelling house /Apartment,,53.33306,-6.24889
16/07/2024,"PERCIVAL STREET, KANTURK, CO. CORK",Cork,P51YE22,"€100,000.00",No,No,Second-Hand Dwelling house /Apartment,,52.1766196,-8.9095495
14/05/2024,"21 FOTTRELL HOUSE, DRYNAM VIEW, KINSEALY",Dublin,K67EY43,"€311,500.00",No,No,Second-Hand Dwelling house /Apartment,,53.33306,-6.24889
17/06/2024,"BARNAGEERA, SKERRIES, DUBLIN",Dublin,K34T297,"€850,000.00",No,No,Second-Hand Dwelling house /Apartment,,53.33306,-6.24889
12/08/2024,"2 ALBERT RD LOWER, SANDYCOVE, GLEANGEARY",Dublin,A96K2H7,"€1,450,000.00",No,No,Second-Hand Dwelling house /Apartment,,53.33306,-6.24889
23/07/2024,"CORLEA, LISDOONAN, CARRICKMACROSS",Monaghan,,"€75,000.00",No,No,Second-Hand Dwelling house /Apartment,,53.97278,-6.71889
19/03/2024,"61 DURSEY ROW, WATERVILLE, BLANCHARDSTOWN DUBLIN 15",Dublin,D15YV56,"€317,000.00",No,No,Second-Hand Dwelling house /Apartment,,53.3943214,-6.3703714
23/09/2024,"3 ELM PARK HOUSE, GRANGE WOOD, RATHFARNHAM DUBLIN 16",Dublin,D16FH39,"€315,000.00",No,No,Second-Hand Dwelling house /Apartment,,53.33306,-6.24889
29/05/2024,"5 ORMONDE COURT, CLONMEL, TIPPERARY",Tipperary,E91YT32,"€200,000.00",No,No,Second-Hand Dwelling house /Apartment,,52.3601616,-7.6999677
16/04/2024,"APT 4, NICHOLAS COURT, NICHOLAS ST",Louth,A91PX49,"€149,000.00",No,No,Second-Hand Dwelling house /Apartment,,53.94861,-6.54139
25/10/2024,"27 MALAHIDE RD, CLONTARF, DUBLIN 3",Dublin,D03EE09,"€640,000.00",No,No,Second-Hand Dwelling house /Apartment,,53.3663758,-6.2288603
22/04/2024,"37 CNOC NA GREINE VIEW, KILCULLEN, KILDARE",Kildare,R56EC53,"€320,000.00",No,No,Second-Hand Dwelling house /Apartment,,53.13028,-6.74444
01/02/2024,"LOUGH GILL LODGE, STRADBROOK, CORNAGEEH",Sligo,F91NV02,"€380,000.00",Yes,No,Second-Hand Dwelling house /Apartment,,54.26969,-8.46943
01/11/2024,"Apartment 28 Danehill, Phoenix Park Avenue, Phoenix Park Racecourse",Dublin,,"€427,312.77",No,Yes,New Dwelling house /Apartment,,53.33306,-6.24889
14/10/2024,"2 BROOKFIELD CLOSE, RIVERSTOWN, COUNTY SLIGO",Sligo,F52VK74,"€265,000.00",No,No,Second-Hand Dwelling house /Apartment,,54.1300777,-8.3946754
18/10/2024,"CHURCH COTTAGE, KINSALE, CO CORK",Cork,P17K242,"€398,000.00",No,No,Second-Hand Dwelling house /Apartment,,51.7075,-8.53056
26/07/2024,"CAPPENRAHEN, CRAUGHWELL, GALWAY",Galway,H91YXF3,"€407,000.00",No,No,Second-Hand Dwelling house /Apartment,,53.22611,-8.73306
13/09/2024,"APT 203, HARBOUR COURT, SLIGO",Sligo,F91K336,"€168,000.00",No,No,Second-Hand Dwelling house /Apartment,,54.26969,-8.46943
23/01/2024,"16 NEPHIN HALL, HOPKINS RD, CASTLEBAR",Mayo,F23X293,"€115,000.00",No,No,Second-Hand Dwelling house /Apartment,,53.85,-9.3
06/02/2024,"APARTMENT 7/8 MAIN STREET, TIPPERARY, CO TIPPERAR",Tipperary,E34T257,"€220,000.00",No,No,Second-Hand Dwelling house /Apartment,,52.47333,-8.15583
12/12/2024,"8 BLACKFORT MANOR, NEWPORT RD, CASTLEBAR",Mayo,F23WR90,"€420,000.00",No,No,Second-Hand Dwelling house /Apartment,,53.85,-9.3
02/10/2024,"WILD HAVEN, OLDCOURT, ADAMSTOWN",Wexford,,"€485,000.00",No,No,Second-Hand Dwelling house /Apartment,,52.39417,-6.71694
24/04/2024,"93 AN GLEANN RUA, KILLYLASTIN, LETTERKENNY",Donegal,F92FN7V,"€170,000.00",No,No,Second-Hand Dwelling house /Apartment,,54.95,-7.73333
31/10/2024,"12 ST PATRICK'S PARK, CARRICK ON SHANNON, CO LEITRIM",Leitrim,N41Y447,"€80,000.00",No,No,Second-Hand Dwelling house /Apartment,,53.94694,-8.09
02/10/2024,"WHITESTOWN, GREENORE, LOUTH",Louth,A91VC44,"€360,000.00",No,No,Second-Hand Dwelling house /Apartment,,53.9957137,-6.1234332
20/11/2024,"13 PARSON COURT, MAYNOOTH, KILDARE",Kildare,W23K757,"€310,000.00",No,No,Second-Hand Dwelling house /Apartment,,53.3771675,-6.5948632
20/12/2024,"1 RIVERCHAPEL DOWNS, RIVERCHAPEL WOOD, BALLINTRAY UPPER",Wexford,Y25Y791,"€360,000.00",No,No,Second-Hand Dwelling house /Apartment,,52.5,-6.66667
15/11/2024,"99 CARDINAL COURT, WILTON, CORK",Cork,T12RK7C,"€401,000.00",No,No,Second-Hand Dwelling house /Apartment,,51.8779065,-8.5110789
18/07/2024,"21 NEWLANDS MANOR DRIVE, CLONDALKIN, DUBLIN 22",Dublin,D22TY48,"€281,000.00",No,No,Second-Hand Dwelling house /Apartment,,53.3079675,-6.4071867
26/03/2024,"21 SEASON PARK, NEWTOWNMOUNTKENNEDY, WICKLOW",Wicklow,A63W573,"€337,500.00",No,No,Second-Hand Dwelling house /Apartment,,53.0949547,-6.1139961
16/05/2024,"ALTMORE HOUSE, CLONES, MONAGHAN",Monaghan,H23X958,"€230,000.00",No,No,Second-Hand Dwelling house /Apartment,,54.18333,-7.23333
16/04/2024,"154 CARASH COURT, NAAS, KILDARE",Kildare,W91E3ED,"€305,000.00",No,No,Second-Hand Dwelling house /Apartment,,53.21583,-6.66694
24/06/2024,"7 PINE VALLEY AVE, RATHFARNHAM, DUBLIN 16",Dublin,D16VY15,"€825,000.00",No,No,Second-Hand Dwelling house /Apartment,,53.33306,-6.24889
06/12/2024,"MAIN ROAD, CAHERSLEE, TRALEE",Kerry,V92F59T,"€417,000.00",No,No,Second-Hand Dwelling house /Apartment,,52.27042,-9.70264
20/09/2024,"ST MARTINS, ABBEY ST, BALLINA",Mayo,F26X9H0,"€147,000.00",No,No,Second-Hand Dwelling house /Apartment,,54.11667,-9.16667
24/05/2024,"24 BANTRY ROAD, DRUMCONDRA, DUBLIN 9",Dublin,D09E640,"€1,000,000.00",No,No,Second-Hand Dwelling house /Apartment,,53.376643,-6.2589009
05/07/2024,"82 DOMINICS PLACE, WATERFORD CITY, WATERFORD",Waterford,X91NR04,"€290,000.00",No,No,Second-Hand Dwelling house /Apartment,,52.25833,-7.11194
20/12/2024,"18 Pairc Na Blathanna, Hayestown, Rush",Dublin,,"€321,585.00",No,Yes,New Dwelling house /Apartment,,53.33306,-6.24889
31/01/2024,"61 KNOCKFREE AVE, FAIRHILL, CORK",Cork,T23TYE1,"€225,000.00",No,No,Second-Hand Dwelling house /Apartment,,51.89797,-8.47061
01/07/2024,"Apt 201  106 Goatstown Road, Goatstown, Dublin 14",Dublin,,"€594,713.66",No,Yes,New Dwelling house /Apartment,,53.33306,-6.24889
30/04/2024,"CLOUGHMACSIMON, ARDAN NA NOGLACH, BANDON",Cork,P72PX98,"€180,000.00",No,No,Second-Hand Dwelling house /Apartment,,51.74694,-8.7425
27/08/2024,"6 LARCHFIELD, DUNDRUM, DUBLIN 14",Dublin,D14PR90,"€200,000.00",Yes,No,Second-Hand Dwelling house /Apartment,,53.2988095,-6.2351176
26/01/2024,"82 LADYS CROSS, THE MILES, CLONAKILTY",Cork,P85ED99,"€485,000.00",No,No,Second-Hand Dwelling house /Apartment,,51.62306,-8.87056
17/12/2024,"ROCKHILL, PORTNABLAGH, CO DONEGAL",Donegal,F92D2X9,"€495,000.00",No,No,Second-Hand Dwelling house /Apartment,,55.17806,-7.92944
25/04/2024,"24 Old Waterford Road, Strandhill, Tramore",Waterford,,"€340,000.00",No,Yes,New Dwelling house /Apartment,,52.16235,-7.15244
19/02/2024,"BUKIT TIMAH, CHRISTIANSTOWN, NEWBRIDGE",Kildare,W12RP23,"€366,000.00",No,No,Second-Hand Dwelling house /Apartment,,53.18194,-6.79667
20/09/2024,"105 ASHFIELD AVENUE, RIDGEWOOD, SWORDS",Dublin,K67E0C3,"€535,000.00",No,No,Second-Hand Dwelling house /Apartment,,53.33306,-6.24889
30/10/2024,"74 ADAMSTOWN AVE, ADAMSTOWN, LUCAN",Dublin,K78WW55,"€293,423.00",No,No,Second-Hand Dwelling house /Apartment,,53.3376245,-6.4621044
29/08/2024,"31 Westwood, Golf Links Road, Ennis",Clare,,"€355,000.00",No,Yes,New Dwelling house /Apartment,,52.84361,-8.98639
05/07/2024,"18 CARECHOICE, CLOGHEEN, CLONAKILTY",Cork,,"€190,000.00",No,No,Second-Hand Dwelling house /Apartment,,51.62306,-8.87056
08/11/2024,"43 Ballynafagh Springs, Coolearagh, Coill Dubh",Kildare,,"€321,585.90",No,Yes,New Dwelling house /Apartment,,53.29308,-6.81843
23/09/2024,"56 THOMOND HALL, BALLYMAHON, LONGFORD",Longford,,"€157,500.00",Yes,No,Second-Hand Dwelling house /Apartment,,53.5579975,-7.7725221
09/12/2024,"1 AIRPARK COURT STOCKING LANE, RATHFARNHAM, DUBLIN",Dublin,D16P020,"€650,000.00",No,No,Second-Hand Dwelling house /Apartment,,53.33306,-6.24889
04/12/2024,"179 Millquarter, Knockmullen, Gorey",Wexford,,"€242,290.74",No,Yes,New Dwelling house /Apartment,,52.67472,-6.2925
25/10/2024,"28 BULLOCK PARK, GREEN RD, CARLOW TOWN",Carlow,R93X6F4,"€336,000.00",No,No,Second-Hand Dwelling house /Apartment,,52.84083,-6.92611
15/02/2024,"66 THE MILL, CROSS GUNS QUAY, PHIBSBOROUGH",Dublin,D07VC76,"€262,000.00",No,No,Second-Hand Dwelling house /Apartment,,53.33306,-6.24889
05/04/2024,"6 SLANEY MEADOWS, RATHVILLY, CARLOW",Carlow,R93RW74,"€257,000.00",No,No,Second-Hand Dwelling house /Apartment,,52.87889,-6.69333
29/01/2024,"1 Sorrel Avenue, Sorrel Wood, Blessington",Wicklow,,"€431,718.05",No,Yes,New Dwelling house /Apartment,,53.17,-6.5325
25/03/2024,"14 ARDCULLEN, DRUMMULLAGH, OMEATH",Louth,A91PA9T,"€315,000.00",No,No,Second-Hand Dwelling house /Apartment,,54.09011,-6.25937
11/01/2024,"48 BAILIS MANOR, ATHLUMNEY, NAVAN",Meath,C15N7E8,"€405,000.00",No,No,Second-Hand Dwelling house /Apartment,,53.65278,-6.68139
05/06/2024,"APT.5  ST. LAWRENCE BUILDING, FINDLATER, HOWTH",Dublin,D13KR83,"€470,000.00",No,No,Second-Hand Dwelling house /Apartment,,53.33306,-6.24889
10/10/2024,"33 CHAMPIONS AVE, WATERFORD ST, DUBLIN 1",Dublin,D01P578,"€555,000.00",No,No,Second-Hand Dwelling house /Apartment,,53.33306,-6.24889
01/03/2024,"8 APPLEWOOD LAWN, SWORDS, DUBLIN",Dublin,K67EV67,"€307,000.00",No,No,Second-Hand Dwelling house /Apartment,,53.4713251,-6.2337594
07/06/2024,"20 FRANCIS ST, WATERFORD, WATERFORD",Waterford,X91P52N,"€155,000.00",No,No,Second-Hand Dwelling house /Apartment,,52.2611195,-7.1175735
24/05/2024,"Clachan, Green Road, Carlow",Carlow,R93NW42,"€417,500.00",No,No,Second-Hand Dwelling house /Apartment,,52.84083,-6.92611
06/12/2024,"10 Carraig Nua, Ennis Road, Tulla",Clare,,"€262,555.00",No,Yes,New Dwelling house /Apartment,,52.86472,-8.76056
29/10/2024,"MISKAWN, AUGHNASHEELIN, LEITRIM",Leitrim,,"€200,000.00",No,No,Second-Hand Dwelling house /Apartment,,53.99083,-8.06361
11/11/2024,"15 RAILWAY ROAD, GOREY, CO WEXFORD",Wexford,Y25H103,"€260,000.00",No,No,Second-Hand Dwelling house /Apartment,,52.6720003,-6.2920112
24/10/2024,"19 ROYSTON, KIMMAGE RD WEST, DUBLIN 12",Dublin,D12EW44,"€487,000.00",No,No,Second-Hand Dwelling house /Apartment,,53.33306,-6.24889
08/11/2024,"3 PRESENTATION PLACE, GREENMOUNT, CORK",Cork,T12F7P4,"€135,000.00",Yes,No,Second-Hand Dwelling house /Apartment,,51.891754,-8.4767042
10/05/2024,"23 BELGARD GROVE, PATRICKSWELL, LIMERICK",Limerick,V94H1X0,"€280,000.00",No,No,Second-Hand Dwelling house /Apartment,,52.59722,-8.70889
13/09/2024,"55 BRIAN RD, MARINO, DUBLIN 3",Dublin,D03V383,"€710,000.00",No,No,Second-Hand Dwelling house /Apartment,,53.3678144,-6.2285192
14/05/2024,"HOUSE AT, STRAND ST, KANTURK",Cork,P51E6P3,"€120,000.00",No,No,Second-Hand Dwelling house /Apartment,,52.16667,-8.9
09/08/2024,"48 BARRY PARK, FINGLAS, DUBLIN 11",Dublin,D11Y6Y6,"€311,000.00",No,No,Second-Hand Dwelling house /Apartment,,53.3946391,-6.3128999
17/07/2024,"40 Amharc Abhann, Knockhill, Ennis Road",Limerick,,"€458,149.71",No,Yes,New Dwelling house /Apartment,,52.66472,-8.62306
09/10/2024,"32 CASEMENT PARK, FINGLAS WEST, DUBLIN 11",Dublin,D11W1W9,"€255,000.00",No,No,Second-Hand Dwelling house /Apartment,,53.3922104,-6.3088619
12/11/2024,"19 The Avenue, Cluain Adain, Clonmagadden",Meath,,"€343,612.00",No,Yes,New Dwelling house /Apartment,,53.66667,-6.66667
01/10/2024,"FAHADUFF, CASTLEISLAND, CO KERRY",Kerry,V92X9N2,"€100,000.00",Yes,No,Second-Hand Dwelling house /Apartment,,52.23333,-9.46667
10/06/2024,"107 ALTMORE HOUSE, TARA ST, TULLAMORE",Offaly,R35X046,"€145,000.00",No,No,Second-Hand Dwelling house /Apartment,,53.27389,-7.48889
15/11/2024,"APT 1 COLLEGE HOUSE, COLLEGE HEIGHTS, DUNDALK",Louth,A91VY66,"€179,000.00",No,No,Second-Hand Dwelling house /Apartment,,53.9869269,-6.3904626
06/09/2024,"3 KEMPTON COURT, DRUMALEE, CO CAVAN",Cavan,H12WF59,"€175,000.00",No,No,Second-Hand Dwelling house /Apartment,,53.99083,-7.36056
06/12/2024,"LOGGIN, BALLINABARNEY, GOREY",Wexford,Y25H6R2,"€285,000.00",No,No,Second-Hand Dwelling house /Apartment,,52.67472,-6.2925
12/08/2024,"38 STEEPLECHASE COURT, RATOATH, MEATH",Meath,A85XW18,"€310,000.00",No,No,Second-Hand Dwelling house /Apartment,,53.5107749,-6.4734384
24/01/2024,"9 ROSETREE GREEN, CURRAGH FARM, BALLYMANY",Kildare,,"€370,044.05",No,Yes,New Dwelling house /Apartment,,53.15611,-6.91444
02/10/2024,"9 ST BRIDGETS PLACE UPPER, BOHERMORE, GALWAY",Galway,H91E6KE,"€512,000.00",No,No,Second-Hand Dwelling house /Apartment,,53.27194,-9.04889
06/02/2024,"SHANCURRAGH, COOSAN, ATHLONE",Westmeath,,"€450,000.00",No,No,Second-Hand Dwelling house /Apartment,,53.43333,-7.95
26/01/2024,"DROMBOFINNY, ENNISKEANE, CORK",Cork,P47C922,"€400,000.00",No,No,Second-Hand Dwelling house /Apartment,,51.89797,-8.47061
01/03/2024,"7 ST PAPPINS RD, WADELAI EST, GLASNEVIN DUBLIN 11",Dublin,D11VY92,"€650,000.00",No,No,Second-Hand Dwelling house /Apartment,,53.33306,-6.24889
12/08/2024,"34 GROSVENOR PARK, RATHMINES, DUBLIN 6",Dublin,D06N2F9,"€860,000.00",No,No,Second-Hand Dwelling house /Apartment,,53.3220267,-6.2733742
17/10/2024,"Coolnaboy, Oylegate, Enniscorthy",Wexford,,"€90,000.00",No,No,New Dwelling house /Apartment,,52.50083,-6.55778
15/01/2024,"6 MACDONAGH RD, KINGSMEADOW, WATERFORD",Waterford,X91R79N,"€185,000.00",No,No,Second-Hand Dwelling house /Apartment,,52.25833,-7.11194
08/01/2024,"3 MONTGOMERY STREET, CARLOW, COUNTY CARLOW",Carlow,,"€105,000.00",No,No,Second-Hand Dwelling house /Apartment,,52.8411828,-6.931884
10/07/2024,"4 PHOENIX TERRACE, ROCK RD, BLACKROCK",Dublin,A94T668,"€1,250,000.00",No,No,Second-Hand Dwelling house /Apartment,,53.33306,-6.24889
22/08/2024,"BALTONEY, GORTAHORK, CO DONEGAL",Donegal,,"€43,700.00",No,No,Second-Hand Dwelling house /Apartment,,55.11667,-8.13333
04/11/2024,"4 THE MEWS, PATRICK ST, CLARECASTLE",Clare,V95VYE2,"€210,000.00",No,No,Second-Hand Dwelling house /Apartment,,52.81556,-8.96667
30/04/2024,"RATHBRIDE RD, KILDARE, KILDARE",Kildare,R51VK73,"€610,000.00",No,No,Second-Hand Dwelling house /Apartment,,53.15611,-6.91444
14/06/2024,"8 NEW ST NORTH, DUBLIN 7, DUBLIN",Dublin,D07F8Y6,"€348,000.00",No,No,Second-Hand Dwelling house /Apartment,,53.3494704,-6.2738728
16/12/2024,"18 Folkstown Park, Taylor Hill Boulevard, Balbriggab",Dublin,,"€484,581.49",No,Yes,New Dwelling house /Apartment,,53.33306,-6.24889
29/05/2024,"2 MARKET SQ, RATHMULLAN, DONEGAL",Donegal,F92C6Y4,"€180,000.00",No,No,Second-Hand Dwelling house /Apartment,,55.09389,-7.54028
17/09/2024,"18 MANOR LAWN, WATERFORD, WATERFORD",Waterford,X91V6PA,"€250,000.00",No,No,Second-Hand Dwelling house /Apartment,,52.2510236,-7.1284195
03/12/2024,"TOWNVILLE, ST MARYS RD, ARKLOW",Wicklow,Y14PP58,"€317,500.00",No,No,Second-Hand Dwelling house /Apartment,,52.79306,-6.14139
02/12/2024,"Cara Lodge, Carrigeen, Kilglass",Roscommon,F42KX24,"€416,000.00",No,No,Second-Hand Dwelling house /Apartment,,53.63333,-8.18333
06/08/2024,"55 BLUNDELL WOOD, EDENDERRY, OFFALY",Offaly,R45YA66,"€350,000.00",No,No,Second-Hand Dwelling house /Apartment,,53.34528,-7.04972
14/06/2024,"1ST  2ND AND 3RD FLOOR APARTMENT, 9 ASHE STREET, CLONAKILTY",Cork,P85HW59,"€120,000.00",No,No,Second-Hand Dwelling house /Apartment,,51.62306,-8.87056
29/11/2024,"11  Lodge Drive, Donacarney Wood, Mornington",Meath,,"€436,123.35",No,Yes,New Dwelling house /Apartment,,53.72333,-6.2825
28/03/2024,"1 RIVERSIDE FURNACELAND, SWANLINBAR, CAVAN",Cavan,H14AH75,"€195,000.00",No,No,Second-Hand Dwelling house /Apartment,,54.19472,-7.70444
01/05/2024,"KILMACOO, DUBLIN RD, ATHLONE",Westmeath,N37YV58,"€199,000.00",No,No,Second-Hand Dwelling house /Apartment,,53.43333,-7.95
20/12/2024,"22 PRIORY DRIVE, ST RAPHAELS MANOR, CELBRIDGE",Kildare,W23R5P3,"€440,000.00",No,No,Second-Hand Dwelling house /Apartment,,53.33861,-6.54361
20/08/2024,"7 HAWTHORN CRESCENT BAY EST, DUNDALK, LOUTH",Louth,A91A6N3,"€290,000.00",No,No,Second-Hand Dwelling house /Apartment,,53.9959237,-6.3767518
19/12/2024,"DONAIL, KILRUSH, CLARE",Clare,,"€170,000.00",No,No,Second-Hand Dwelling house /Apartment,,52.63972,-9.48333
23/04/2024,"79 CORBALLIS DEMESNE, RATOATH, CO MEATH",Meath,A85WV77,"€351,000.00",No,No,Second-Hand Dwelling house /Apartment,,53.5085142,-6.4578096
31/05/2024,"7 MAGLONA TERRACE, MOUNTRATH RD, PORTLAOISE",Laois,R32CHP8,"€170,000.00",No,No,Second-Hand Dwelling house /Apartment,,53.03441,-7.29979
22/01/2024,"265 CHARLESLAND PARK, GREYSTONES, WICKLOW",Wicklow,A63PP22,"€330,000.00",No,No,Second-Hand Dwelling house /Apartment,,53.1263775,-6.0712866
11/12/2024,"28 MULLAN MOR, TUAM RD, GALWAY",Galway,H91EPE8,"€278,000.00",No,No,Second-Hand Dwelling house /Apartment,,53.27194,-9.04889
17/12/2024,"151 GRIANAN FIDH, AIKENS VILLAGE, SANDYFORD DUBLIN 18",Dublin,D18NX51,"€340,000.00",No,No,Second-Hand Dwelling house /Apartment,,53.33306,-6.24889
23/09/2024,"THE MANSE, CORLEA, SHANTONAGH",Monaghan,A75FD36,"€420,000.00",No,No,Second-Hand Dwelling house /Apartment,,54.05028,-6.85056
02/05/2024,"19 SEAPARK, MOUNT PROSPECT AVE, CLONTARF DUBLIN 3",Dublin,D03TN53,"€340,000.00",No,No,Second-Hand Dwelling house /Apartment,,53.33306,-6.24889
08/05/2024,"SHEPHERDS COTTAGE, LOUGHATORICK NORTH, MOYGLASS",Galway,H62ER24,"€90,000.00",No,No,Second-Hand Dwelling house /Apartment,,53.06361,-8.46972
30/09/2024,"DOON, ARAGLEN, KILWORTH",Cork,,"€400,000.00",No,No,Second-Hand Dwelling house /Apartment,,52.17639,-8.24417
19/02/2024,"69 WOODLAND DR, COLLEGEWOOD, MALLOW",Cork,P51D5RH,"€235,000.00",Yes,No,Second-Hand Dwelling house /Apartment,,52.13333,-8.63333
05/04/2024,"71 INNISMORE, CRUMLIN, DUBLIN 12",Dublin,D12F50R,"€545,000.00",No,No,Second-Hand Dwelling house /Apartment,,53.3218826,-6.3171232
20/08/2024,"CLOUD LEA, COOLENAUGH, NEWCESTOWN",Cork,P72TD81,"€535,000.00",No,No,Second-Hand Dwelling house /Apartment,,51.78222,-8.87361
21/06/2024,"SLIEVE, HACKBALLSCROSS, DUNDALK",Louth,,"€75,000.00",No,No,Second-Hand Dwelling house /Apartment,,54.0,-6.41667
14/08/2024,"32 WOODBINE RD, BLACKROCK, DUBLIN",Dublin,A94V244,"€2,400,000.00",No,No,Second-Hand Dwelling house /Apartment,,53.3102465,-6.211979
19/12/2024,"19 ABBEYVILLE, ARKLOW, CO WICKLOW",Wicklow,Y14TK33,"€250,000.00",No,No,Second-Hand Dwelling house /Apartment,,52.7931082,-6.1542961
09/07/2024,"20 ORBY LAWN, THE GALLOPS, LEOPARDSTOWN",Dublin,D18E163,"€641,000.00",No,No,Second-Hand Dwelling house /Apartment,,53.33306,-6.24889
11/03/2024,"26 FAIRGREEN ROAD, KILDARE, CO KILDARE",Kildare,R51X314,"€380,000.00",No,No,Second-Hand Dwelling house /Apartment,,53.1619661,-6.9100366
20/08/2024,"306 OCONNELL COURT, PENROSE LANE, WATERFORD",Waterford,X91E671,"€133,750.00",Yes,No,Second-Hand Dwelling house /Apartment,,52.25833,-7.11194
16/05/2024,"101 NEWTOWN HOUSE, HENRY ST, LIMERICK",Limerick,V94YV67,"€198,000.00",No,No,Second-Hand Dwelling house /Apartment,,52.66472,-8.62306
21/03/2024,"7 Village Green, Whitechurch",Cork,,"€294,847.00",No,Yes,New Dwelling house /Apartment,,51.98139,-8.51389
28/11/2024,"74 Weaver's Lane, The Steeples, Commons",Meath,,"€334,801.77",No,Yes,New Dwelling house /Apartment,,53.54239,-6.80159
28/03/2024,"1 OLD COURT AVE, OLDCOURT RD, FIRHOUSE DUBLIN 24",Dublin,D24H9CR,"€472,000.00",No,No,Second-Hand Dwelling house /Apartment,,53.33306,-6.24889
26/08/2024,"9 RATHDOWN PARK, GREYSTONES, WICKLOW",Wicklow,A63KH52,"€665,000.00",No,No,Second-Hand Dwelling house /Apartment,,53.15123,-6.0782672
04/04/2024,"11 GLEBE CLOSE, NEWCASTLE, DUBLIN",Dublin,D22KW62,"€560,000.00",No,No,Second-Hand Dwelling house /Apartment,,53.3022116,-6.5025736
04/12/2024,"10 CASTLE PARK, SANDYMOUNT, DUBLIN 4",Dublin,D04WR84,"€1,146,000.00",No,No,Second-Hand Dwelling house /Apartment,,53.3306475,-6.2136501
31/07/2024,"3 SORREL AVENUE, Sorrel Wood, Blessington",Wicklow,,"€422,933.00",No,Yes,New Dwelling house /Apartment,,53.17,-6.5325
29/10/2024,"104 OAKLEIGH WOOD, DOORADOOYLE, LIMERICK",Limerick,V94K854,"€271,000.00",No,No,Second-Hand Dwelling house /Apartment,,52.66472,-8.62306
16/05/2024,"22 WOODFIELD, BALLIVOR, MEATH",Meath,C15AH96,"€300,000.00",No,No,Second-Hand Dwelling house /Apartment,,53.53167,-6.96111
07/02/2024,"TULLYARD, GLENTIES, DONEGAL",Donegal,F94X751,"€215,000.00",No,No,Second-Hand Dwelling house /Apartment,,54.7913536,-8.3254562
12/11/2024,"160 SHINGAN, MILEHOUSE, ENNISCORTHY",Wexford,Y21NN69,"€166,000.00",No,No,Second-Hand Dwelling house /Apartment,,52.50083,-6.55778
25/10/2024,"CARRIGKILTER, BALLYCOTTON, CORK",Cork,P25HV27,"€385,000.00",No,No,Second-Hand Dwelling house /Apartment,,51.83333,-8.01611
11/12/2024,"JASMIN, BALLYEDMOND, CLONBERN",Galway,H53HP78,"€265,000.00",No,No,Second-Hand Dwelling house /Apartment,,53.56667,-8.63333
23/04/2024,"TWIN OAKS, 62 PARK AVE, SANDYMOUNT",Dublin,D04E2X0,"€3,300,000.00",No,No,Second-Hand Dwelling house /Apartment,,53.33306,-6.24889
31/01/2024,"4 CRESCENT VIEW, FARRANLAHASSERY, CAHIR",Tipperary,E21C990,"€225,000.00",No,No,Second-Hand Dwelling house /Apartment,,52.47333,-8.15583
21/02/2024,"ROCKLAW RD, FETHARD, CLONMEL",Tipperary,E91KW58,"€30,000.00",No,No,Second-Hand Dwelling house /Apartment,,52.47333,-8.15583
20/12/2024,"6 VIEWMOUNT, RATHDRUM, WICKLOW",Wicklow,A67E103,"€220,000.00",No,No,Second-Hand Dwelling house /Apartment,,52.9320082,-6.2501169
26/11/2024,"16 CASTLEVIEW, LITTLEISLAND, CORK",Cork,T45DD79,"€390,000.00",No,No,Second-Hand Dwelling house /Apartment,,51.89797,-8.47061
30/05/2024,"OWENTESKNA, GLENCOLMCILLE, DONEGAL",Donegal,F94DH63,"€170,000.00",No,No,Second-Hand Dwelling house /Apartment,,54.65,-8.11667
04/12/2024,"7 EDEN, KILMAINHAMWOOD, KELLS",Meath,A82RD29,"€360,000.00",No,No,Second-Hand Dwelling house /Apartment,,53.849111,-6.8073969
25/10/2024,"7 Tully Court, Cherrywood, Co. Dublin",Dublin,,"€506,607.00",No,Yes,New Dwelling house /Apartment,,53.38046,-6.27113
09/02/2024,"72 ST ASSAMS AVE, RAHENY, DUBLIN 5",Dublin,D05RY98,"€725,000.00",No,No,Second-Hand Dwelling house /Apartment,,53.33306,-6.24889
05/12/2024,"1 Cooline Close, Ballyvoloon, Cobh",Cork,,"€413,215.86",No,Yes,New Dwelling house /Apartment,,51.85722,-8.29917
25/04/2024,"5 GLEN ABHAINN LAWNS, ENFIELD, MEATH",Meath,A83W226,"€80,000.00",Yes,No,Second-Hand Dwelling house /Apartment,,53.4109057,-6.8284307
12/06/2024,"SARITA, COOLCOTTS, WEXFORD",Wexford,Y35A4YP,"€252,000.00",No,No,Second-Hand Dwelling house /Apartment,,52.33417,-6.4575
05/07/2024,"311 PALMERSTOWN WOODS, CLONDALKIN, DUBLIN 22",Dublin,D22VH26,"€315,000.00",No,No,Second-Hand Dwelling house /Apartment,,53.3377466,-6.3923996
25/10/2024,"30 COTTAGES, BALLINTRA, CO DONEGAL",Donegal,F94A6K7,"€95,000.00",No,No,Second-Hand Dwelling house /Apartment,,54.5959582,-8.1588464
14/08/2024,"CLONONEEN GATE LODGE, BORRIS-IN-OSSORY, CO. LAOIS",Laois,,"€155,000.00",No,No,Second-Hand Dwelling house /Apartment,,52.93639,-7.63639
31/05/2024,"7 Parkleigh Lane, Seven Mills, Clonburris",Dublin,,"€383,259.90",Yes,Yes,New Dwelling house /Apartment,,53.33306,-6.24889
31/05/2024,"67 THE GROVE INSE BAY, LAYTOWN, MEATH",Meath,A92W58R,"€331,000.00",No,No,Second-Hand Dwelling house /Apartment,,53.6836701,-6.2467015
03/07/2024,"17 BRABAZON HALL, ARDEE ST, DUBLIN",Dublin,D08N622,"€370,000.00",No,No,Second-Hand Dwelling house /Apartment,,53.33306,-6.24889
10/09/2024,"98 MONKSFIELD, BEALNAMULLA, ATHLONE",Roscommon,N37E951,"€190,000.00",Yes,No,Second-Hand Dwelling house /Apartment,,53.63333,-8.18333
09/08/2024,"7 JOHN STREET, NEW ROSS, COUNTY WEXFORD",Wexford,W12FV56,"€80,000.00",No,No,Second-Hand Dwelling house /Apartment,,52.3971742,-6.9437933
07/05/2024,"26 VERSCHOYLE DR, SAGGART ABBEY, DUBLIN 24",Dublin,D24N4X9,"€424,000.00",No,No,Second-Hand Dwelling house /Apartment,,53.33306,-6.24889
19/01/2024,"APT 4 CORRSTOWN HOUSE, CORRSTOWN, SWORDS",Dublin,K67FR13,"€231,250.00",No,No,Second-Hand Dwelling house /Apartment,,53.33306,-6.24889
25/10/2024,"4A NORTHCOTE AVE, DUN LAOGHAIRE, DUBLIN",Dublin,A96X286,"€885,000.00",No,No,Second-Hand Dwelling house /Apartment,,53.2916212,-6.1417206
15/07/2024,"1 Birch Way, Deerpark, Gorey",Wexford,,"€304,317.18",No,Yes,New Dwelling house /Apartment,,52.67472,-6.2925
19/12/2024,"64 WILTON MANOR, RATHNEW, COUNTY WICKLOW",Wicklow,A67AH02,"€305,000.00",No,No,Second-Hand Dwelling house /Apartment,,52.9872492,-6.0775053
21/08/2024,"TULLY CROSS, RENVYLE, GALWAY",Galway,H91NPP6,"€250,000.00",No,No,Second-Hand Dwelling house /Apartment,,53.5948,-9.97739
02/08/2024,"KILROSS, TIPPERARY, CO TIPPERARY",Tipperary,,"€170,000.00",No,No,Second-Hand Dwelling house /Apartment,,52.4365739,-8.2863744
16/08/2024,"8 VIKING HARBOUR, JOYCE HOUSE, USHERS ISLAND",Dublin,D08X256,"€270,000.00",Yes,No,Second-Hand Dwelling house /Apartment,,53.33306,-6.24889
28/08/2024,"MONEYGOLD, GRANGE, CO SLIGO",Sligo,,"€182,500.00",No,No,Second-Hand Dwelling house /Apartment,,54.4,-8.51667
11/10/2024,"21 NEW HAVEN, ARDAMINE, GOREY",Wexford,Y25NV21,"€370,000.00",No,No,Second-Hand Dwelling house /Apartment,,52.67472,-6.2925
02/12/2024,"4 LARTIGUE VILLAGE, LISTOWEL, KERRY",Kerry,V31KC60,"€320,000.00",No,No,Second-Hand Dwelling house /Apartment,,52.44639,-9.485
27/03/2024,"KILQUANE, BALLYDAVID, TRALEE",Kerry,V92HY68,"€322,500.00",No,No,Second-Hand Dwelling house /Apartment,,52.27042,-9.70264
07/06/2024,"250 TOWNPARKS, CONVOY, LIFFORD",Donegal,F93Y9ER,"€145,000.00",No,No,Second-Hand Dwelling house /Apartment,,54.8624131,-7.669696
18/12/2024,"NO. 3 BRENSHADE, NURNEY, CO KILDARE",Kildare,R51VH68,"€337,500.00",Yes,No,Second-Hand Dwelling house /Apartment,,53.0961646,-6.9438796
09/04/2024,"KILMORE LODGE, CARROWPHADEEN, LE CARROW",Roscommon,F42VX66,"€300,000.00",No,No,Second-Hand Dwelling house /Apartment,,53.63333,-8.18333
13/12/2024,"152 CASTLEPARK, BALLYBANE, GALWAY",Galway,H91PWY4,"€225,777.00",No,No,Second-Hand Dwelling house /Apartment,,53.2829993,-9.0027526
07/06/2024,"25 UPPER GARDINER STREET, DUBLIN 1",Dublin,D01E4F8,"€1,050,000.00",No,No,Second-Hand Dwelling house /Apartment,,53.3580079,-6.2606373
23/05/2024,"23 PARK HEIGHTS, GRANGE RATH, DROGHEDA",Meath,A92DYP1,"€490,000.00",No,No,Second-Hand Dwelling house /Apartment,,53.7044493,-6.3140426
31/07/2024,"31 The Avenue, Bellevue, Bellevue Hill",Wicklow,,"€660,792.95",No,Yes,New Dwelling house /Apartment,,53.0,-6.41667
12/09/2024,"4 CASTLEGATE SQ, ADAMSTOWN, DUBLIN",Dublin,K78CN69,"€362,000.00",No,No,Second-Hand Dwelling house /Apartment,,53.3375677,-6.4543381
05/07/2024,"6 TARA COVE, BALBRIGGAN, DUBLIN",Dublin,K32FR90,"€325,000.00",No,No,Second-Hand Dwelling house /Apartment,,53.6071435,-6.1896405
07/10/2024,"2 Parkleigh Elms, Seven Mills, Clonburris",Dublin,,"€414,097.00",No,Yes,New Dwelling house /Apartment,,53.33306,-6.24889
11/07/2024,"4 UPTON MEADOW, KILMUCKRIDGE, GOREY",Wexford,Y25H2R7,"€224,669.00",No,Yes,New Dwelling house /Apartment,,52.5142254,-6.2817881
30/10/2024,"8 The Row, Heathfield, Carriganarra",Cork,,"€355,749.00",No,Yes,New Dwelling house /Apartment,,51.88972,-8.55639
30/10/2024,"14 OLDBRIDGE COURT, GRIFFEEN AVE, LUCAN",Dublin,K78AH60,"€395,000.00",No,No,Second-Hand Dwelling house /Apartment,,53.33306,-6.24889
15/02/2024,"24 CROMWELLSFORT RD, WALKINSTOWN, DUBLIN 12",Dublin,D12A3X2,"€496,000.00",No,No,Second-Hand Dwelling house /Apartment,,53.3171846,-6.3324321
11/11/2024,"31 VICAR ST, KILKENNY, KILKENNY",Kilkenny,R95ANW9,"€280,000.00",No,No,Second-Hand Dwelling house /Apartment,,52.6570629,-7.2562322
12/03/2024,"62  CLONLARA, KERRY PIKE, COUNTY  CORK",Cork,T23XH0F,"€506,000.00",No,No,Second-Hand Dwelling house /Apartment,,51.89797,-8.47061
08/05/2024,"27 LEDWIDGE HALL, SLANE, MEATH",Meath,C15R232,"€520,000.00",No,No,Second-Hand Dwelling house /Apartment,,53.7091681,-6.5391397
24/10/2024,"4 Saunders Avenue, Royal Canal, Ardmore Road",Westmeath,,"€323,787.84",No,Yes,New Dwelling house /Apartment,,53.5,-7.5
31/05/2024,"Apartment 110, De Verdon Place, Malahide Road",Dublin,,"€481,967.40",Yes,Yes,New Dwelling house /Apartment,,53.33306,-6.24889
14/03/2024,"CUSHINA, PORTARLINGTON, OFFALY",Offaly,R32R2D9,"€125,000.00",No,No,Second-Hand Dwelling house /Apartment,,53.180964,-7.176187
18/10/2024,"16 CARRIG AN DUIN, MILLTOWN, KILLARNEY",Kerry,V93R2R8,"€266,000.00",No,No,Second-Hand Dwelling house /Apartment,,52.05,-9.51667
21/03/2024,"35 WOODLANDS PARK, LAMBERTON, ARKLOW",Wicklow,Y14PT32,"€262,000.00",Yes,No,Second-Hand Dwelling house /Apartment,,52.79306,-6.14139
12/12/2024,"92 SUGARLOAF CRESCENT, BRAY, WICKLOW",Wicklow,A98A6Y8,"€21,701.53",Yes,No,Second-Hand Dwelling house /Apartment,,53.1935345,-6.1102793
05/06/2024,"KILMACOWEN, SILGO, SLIGO",Sligo,F91F2D5,"€265,000.00",No,No,Second-Hand Dwelling house /Apartment,,54.26969,-8.46943
08/05/2024,"10 BROOKMOUNT COURT, BUTTERFIELD AVE, RATHFARNHAM DUBLIN 14",Dublin,D14PA61,"€378,000.00",No,No,Second-Hand Dwelling house /Apartment,,53.33306,-6.24889
04/12/2024,"1 MARYS LANE, WEXFORD, WEXFORD",Wexford,Y35E0F5,"€150,000.00",No,No,Second-Hand Dwelling house /Apartment,,52.33417,-6.4575
20/06/2024,"17 BIRCHFIELDS, BOG ROAD, PORTARLINGTON",Offaly,,"€231,158.00",Yes,Yes,New Dwelling house /Apartment,,53.25,-7.5
29/05/2024,"46 TALBOTS GATE, FRESHFORD RD, KILKENNY",Kilkenny,R95A563,"€170,000.00",No,No,Second-Hand Dwelling house /Apartment,,52.65417,-7.25222
22/03/2024,"39 DUN NA RI, GORT, GALWAY",Galway,H91Y4D7,"€145,000.00",No,No,Second-Hand Dwelling house /Apartment,,53.0656029,-8.8258499
19/12/2024,"22 ORPEN RISE, STILLORGAN GROVE, BLACKROCK",Dublin,A94P7K2,"€345,000.00",No,No,Second-Hand Dwelling house /Apartment,,53.33306,-6.24889
21/03/2024,"15 CHESTNUT ROAD, MOUNT MERRION, CO DUBLIN",Dublin,A94EK46,"€870,000.00",No,No,Second-Hand Dwelling house /Apartment,,53.2988638,-6.2104943
21/02/2024,"15 CASTLEVIEW GREEN, SWORDS, DUBLIN",Dublin,K67Y062,"€305,000.00",No,No,Second-Hand Dwelling house /Apartment,,53.4721522,-6.2403669
09/10/2024,"BARRACK STREET, CRINKLE, BIRR",Offaly,R42FH93,"€45,000.00",No,No,Second-Hand Dwelling house /Apartment,,53.09139,-7.91333
01/11/2024,"14 CROSSTREES, HOWTH, DUBLIN 13",Dublin,D13NW98,"€500,000.00",No,No,Second-Hand Dwelling house /Apartment,,53.3830894,-6.0648797
25/10/2024,"1 ST DAVIDS GROVE, ARTANE, DUBLIN 5",Dublin,D05W2X9,"€234,166.00",No,No,Second-Hand Dwelling house /Apartment,,53.33306,-6.24889
11/12/2024,"6 ISLEWAY HOUSE, LARKINS LANE, LETTERKENNY",Donegal,F92K851,"€60,000.00",No,No,Second-Hand Dwelling house /Apartment,,54.95,-7.73333
10/07/2024,"13 Meadow Hill, Marlton Road, Wicklow",Wicklow,,"€484,581.00",No,Yes,New Dwelling house /Apartment,,52.975,-6.04944
04/11/2024,"5 SWILLY VIEW, INCH ISLAND, CO DONEGAL",Donegal,F93P5W8,"€60,000.00",No,No,Second-Hand Dwelling house /Apartment,,55.06667,-7.5
25/03/2024,"26 SOUTHMEDE, BALLINTEER RD, DUNDRUM DUBLIN 16",Dublin,D16R041,"€356,000.00",No,No,Second-Hand Dwelling house /Apartment,,53.33306,-6.24889
30/01/2024,"21 CUSTOM HALL, GARDINER ST LOWER, DUBLIN 1",Dublin,D01K248,"€250,000.00",No,No,Second-Hand Dwelling house /Apartment,,53.33306,-6.24889
07/11/2024,"14 THE GABLES, MULLINGAR, WESTMEATH",Westmeath,N91R2C2,"€230,000.00",No,No,Second-Hand Dwelling house /Apartment,,53.53333,-7.35
04/03/2024,"BALLURE, KILTIMAGH, MAYO",Mayo,F12N728,"€302,000.00",Yes,No,Second-Hand Dwelling house /Apartment,,53.85,-9.0
06/12/2024,"233 BEECHDALE, DUNBOYNE, MEATH",Meath,A86RY29,"€430,000.00",No,No,Second-Hand Dwelling house /Apartment,,53.414208,-6.4672612
26/07/2024,"17 PRIORY AVE, EDENGATE DELGANY, WICKLOW",Wicklow,A63N732,"€1,030,000.00",No,No,Second-Hand Dwelling house /Apartment,,53.13083,-6.09139
16/09/2024,"14 LIMERICK STREET, ROSCREA, CO TIPPERARY",Tipperary,E53PW27,"€150,000.00",No,No,Second-Hand Dwelling house /Apartment,,52.9535108,-7.8017265
03/09/2024,"APT 261, PREMIER SQ, FINGLAS RD DUBLIN 11",Dublin,D11TR99,"€361,000.00",No,No,Second-Hand Dwelling house /Apartment,,53.33306,-6.24889
22/03/2024,"GLENAGRAGRA, GLIN, COUNTY LIMERICK",Limerick,,"€43,000.00",No,No,Second-Hand Dwelling house /Apartment,,52.57028,-9.28278
27/09/2024,"25 GILLABBEY ST, CORK, CORK",Cork,T12HD8E,"€100,000.00",No,No,Second-Hand Dwelling house /Apartment,,51.8938559,-8.4836358
25/10/2024,"179 Beaulieu Village, Termonfeckin Road, Drogheda",Louth,,"€330,396.00",No,Yes,New Dwelling house /Apartment,,53.71889,-6.34778
30/09/2024,"WATERFALL HOUSE, 1 WATERFALL AVE, RICHMOND ROAD",Dublin,,"€189,000.00",No,No,Second-Hand Dwelling house /Apartment,,53.33306,-6.24889
13/11/2024,"BLACKSTONE HALL, SCARTBARRY, WATERGRASSHILL",Cork,T56R590,"€635,000.00",No,No,Second-Hand Dwelling house /Apartment,,52.01139,-8.34417
15/03/2024,"NEWTOWN, KILLEIGH, CO. OFFALY",Offaly,,"€43,000.00",No,No,Second-Hand Dwelling house /Apartment,,53.21333,-7.44944
16/08/2024,"PETER STREET, WESTPORT, CO. MAYO",Mayo,F28D434,"€310,000.00",No,No,Second-Hand Dwelling house /Apartment,,53.7983249,-9.5258513
08/11/2024,"1 BROOMFIELD WEST, MIDLETON, CORK",Cork,P25FE06,"€333,500.00",No,No,Second-Hand Dwelling house /Apartment,,51.9285683,-8.1753635
24/01/2024,"497 HOWTH RD, RAHENY, DUBLIN 5",Dublin,D05KP22,"€811,000.00",No,No,Second-Hand Dwelling house /Apartment,,53.3771515,-6.188931
04/12/2024,"31 LISALEA, FRASCATI PARK, BLACKROCK",Dublin,A94AE39,"€455,000.00",No,No,Second-Hand Dwelling house /Apartment,,53.33306,-6.24889
06/11/2024,"29 PORTSIDE, ROSSLARE HARBOUR, WEXFORD",Wexford,Y35DD54,"€215,000.00",No,No,Second-Hand Dwelling house /Apartment,,52.2470768,-6.3393717
16/07/2024,"DERRYREEL FALCARRAGH, FALCARRAGH, DONEGAL",Donegal,,"€50,000.00",Yes,No,Second-Hand Dwelling house /Apartment,,55.13333,-8.1
24/05/2024,"2 TEMPLE LINN, BALLYMORE, WESTMEATH",Westmeath,N91E043,"€190,833.60",Yes,No,Second-Hand Dwelling house /Apartment,,53.4907477,-7.6625755
01/11/2024,"102 BARLEY FIELD, WICKLOW HILLS, NEWTOWNMOUNTKENNEDY",Wicklow,A63V079,"€470,000.00",No,No,Second-Hand Dwelling house /Apartment,,53.0,-6.41667
21/03/2024,"134 THE GREEN, CLARA, CO. OFFALY",Offaly,R35FH67,"€150,000.00",No,No,Second-Hand Dwelling house /Apartment,,53.3430726,-7.6108928
20/02/2024,"29 COIS ABHA, DUNGARVAN, WATERFORD",Waterford,X35FK31,"€230,000.00",No,No,Second-Hand Dwelling house /Apartment,,52.1012605,-7.6246287
31/05/2024,"4 O'RAHILLY ST, NENAGH, TIPPERARY",Tipperary,E45WX99,"€194,000.00",No,No,Second-Hand Dwelling house /Apartment,,52.8669732,-8.1998418
29/08/2024,"10 FATHER DELAHUNTY TERRACE, OLD CALLAN RD, KILKENNY",Kilkenny,R95C9CN,"€205,000.00",No,No,Second-Hand Dwelling house /Apartment,,52.65417,-7.25222
24/06/2024,"APT 2 SEA BREEZE, OFF CIRCULAR RD, DUNMORE EAST",Waterford,X91K5F7,"€295,000.00",No,No,Second-Hand Dwelling house /Apartment,,52.15139,-6.98611
25/07/2024,"19 COOLEENS CLOSE, CLONMEL, CO TIPPERARY",Tipperary,E91FC89,"€106,000.00",No,No,Second-Hand Dwelling house /Apartment,,52.66667,-7.83333
25/04/2024,"16 OAKFIELD, RAHEEN, LIMERICK",Limerick,V94PYN4,"€340,000.00",No,No,Second-Hand Dwelling house /Apartment,,52.63265,-8.6665258
11/07/2024,"11 BIRCHWOOD HEIGHTS, SPRINGFIELD, TALLAGHT DUBLIN 22",Dublin,D24N2V3,"€373,000.00",No,No,Second-Hand Dwelling house /Apartment,,53.33306,-6.24889
17/07/2024,"24 THE CLOISTERS, TERENURE, DUBLIN 6W",Dublin,D6WPF82,"€732,000.00",No,No,Second-Hand Dwelling house /Apartment,,53.3154495,-6.288953
10/12/2024,"11 Arderrow, Ballyhooly Road, Ballyvolane",Cork,,"€359,031.00",No,Yes,New Dwelling house /Apartment,,51.89797,-8.47061
26/09/2024,"LEGALTION, BALLYSHANNON, DONEGAL",Donegal,,"€125,000.00",No,No,Second-Hand Dwelling house /Apartment,,54.5,-8.18333
21/03/2024,"45 BARLEYFIELDS, WHITECHURCH, COUNTY CORK",Cork,,"€374,449.32",No,Yes,New Dwelling house /Apartment,,51.98139,-8.51389
20/11/2024,"KNOCKANANY, MOYGOWNAGH, BALLINA",Mayo,,"€105,000.00",No,No,Second-Hand Dwelling house /Apartment,,54.11667,-9.16667
22/10/2024,"32 GLEANN NA COILLE, BARNA RD, GALWAY",Galway,H91RCW7,"€418,000.00",No,No,Second-Hand Dwelling house /Apartment,,53.27194,-9.04889
11/11/2024,"4 RAHILLION DRIVE, DONABATE, DUBLIN",Dublin,K36X206,"€645,000.00",No,No,Second-Hand Dwelling house /Apartment,,53.33306,-6.24889
01/02/2024,"3 FRIARY COURT, NAAS, KILDARE",Kildare,W91CD79,"€190,000.00",No,No,Second-Hand Dwelling house /Apartment,,53.21583,-6.66694
19/06/2024,"Townhouse 1, Garryowen, Cloyne",Cork,,"€352,422.00",No,Yes,New Dwelling house /Apartment,,51.86278,-8.12444
09/10/2024,"33 BALALLY AVE, DUNDRUM, DUBLIN 16",Dublin,D16N292,"€717,000.00",No,No,Second-Hand Dwelling house /Apartment,,53.2819544,-6.2295023
18/12/2024,"4 RIVERHILL, CLEARIESTOWN, WEXFORD",Wexford,Y35CV48,"€355,000.00",No,No,Second-Hand Dwelling house /Apartment,,52.33417,-6.4575
08/08/2024,"Pontoon Road, Castlebar",Mayo,F23PP20,"€731,277.52",No,Yes,New Dwelling house /Apartment,,53.8667988,-9.2960453
06/03/2024,"34 SANDY LANE, LONGFORD, LONGFORD",Longford,N39HP52,"€85,000.00",No,No,Second-Hand Dwelling house /Apartment,,53.72536,-7.79823
11/04/2024,"28 HAZELWOOD CRESCENT, GREEN PARK, CLONDALKIN",Dublin,D22F7V7,"€420,000.00",No,No,Second-Hand Dwelling house /Apartment,,53.33306,-6.24889
31/10/2024,"22 HANOVER COURT, FRANCIS ST, DUBLIN 8",Dublin,D08X5C0,"€400,000.00",No,No,Second-Hand Dwelling house /Apartment,,53.33306,-6.24889
20/03/2024,"40 Clay Farm Avenue, Dublin 18",Dublin,D18K2HA,"€651,982.00",No,Yes,New Dwelling house /Apartment,,53.2542002,-6.2032395
18/09/2024,"177 Mill Quarter, Knockmullen, Gorey",Wexford,,"€233,550.00",No,Yes,New Dwelling house /Apartment,,52.67472,-6.2925
05/09/2024,"THE SANCTUARY, GLASHINA, BLESSINGTON",Wicklow,W91C5T6,"€240,000.00",No,No,Second-Hand Dwelling house /Apartment,,53.17,-6.5325
24/04/2024,"14A ST RIOCHS ST, KILKENNY, KILKENNY",Kilkenny,R95E7TK,"€245,000.00",No,No,Second-Hand Dwelling house /Apartment,,52.65417,-7.25222
29/11/2024,"119 ST MARYS RD, EAST WALL, DUBLIN 3",Dublin,D03WN66,"€400,000.00",No,No,Second-Hand Dwelling house /Apartment,,53.33306,-6.24889
02/05/2024,"11 CASTLEKNOCK OAKS, LAUREL LODGE, CASTLEKNOCK DUBLIN 15",Dublin,D15EF64,"€880,000.00",No,No,Second-Hand Dwelling house /Apartment,,53.33306,-6.24889
23/01/2024,"BLACKDOWN, KILTEEL, NAAS",Kildare,W91VE2X,"€360,000.00",No,No,Second-Hand Dwelling house /Apartment,,53.239762,-6.5303424
16/08/2024,"5 MAPLE ROAD, CLONSKEAGH, DUBLIN 14",Dublin,D14VN28,"€2,200,000.00",No,No,Second-Hand Dwelling house /Apartment,,53.3096744,-6.2421977
22/01/2024,"9 GRANVILLE PARK, BLACKROCK, DUBLIN",Dublin,A94XY67,"€422,707.00",No,No,Second-Hand Dwelling house /Apartment,,53.2811241,-6.1790001
10/05/2024,"27 Lisnagar Gardens, Rathcormac",Cork,,"€278,151.98",Yes,Yes,New Dwelling house /Apartment,,52.07694,-8.28194
12/04/2024,"38 Burgage Castle, Blessington",Wicklow,,"€430,837.00",No,Yes,New Dwelling house /Apartment,,53.1610241,-6.5424639
18/10/2024,"1 The Crescent, Kilmartin Grove, Hollystown",Dublin,,"€409,691.00",No,Yes,New Dwelling house /Apartment,,53.33306,-6.24889
05/04/2024,"19 Castleview, Knockboy, Williamstown Road",Waterford,,"€577,092.51",No,Yes,New Dwelling house /Apartment,,52.25833,-7.11194
18/06/2024,"42 Rosetree Green, Curragh Farm, Ballymany",Kildare,,"€374,449.33",No,Yes,New Dwelling house /Apartment,,53.15611,-6.91444
26/09/2024,"17 Bawnogue View, Boycetown, Kilcock",Kildare,,"€343,612.34",No,Yes,New Dwelling house /Apartment,,53.40222,-6.67083
18/01/2024,"AUGHACASLA, CASTLEGREGORY, KERRY",Kerry,V92C6P7,"€461,000.00",No,No,Second-Hand Dwelling house /Apartment,,52.25806,-10.0225
13/05/2024,"19 NEWTON PLACE, NEWTON HEIGHTS, BOHERBOY ROAD",Cork,,"€226,988.00",Yes,Yes,New Dwelling house /Apartment,,51.89797,-8.47061
28/06/2024,"15 GLEN ELLAN COURT, SWORDS, CO DUBLIN",Dublin,K67P7X9,"€430,000.00",No,No,Second-Hand Dwelling house /Apartment,,53.4664142,-6.2277645
16/08/2024,"CARRAIG DONN, CLOUNREASK, ASKEATON",Limerick,V94E42Y,"€295,000.00",No,No,Second-Hand Dwelling house /Apartment,,52.59972,-8.97556
11/03/2024,"5 LOWER CARRICK STREET, KELLS, COUNTY MEATH",Meath,,"€105,000.00",No,No,Second-Hand Dwelling house /Apartment,,53.72639,-6.87917
16/08/2024,"DRUMBREANLIS, CARRIGALLEN, CO LEITRIM",Leitrim,,"€60,000.00",No,No,Second-Hand Dwelling house /Apartment,,53.97722,-7.64583
17/07/2024,"9 CLARENCE GATE, KILKENNY ROAD, CARLOW",Carlow,R93D377,"€200,000.00",No,No,Second-Hand Dwelling house /Apartment,,52.84083,-6.92611
01/05/2024,"APARTMENT 7, CLAYTON COURT, STAPLESTOWN ROAD",Carlow,R93AF40,"€133,500.00",No,No,Second-Hand Dwelling house /Apartment,,52.84083,-6.92611
23/04/2024,"3 MUNSTER TERRACE, SANDYCOVE, DUBLIN",Dublin,A96N298,"€1,400,000.00",No,No,Second-Hand Dwelling house /Apartment,,53.33306,-6.24889
15/01/2024,"43 CONQUER HILL RD, CLONTARF, DUBLIN",Dublin,D03P2R0,"€598,500.00",No,No,Second-Hand Dwelling house /Apartment,,53.3602089,-6.1897872
25/10/2024,"162 BLOOMFIELD PARK, BLOOMFIELD AVE, DONNYBROOK",Dublin,D04NY89,"€700,000.00",No,No,Second-Hand Dwelling house /Apartment,,53.33306,-6.24889
06/12/2024,"BALLYSAGGART, ST JOHNS POINT, DUNKINEELY",Donegal,F94A6X4,"€410,000.00",No,No,Second-Hand Dwelling house /Apartment,,54.63083,-8.37056
02/02/2024,"36 ROBERTSHILL, CIRCULAR RD, KILKENNY",Kilkenny,R95T8N7,"€280,000.00",No,No,Second-Hand Dwelling house /Apartment,,52.65417,-7.25222
09/07/2024,"40 THE PARK, BLUE CEDARS, BALLYBOFEY",Donegal,F93V2T5,"€168,500.00",No,No,Second-Hand Dwelling house /Apartment,,54.8,-7.78333
15/11/2024,"18 The Maples, The Miles, Clonakility",Cork,,"€330,396.48",No,Yes,New Dwelling house /Apartment,,51.89797,-8.47061
28/02/2024,"ROSEVILLE, 12 BRIDGE RD, LISTOWEL",Kerry,V31FK82,"€232,000.00",No,No,Second-Hand Dwelling house /Apartment,,52.44639,-9.485
21/05/2024,"Blocks A and B units 29 - 50, Nuncio Park, Nuncio Road",Kilkenny,,"€3,775,770.90",No,Yes,New Dwelling house /Apartment,,53.35222,-7.20167
23/09/2024,"49 THOMOND LODGE, BALLYMAHON, LONGFORD",Longford,N39F382,"€157,500.00",Yes,No,Second-Hand Dwelling house /Apartment,,53.5585872,-7.7734028
15/02/2024,"STAGHALL, BELTURBET, CO CAVAN",Cavan,,"€100,000.00",No,No,Second-Hand Dwelling house /Apartment,,54.0970897,-7.464814
04/03/2024,"24 Cannices Road, Foxes Meadow, Loughmascask",Kilkenny,,"€563,877.00",No,Yes,New Dwelling house /Apartment,,52.65417,-7.25222
16/01/2024,"4 GREENPARK TERRACE, BRAY, WICKLOW",Wicklow,A98X996,"€320,000.00",No,No,Second-Hand Dwelling house /Apartment,,53.20278,-6.09833
30/07/2024,"16 SPRINGFIELD DRIVE, BALLYMALEALY, CELBRIDGE",Kildare,W23Y393,"€333,000.00",No,No,Second-Hand Dwelling house /Apartment,,53.33861,-6.54361
22/01/2024,"130 SANDYFORD VIEW, SANDYFORD DUBLIN 18, DUBLIN",Dublin,D18XT26,"€416,000.00",No,No,Second-Hand Dwelling house /Apartment,,53.27042,-6.2390394
21/08/2024,"MOORETOWN GREAT, BALLYMITTY, WEXFORD",Wexford,Y35PK44,"€394,500.00",No,No,Second-Hand Dwelling house /Apartment,,52.33417,-6.4575
10/04/2024,"APT 14, BOWLING COURT, MALLOW",Cork,P51X085,"€189,500.00",No,No,Second-Hand Dwelling house /Apartment,,52.13333,-8.63333
04/12/2024,"16 BEECHWOOD GATE, BEECHWOOD, HANSFIELD",Dublin,D15VYA0,"€648,000.00",No,No,Second-Hand Dwelling house /Apartment,,53.33306,-6.24889
28/03/2024,"3 OATFIELD CLOSE, DUBLIN 22, DUBLIN",Dublin,D22C8Y0,"€256,000.00",No,No,Second-Hand Dwelling house /Apartment,,53.344076,-6.3900613
26/11/2024,"6 Hettyfield Gardens, Hettyfield, Douglas",Cork,T12DD2C,"€862,800.00",No,Yes,New Dwelling house /Apartment,,51.87444,-8.435
23/01/2024,"37 WILLOW RD, WYCKHAM PARK, DUNDRUM DUBLIN 16",Dublin,D16XY05,"€900,000.00",No,No,Second-Hand Dwelling house /Apartment,,53.33306,-6.24889
15/02/2024,"1 CAISLEAN MAINEAR, KENTSTOWN ROAD, NAVAN",Meath,C15E8CV,"€560,000.00",No,No,Second-Hand Dwelling house /Apartment,,53.65278,-6.68139
20/09/2024,"5 PROSPECT DR, BROOKLAWNS, FIRST SEA RD",Sligo,F91X4XD,"€280,000.00",No,No,Second-Hand Dwelling house /Apartment,,54.26969,-8.46943
11/11/2024,"33 CAMMOCK, MOUNT BROWN, KILMAINHAM DUBLIN 8",Dublin,D08KW57,"€20,000.00",No,Yes,New Dwelling house /Apartment,,53.33306,-6.24889
27/06/2024,"APT 1, 47 GROVE PARK, DUBLIN 6",Dublin,D06H7D0,"€3,206,164.00",No,No,Second-Hand Dwelling house /Apartment,,53.3293267,-6.2683775
14/02/2024,"11 COPPER VALLEY HEIGHTS, GLANMIRE, CORK",Cork,T45P271,"€393,000.00",No,No,Second-Hand Dwelling house /Apartment,,51.9278304,-8.3792971
21/06/2024,"APT 20, MELVILLE COURT, CITYSIDE DUBLIN 11",Dublin,D11TK54,"€290,000.00",No,No,Second-Hand Dwelling house /Apartment,,53.33306,-6.24889
24/04/2024,"CAPPAGANNEEN, BEAUFORT, KILLARNEY",Kerry,,"€120,000.00",No,No,Second-Hand Dwelling house /Apartment,,52.05,-9.51667
02/10/2024,"42 CASTLECURRAGH HEATH, MULHUDDART, DUBLIN 15",Dublin,D15E2H2,"€383,000.00",No,No,Second-Hand Dwelling house /Apartment,,53.4037036,-6.3919754
20/05/2024,"19 CREEVAGH BUI, CREEVAGHBEG ESTATE, BALLYMAHON",Longford,N39CH59,"€205,000.00",No,No,Second-Hand Dwelling house /Apartment,,53.56667,-7.76667
04/06/2024,"116 ROS CAOIN, ROSCAM, GALWAY",Galway,H91X7EK,"€390,000.00",No,No,Second-Hand Dwelling house /Apartment,,53.277483,-8.9720483
20/11/2024,"15  Radharc An Chuain, Castlebridge",Wexford,,"€259,911.00",No,Yes,New Dwelling house /Apartment,,52.38639,-6.44944
26/04/2024,"87 PLUNKETT ROAD, BALYPHEHANE ROAD, CORK",Cork,T12D2X6,"€280,000.00",No,No,Second-Hand Dwelling house /Apartment,,51.89797,-8.47061
29/08/2024,"56 RHEBOGUE AVE, CORBALLY, LIMERICK",Limerick,V94PX2P,"€375,000.00",No,No,Second-Hand Dwelling house /Apartment,,52.66472,-8.62306
28/11/2024,"38 GLENDARRAGH, NEWTOWNMOUNTKENNEDY, CO WICKLOW",Wicklow,A63X7E8,"€625,000.00",No,No,Second-Hand Dwelling house /Apartment,,52.975,-6.04944
03/04/2024,"3 ORWELL PLACE, BLOCK B, MARIANELLA",Dublin,D06DP38,"€600,000.00",No,No,Second-Hand Dwelling house /Apartment,,53.33306,-6.24889
23/09/2024,"APT 210 OLCOVAR, SHANKILL VILLAGE, DUBLIN 18",Dublin,D18CY26,"€340,000.00",No,No,Second-Hand Dwelling house /Apartment,,53.33306,-6.24889
29/08/2024,"13 THE WAY, KILMARTIN GROVE, HOLLYSTOWN",Dublin,,"€436,123.35",No,Yes,New Dwelling house /Apartment,,53.33306,-6.24889
10/09/2024,"35 Hearthfield, Mount Avenue, Dundalk",Louth,,"€319,383.26",No,Yes,New Dwelling house /Apartment,,54.0,-6.41667
29/11/2024,"APT 4 06 ABBEY RIVER COURT, SHEEP STREET, LIMERICK",Limerick,V94V447,"€140,000.00",No,No,Second-Hand Dwelling house /Apartment,,52.66472,-8.62306
02/02/2024,"APT 29, ARCADIA HALL, LOWER GLANMIRE RD",Cork,T23YW42,"€191,000.00",No,No,Second-Hand Dwelling house /Apartment,,51.9025223,-8.4573174
11/10/2024,"36 KILRANE MANOR, KILRANE, ROSSLARE",Wexford,Y35YY52,"€225,000.00",No,No,Second-Hand Dwelling house /Apartment,,52.27583,-6.38444
10/10/2024,"6 The Glebe, Kilmartin Grove, Hollystown",Dublin,,"€361,233.00",No,Yes,New Dwelling house /Apartment,,53.33306,-6.24889
23/08/2024,"ARD MOR, PARK RD, LONGFORD",Longford,N39H6W6,"€290,000.00",No,No,Second-Hand Dwelling house /Apartment,,53.72536,-7.79823
26/04/2024,"32 DEER PARK, FRIARS WALK, CORK CITY",Cork,T12P5XK,"€420,000.00",No,No,Second-Hand Dwelling house /Apartment,,51.89797,-8.47061
21/05/2024,"226 MOOREFIELD PARK, NEWBRIDGE, CO KILDARE",Kildare,,"€400,000.00",No,No,Second-Hand Dwelling house /Apartment,,53.171915,-6.80457
15/11/2024,"44 CLUAIN ALAINN, CARRICKMACROSS, MONAGHAN",Monaghan,A81WP30,"€190,000.00",No,No,Second-Hand Dwelling house /Apartment,,53.9758414,-6.7084029
07/02/2024,"19 MONTPELIER PARK, ARBOUR HILL, DUBLIN",Dublin,D07F5W4,"€375,000.00",Yes,No,Second-Hand Dwelling house /Apartment,,53.33306,-6.24889
02/04/2024,"2 ROCKFIELD LODGE, MAYNOOTH, KILDARE",Kildare,W23W2W6,"€450,000.00",No,No,Second-Hand Dwelling house /Apartment,,53.3744652,-6.5829355
08/10/2024,"TULLYCROMAN, MONAGHAN",Monaghan,H18E431,"€250,000.00",No,No,Second-Hand Dwelling house /Apartment,,54.2554067,-7.0148053
15/08/2024,"37 THE VIEW, CARRICKMINES MANOR, CARRICKMINES DUBLIN 18",Dublin,D18X973,"€460,000.00",No,No,Second-Hand Dwelling house /Apartment,,53.2482902,-6.1808484
12/04/2024,"THE BUNGALOW, NARRAGHMORE, BALLYTORE",Kildare,R14CK25,"€310,000.00",No,No,Second-Hand Dwelling house /Apartment,,53.15611,-6.91444
02/02/2024,"GARRARUS, WESTTOWN, TRAMORE",Waterford,X91E027,"€435,000.00",No,No,Second-Hand Dwelling house /Apartment,,52.16235,-7.15244
19/12/2024,"5 CARLISLE TERRACE, CHURCH RD, MALAHIDE",Dublin,K36KP82,"€2,100,000.00",No,No,Second-Hand Dwelling house /Apartment,,53.33306,-6.24889
18/12/2024,"9 HEATHERFIELD LAWN, CARRIGALINE, CO CORK",Cork,P43N990,"€690,000.00",No,No,Second-Hand Dwelling house /Apartment,,51.8225886,-8.3873284
15/03/2024,"51 Chapel Hill, Chapel Lane, Garristown",Dublin,,"€378,855.00",No,Yes,New Dwelling house /Apartment,,53.33306,-6.24889
09/07/2024,"6 Kilternan Wood Road, Bishops Gate, Enniskerry Road",Dublin,,"€559,471.00",No,Yes,New Dwelling house /Apartment,,53.33306,-6.24889
20/11/2024,"NEWTOWNSHANDRUM, CHARLEVILLE, CO. CORK.",Cork,P56Y424,"€65,000.00",No,No,Second-Hand Dwelling house /Apartment,,52.35,-8.68333
29/03/2024,"25 Deerpark Avenue, Deerpark",Waterford,,"€260,351.00",No,Yes,New Dwelling house /Apartment,,52.2375373,-7.0985807
07/11/2024,"SHERWOOD LODGE, KILDAVIN, CO CARLOW",Carlow,Y21X074,"€245,000.00",No,No,Second-Hand Dwelling house /Apartment,,52.68139,-6.68667
15/03/2024,"7 ABBOTSTOWN DRIVE, FINGLAS WEST, DUBLIN 11",Dublin,D11H2W6,"€258,000.00",No,No,Second-Hand Dwelling house /Apartment,,53.3895319,-6.3177224
20/12/2024,"37 WHEATFIELD, MUFF, DONEGAL",Donegal,F93W953,"€180,000.00",No,No,Second-Hand Dwelling house /Apartment,,55.0706543,-7.266708
30/09/2024,"6 the Gardens, Elmpark Green, Dublin 4",Dublin,,"€499,000.00",No,No,New Dwelling house /Apartment,,53.33306,-6.24889
10/12/2024,"13 NUNNERY LANE, NEW ROSS, WEXFORD",Wexford,Y34X096,"€175,812.00",No,No,Second-Hand Dwelling house /Apartment,,52.3953819,-6.9393457
12/01/2024,"3 GLEANN PETIT GREEN, DUBLIN ROAD, MULLINGAR",Westmeath,N91A37P,"€430,000.00",No,No,Second-Hand Dwelling house /Apartment,,53.53333,-7.35
17/05/2024,"14 GORT NA GLAISE SANDY LANE, BLACKROCK, CO LOUTH",Louth,A91WN63,"€102,000.00",Yes,No,Second-Hand Dwelling house /Apartment,,53.96405,-6.36514
29/01/2024,"351 NAVAN RD, DUBLIN 7, DUBLIN",Dublin,D07VE03,"€625,000.00",No,No,Second-Hand Dwelling house /Apartment,,53.369856,-6.3241281
16/04/2024,"6 CASTLE VIEW RD, CLONDALKIN, DUBLIN 22",Dublin,D22KP74,"€360,000.00",No,No,Second-Hand Dwelling house /Apartment,,53.33306,-6.24889
08/07/2024,"31 CONEY HALL, MORNINGTON, MEATH",Meath,A92N9T0,"€35,000.00",Yes,No,Second-Hand Dwelling house /Apartment,,53.72333,-6.2825
27/08/2024,"9 KAVANAGH HALL, COLLEGE WOOD, CASTLEKNOCK",Dublin,D15K585,"€365,000.00",No,No,Second-Hand Dwelling house /Apartment,,53.33306,-6.24889
02/05/2024,"EAST END, BOHERBUE, MALLOW",Cork,P51E191,"€60,000.00",No,No,Second-Hand Dwelling house /Apartment,,52.1597156,-9.0623594
28/08/2024,"26 PARKLANDS BOULEVARD, SAGGART, DUBLIN 24",Dublin,D24E3WN,"€570,000.00",No,No,Second-Hand Dwelling house /Apartment,,53.2873107,-6.4366592
14/06/2024,"21 BRAMPTON COURT, BISHOPSTOWN, CORK",Cork,T12W3YC,"€475,500.00",No,No,Second-Hand Dwelling house /Apartment,,51.8760874,-8.522782
06/11/2024,"20 HARBOUR  VIEW, THE SQUARE, CLIFDEN",Galway,H71TD51,"€315,000.00",No,No,Second-Hand Dwelling house /Apartment,,53.48907,-10.0191
09/05/2024,"BALLINDURROW, MULTYFARNHAM, CO WESTMEATH",Westmeath,N91K379,"€170,000.00",No,No,Second-Hand Dwelling house /Apartment,,53.6173403,-7.3892153
23/07/2024,"64 STEEVENS GATE JAMES ST, DUBLIN 8, DUBLIN",Dublin,D08K196,"€415,000.00",Yes,No,Second-Hand Dwelling house /Apartment,,53.33306,-6.24889
10/10/2024,"5 SHANCASTLE LAWNS, QUARRYVALE, CLONDALKIN",Dublin,D22N2F2,"€321,500.00",No,No,Second-Hand Dwelling house /Apartment,,53.33306,-6.24889
25/03/2024,"THE PALMS, PARNELL RD, BRAY",Wicklow,A98Y279,"€575,000.00",No,No,Second-Hand Dwelling house /Apartment,,53.20278,-6.09833
10/12/2024,"47  Rose Garderns, Rose Hill, Annabella",Cork,,"€352,422.91",No,Yes,New Dwelling house /Apartment,,51.89797,-8.47061
10/10/2024,"BARNAHASK, CURRACLOE, ENNISCORTHY",Wexford,Y21FY60,"€575,000.00",No,No,Second-Hand Dwelling house /Apartment,,52.50083,-6.55778
29/02/2024,"19 GLENHILL RD, FINGLAS, DUBLIN 11",Dublin,D11W9X2,"€413,000.00",No,No,Second-Hand Dwelling house /Apartment,,53.3841111,-6.2922245
21/05/2024,"CHURCH STREET, STROKESTOWN, COUNTY ROSCOMMON",Roscommon,,"€50,000.00",No,No,Second-Hand Dwelling house /Apartment,,53.7768832,-8.1053427
08/11/2024,"3 danehill, phoenix park racecourse, castleknock",Dublin,,"€436,123.35",No,Yes,New Dwelling house /Apartment,,53.33306,-6.24889
16/07/2024,"THE SYCAMORES, TURLOUGH, BALLYMOE",Galway,F45YC80,"€210,000.00",No,No,Second-Hand Dwelling house /Apartment,,53.7,-8.46667
19/11/2024,"1 Clay Farm Court, Clay Farm, Leopardstown",Dublin,,"€687,200.00",No,Yes,New Dwelling house /Apartment,,53.33306,-6.24889
06/03/2024,"27 MELVILLE WAY MEAKSTOWN, FINGLAS DUBLIN 11, DUBLIN",Dublin,D11YV10,"€223,500.00",No,No,Second-Hand Dwelling house /Apartment,,53.33306,-6.24889
26/09/2024,"37 CLAREVILLE, POULADUFF RD, CORK",Cork,T12C8X3,"€330,000.00",No,No,Second-Hand Dwelling house /Apartment,,51.89797,-8.47061
24/10/2024,"8 Tully Court, Cherrywood",Dublin,,"€497,797.36",No,Yes,New Dwelling house /Apartment,,53.33306,-6.24889
22/11/2024,"24 An Troman, Castlebridge, Co. Wexford",Wexford,,"€273,127.75",No,Yes,New Dwelling house /Apartment,,52.3811973,-6.451736
05/07/2024,"13 MONREAD CRESCENT, NAAS, KILDARE",Kildare,W91HKW2,"€545,000.00",No,No,Second-Hand Dwelling house /Apartment,,53.2274141,-6.6529643
28/08/2024,"GORTINREAGH, LIFFORD, DONEGAL",Donegal,,"€170,000.00",No,No,Second-Hand Dwelling house /Apartment,,54.8528026,-7.5546933
23/08/2024,"BALLINACOR CROSSROADS, KILLYGORDON, DONEGAL",Donegal,F93F5Y6,"€290,000.00",No,No,Second-Hand Dwelling house /Apartment,,54.8,-7.68333
13/11/2024,"2 The Park, Kilmartin Grove",Dublin,,"€378,854.00",No,Yes,New Dwelling house /Apartment,,53.33306,-6.24889
18/10/2024,"65 Haven Way, Merepark, Newtownmountkennedy",Wicklow,,"€361,064.73",No,Yes,New Dwelling house /Apartment,,53.0945861,-6.1193896
12/07/2024,"APT 4 - 90 THE QUAY, WATERFORD",Waterford,,"€54,000.00",No,No,Second-Hand Dwelling house /Apartment,,52.0658779,-7.8706182
14/06/2024,"35 Aderrig Park Avenue, Adamstown, Co.Dublin",Dublin,,"€488,986.00",No,Yes,New Dwelling house /Apartment,,53.3420431,-6.4738207
26/11/2024,"PINEVIEW, CARRICKHILL RD, PORTMARNOCK",Dublin,D13TF90,"€525,000.00",No,No,Second-Hand Dwelling house /Apartment,,53.33306,-6.24889
09/08/2024,"15 UPPER EDEN RD, GLENAGEARY, DUBLIN",Dublin,A96R8X9,"€975,000.00",No,No,Second-Hand Dwelling house /Apartment,,53.2863088,-6.1300207
09/10/2024,"12 WILLOUISE, SALLINS, NAAS",Kildare,W91FNH5,"€250,000.00",No,No,Second-Hand Dwelling house /Apartment,,53.2505635,-6.6577492
25/04/2024,"17 SWELLAN LOWER, CAVAN TOWN, CAVAN",Cavan,H12HD89,"€184,000.00",No,No,Second-Hand Dwelling house /Apartment,,53.99083,-7.36056
15/11/2024,"CORNMARKET, BALLINROBE, COUNTY MAYO",Mayo,F31F702,"€145,000.00",No,No,Second-Hand Dwelling house /Apartment,,53.63333,-9.23333
27/06/2024,"44 CLUAIN RI, CAHEROYAN, ATHENRY",Galway,H65FC97,"€286,500.00",No,No,Second-Hand Dwelling house /Apartment,,53.29639,-8.74306
29/11/2024,"APT 110, TRIMBLESTON, GOATSTOWN RD DUBLIN 14",Dublin,D14YH76,"€1,375,000.00",No,No,Second-Hand Dwelling house /Apartment,,53.33306,-6.24889
17/04/2024,"69 NORTHUMBERLANDS, LOVE LANE, DUBLIN 2",Dublin,D02AK72,"€405,000.00",No,No,Second-Hand Dwelling house /Apartment,,53.33306,-6.24889
23/08/2024,"LISHEENKYLE, ATHERNY, GALWAY",Galway,H65N510,"€360,000.00",No,No,Second-Hand Dwelling house /Apartment,,53.27194,-9.04889
03/12/2024,"LIME TREE LODGE, THE AVENUE, ADARE",Limerick,V94E4F1,"€965,000.00",No,No,Second-Hand Dwelling house /Apartment,,52.56194,-8.79556
09/09/2024,"11 CORRIG HOUSE, CORRIG AVE, DUN LAOGHAIRE",Dublin,A96DX29,"€293,000.00",No,No,Second-Hand Dwelling house /Apartment,,53.33306,-6.24889
13/09/2024,"Bumble Bee Cottage, Largysillagh, Killybegs DL89311F",Donegal,F94HY43,"€330,000.00",No,No,Second-Hand Dwelling house /Apartment,,54.91667,-8.0
10/07/2024,"44 MILLRACE AVE, SAGGART, DUBLIN",Dublin,D24V0PC,"€293,000.00",No,No,Second-Hand Dwelling house /Apartment,,53.2808227,-6.4509888
13/06/2024,"6 ABBEY STREET, TIPPERARY, CO TIPPERARY",Tipperary,E34XF84,"€125,000.00",No,No,Second-Hand Dwelling house /Apartment,,52.8627163,-8.1974842
06/12/2024,"44  45 and 46 Park Avenue, Friary Walk, Callan",Kilkenny,,"€802,484.58",No,Yes,New Dwelling house /Apartment,,52.545,-7.39111
20/06/2024,"CORSTOWN, DUNLEER, CO LOUTH",Louth,A92D5X7,"€600,000.00",No,No,Second-Hand Dwelling house /Apartment,,53.8411735,-6.3700485
20/11/2024,"36 Orchard Cresent, Greenhill, Clonhaston",Wexford,,"€308,370.05",No,Yes,New Dwelling house /Apartment,,52.5,-6.66667
28/08/2024,"57 CHERRYVALE, BAY ESTATE, DUNDALK",Louth,A91F1W3,"€305,000.00",No,No,Second-Hand Dwelling house /Apartment,,53.9975346,-6.3774612
15/08/2024,"249 Station Walk, Rickardstown, Newbridge",Kildare,,"€325,991.19",No,Yes,New Dwelling house /Apartment,,53.18194,-6.79667
11/03/2024,"35 TAYLEUR'S POINT, QUAY ROAD, RUSH",Dublin,K56HW90,"€448,000.00",No,No,Second-Hand Dwelling house /Apartment,,53.33306,-6.24889
04/07/2024,"26 Thornbrook, Herbert Road, Bray",Wicklow,,"€660,793.00",No,Yes,New Dwelling house /Apartment,,53.20278,-6.09833
18/06/2024,"THE HACIENDA, MOUNT HAWK, TRALEE",Kerry,V92HYN2,"€357,000.00",No,No,Second-Hand Dwelling house /Apartment,,52.27042,-9.70264
16/08/2024,"UPPER, WATERBARRACK, KILKENNY",Kilkenny,,"€200,000.00",Yes,No,Second-Hand Dwelling house /Apartment,,52.65417,-7.25222
29/05/2024,"76 LEINSTER AVENUE, NORTH STRAND, DUBLIN 3",Dublin,D03PK75,"€307,000.00",No,No,Second-Hand Dwelling house /Apartment,,53.33306,-6.24889
27/11/2024,"4 College Park Crescent, Nyne Park, Callan Road",Kilkenny,,"€406,432.12",Yes,Yes,New Dwelling house /Apartment,,52.65417,-7.25222
04/07/2024,"BIRCHGROVE, BALLINASLOE, GALWAY",Roscommon,H53PN84,"€275,000.00",No,No,Second-Hand Dwelling house /Apartment,,53.63333,-8.18333
14/02/2024,"19 PALMER COURT, RUSH, CO. DUBLIN",Dublin,K56FF29,"€325,000.00",No,No,Second-Hand Dwelling house /Apartment,,53.5315872,-6.0962963
11/01/2024,"5 CARTRON DR, ATHLONE, WESTMEATH",Westmeath,N37F886,"€267,000.00",No,No,Second-Hand Dwelling house /Apartment,,53.422388,-7.9099062
25/04/2024,"2 GLENCAIRN AVE, THE GALLOPS, LEOPARDSTOWN DUBLIN 18",Dublin,D18P489,"€752,775.00",No,No,Second-Hand Dwelling house /Apartment,,53.33306,-6.24889
19/03/2024,"18 ST JOHNS PARK, CASTLEISLAND, KERRY",Kerry,V92NW13,"€130,000.00",No,No,Second-Hand Dwelling house /Apartment,,52.23333,-9.46667
24/09/2024,"65 CALDERWOOD RD, DRUMCONDRA, DUBLIN 9",Dublin,D09W7T2,"€955,000.00",No,No,Second-Hand Dwelling house /Apartment,,53.3774961,-6.2398595
02/10/2024,"88 WHITEOAKS, SARSFIELD RD, WILTON",Cork,T12KAH2,"€205,000.00",No,No,Second-Hand Dwelling house /Apartment,,51.89797,-8.47061
21/06/2024,"100 SOMERTON, DONABATE, DUBLIN",Dublin,K36W208,"€620,000.00",No,No,Second-Hand Dwelling house /Apartment,,53.4927807,-6.1433903
05/11/2024,"4 ST PATRICKS TERRACE, BLARNEY, CORK",Cork,T23V568,"€260,000.00",No,No,Second-Hand Dwelling house /Apartment,,51.93333,-8.56667
06/12/2024,"ROSSNOWLAGH LOWER, ROSSNOWLAGH, COUNTY DONEGAL",Donegal,F9487D1,"€130,000.00",No,No,Second-Hand Dwelling house /Apartment,,54.5655664,-8.2114405
01/11/2024,"5 STATIONCOURT WAY, COOLMINE, DUBLIN 15",Dublin,D15WP49,"€272,000.00",No,No,Second-Hand Dwelling house /Apartment,,53.33306,-6.24889
16/12/2024,"2 DRUMMOND PLACE, HAROLDS CROSS, DUBLIN 6",Dublin,D06EN27,"€525,000.00",No,No,Second-Hand Dwelling house /Apartment,,53.33306,-6.24889
10/05/2024,"22 CUSHLAWN WAY, TALLAGHT, DUBLIN 24",Dublin,D24NP7K,"€302,000.00",No,No,Second-Hand Dwelling house /Apartment,,53.2728601,-6.3756455
05/06/2024,"ST BRIDGETS, MILLTOWN, NEWCASTLE",Dublin,D22V046,"€465,000.00",No,No,Second-Hand Dwelling house /Apartment,,53.33306,-6.24889
03/04/2024,"NEWTOWN, FETHARD, TIPPERARY",Tipperary,E91CY91,"€800,000.00",No,No,Second-Hand Dwelling house /Apartment,,52.47333,-8.15583
30/04/2024,"95 Adamstown Park, Tandys  Lane, Adamstown",Dublin,,"€497,797.35",No,Yes,New Dwelling house /Apartment,,53.33306,-6.24889
15/11/2024,"APT 3, GLENCARRIG COURT, RICHMOND RD DUBLIN 3",Dublin,D03NP58,"€300,000.00",No,No,Second-Hand Dwelling house /Apartment,,53.33306,-6.24889
21/03/2024,"66 GRACE OMALLEY RD, HOWTH, DUBLIN 13",Dublin,D13T258,"€485,000.00",No,No,Second-Hand Dwelling house /Apartment,,53.33306,-6.24889
02/05/2024,"10 BROCKLEY PARK, STRADBALLY, LAOIS",Laois,R32E6K8,"€195,000.00",No,No,Second-Hand Dwelling house /Apartment,,53.0165999,-7.136965
14/09/2024,"23 Halwell Green, Hallwell, Adamstown",Dublin,,"€286,343.61",No,Yes,New Dwelling house /Apartment,,53.33306,-6.24889
31/10/2024,"17-36 Radharc an tSruthain, Quin, County Clare",Clare,,"€6,201,311.89",No,Yes,New Dwelling house /Apartment,,52.81861,-8.86694
02/02/2024,"4 ST PATRICKS TERRACE, GREEN STREET, CORK CITY",Cork,T12N8AW,"€250,000.00",No,No,Second-Hand Dwelling house /Apartment,,51.89797,-8.47061
22/08/2024,"25 SPRINGHILL PARK, KILLINEY, DUBLIN",Dublin,A96VE00,"€925,000.00",No,No,Second-Hand Dwelling house /Apartment,,53.2732736,-6.1199569
13/02/2024,"17 PROSPECT COURT, RATHFARNHAM, DUBLIN 16",Dublin,D16KD34,"€505,000.00",No,No,Second-Hand Dwelling house /Apartment,,53.33306,-6.24889
30/08/2024,"5 BAYVIEW LAWNS, KILLINEY, DUBLIN 14",Dublin,A96H920,"€603,900.00",No,No,Second-Hand Dwelling house /Apartment,,53.33306,-6.24889
18/11/2024,"CHARLES ST, CASTLEBAR, MAYO",Mayo,F23CY92,"€220,000.00",No,No,Second-Hand Dwelling house /Apartment,,53.8580359,-9.2945041
20/02/2024,"84 Dromdiah Park, Clashdermot East, Killeagh",Cork,,"€275,770.00",No,Yes,New Dwelling house /Apartment,,51.94222,-7.99778
15/08/2024,"APARTMENT 42, PRIORY QUAY, NEW ROSS",Wexford,Y34Y149,"€73,111.11",No,No,Second-Hand Dwelling house /Apartment,,52.39667,-6.93667
19/12/2024,"23 Rockview Square, Rockview, Mountrath Road",Laois,,"€339,207.05",No,Yes,New Dwelling house /Apartment,,53.0,-7.4
13/11/2024,"9 ANLEY COURT, ESKER LANE, LUCAN",Dublin,K78R978,"€341,000.00",No,No,Second-Hand Dwelling house /Apartment,,53.33306,-6.24889
17/12/2024,"3 GRACEFIELD COURT, ARTANE, DUBLIN 5",Dublin,D05P799,"€451,000.00",No,No,Second-Hand Dwelling house /Apartment,,53.33306,-6.24889
05/07/2024,"BOLANEY, BALLYCANEW, GOREY",Wexford,Y25TR29,"€141,000.00",Yes,No,Second-Hand Dwelling house /Apartment,,52.67472,-6.2925
12/01/2024,"39 RAILWAY VIEW, ROSCREA, TIPPERARY",Tipperary,E53TV20,"€116,000.00",No,No,Second-Hand Dwelling house /Apartment,,52.47333,-8.15583
26/04/2024,"KILLEADAN, LEOPARDSTOWN ROAD, FOXROCK",Dublin,D18A8X3,"€1,105,000.00",No,No,Second-Hand Dwelling house /Apartment,,53.2767348,-6.1880695
24/02/2024,"ALMONDSTOWN, CLOGHERHEAD, CO LOUTH",Louth,A92HX08,"€485,000.00",No,No,Second-Hand Dwelling house /Apartment,,53.79361,-6.2375
26/01/2024,"4 ASHFORD COURT, HEADFORD, GALWAY",Galway,H91P26W,"€325,000.00",No,No,Second-Hand Dwelling house /Apartment,,53.46667,-9.1
20/06/2024,"33 BIRCHFIELDS, BOG ROAD, PORTARLINGTON",Offaly,,"€208,796.00",Yes,Yes,New Dwelling house /Apartment,,53.25,-7.5
31/05/2024,"50 LIBERTY COURT, CLANBRASSIL ST, CHRISTCHURCH DUBLIN 8",Dublin,D08V240,"€448,080.00",No,No,Second-Hand Dwelling house /Apartment,,53.33306,-6.24889
02/02/2024,"110 CLUAIN AIRNE, SHANNON, COUNTY CLARE",Clare,V14NX20,"€205,000.00",No,No,Second-Hand Dwelling house /Apartment,,52.7015206,-8.8820556
16/10/2024,"33 Balleally Rise, Hands Lane, Lusk",Dublin,,"€416,299.56",Yes,Yes,New Dwelling house /Apartment,,53.33306,-6.24889
10/09/2024,"143 GLASNEVIN AVE, GLASNEVIN, DUBLIN 11",Dublin,D11Y2V0,"€610,000.00",No,No,Second-Hand Dwelling house /Apartment,,53.3898555,-6.2692511
15/08/2024,"35 COLLEGE VIEW, SILLOGE RD, BALLYMUN DUBLIN 11",Dublin,D11AD71,"€235,000.00",No,No,Second-Hand Dwelling house /Apartment,,53.33306,-6.24889
13/03/2024,"23 Egremont, Church Road, Killiney",Dublin,,"€610,000.00",No,Yes,New Dwelling house /Apartment,,53.33306,-6.24889
26/03/2024,"APARTMENT 1B, MARYFIELD COURT, NAAS",Kildare,W91AE35,"€252,000.00",No,No,Second-Hand Dwelling house /Apartment,,53.2370397,-6.6472424
03/04/2024,"48 RUSH HALL, MOUNTRATH, CO LAOIS",Laois,R32HK06,"€187,500.00",No,No,Second-Hand Dwelling house /Apartment,,52.99889,-7.47278
31/10/2024,"2 INGLEWOOD CLOSE APTS, BUNCLODY, WEXFORD",Wexford,Y21HR90,"€169,000.00",No,No,Second-Hand Dwelling house /Apartment,,52.6553,-6.65359
21/11/2024,"50 Ormond Avenue, Rush",Dublin,,"€427,312.00",No,Yes,New Dwelling house /Apartment,,53.5237015,-6.0957571
27/09/2024,"No. 20 River Walk, Ballymore Eustace, Co. Kildare",Kildare,,"€414,207.00",No,Yes,New Dwelling house /Apartment,,53.13333,-6.61667
04/09/2024,"24 WATERGATE, TALLAGHT, DUBLIN 24",Dublin,D24C2VE,"€442,000.00",No,No,Second-Hand Dwelling house /Apartment,,53.283634,-6.3640522
28/05/2024,"81 AN FIODAN, DOUGHUISKA RD, GALWAY",Galway,H91WYV4,"€285,000.00",Yes,No,Second-Hand Dwelling house /Apartment,,53.27194,-9.04889
20/12/2024,"7 BATHE ABBEY, DULEEK, MEATH",Meath,A92X9X5,"€415,000.00",No,No,Second-Hand Dwelling house /Apartment,,53.6543993,-6.4267706
05/12/2024,"22 CHAPEL LANE, CHURCHFIELD, CASTLEMAGNER",Cork,P51P8N7,"€295,000.00",No,No,Second-Hand Dwelling house /Apartment,,52.165148,-8.8285503
20/12/2024,"KILLAHEEN, REENS, ARDAGH",Limerick,V42ND00,"€217,000.00",No,No,Second-Hand Dwelling house /Apartment,,52.49444,-9.06306
15/07/2024,"15 MOUNT LEINSTER PARK, TULLOW RD, CARLOW",Carlow,R93C4H3,"€228,000.00",No,No,Second-Hand Dwelling house /Apartment,,52.84083,-6.92611
15/02/2024,"BELLA VISTA, MONTPELLIER, BOHERNABREENA",Dublin,,"€300,000.00",Yes,No,Second-Hand Dwelling house /Apartment,,53.33306,-6.24889
06/12/2024,"WOODTOWN, DRUMCONRATH, NAVAN MEATH",Meath,C15YP29,"€315,000.00",No,No,Second-Hand Dwelling house /Apartment,,53.65278,-6.68139
20/12/2024,"CORTHOON, MANORHAMILTON, CO LEITRIM",Leitrim,,"€68,000.00",No,No,Second-Hand Dwelling house /Apartment,,54.30639,-8.17611
24/04/2024,"41B ABBEY VIEW, KINSALE, CORK",Cork,P17F516,"€300,000.00",No,No,Second-Hand Dwelling house /Apartment,,51.7059879,-8.5295668
25/03/2024,"APT 5 BLOCK A, STRADBROOK, DUBLIN RD",Laois,,"€175,000.00",No,No,Second-Hand Dwelling house /Apartment,,53.0,-7.4
21/02/2024,"127 CULIMORE ROAD, PALMERSTOWN, DUBLIN 20",Dublin,D20RX37,"€442,000.00",No,No,Second-Hand Dwelling house /Apartment,,53.33306,-6.24889
25/01/2024,"THE TEACHERS HOUSE, GALWOLIE, DOOCHARY",Donegal,,"€70,000.00",No,No,Second-Hand Dwelling house /Apartment,,54.90639,-8.20944
13/02/2024,"8 AN GRIANÁN, RIVER STREET, KILLENAULE",Tipperary,E41NN59,"€195,000.00",Yes,No,Second-Hand Dwelling house /Apartment,,52.47333,-8.15583
06/09/2024,"61 Maolchnoc, Ballymoneen Road, Galway",Galway,,"€427,312.78",No,Yes,New Dwelling house /Apartment,,53.27194,-9.04889
28/06/2024,"23 FAIRHILL DRIVE, FAIRHILL, CORK",Cork,T23A2X4,"€84,000.00",Yes,No,Second-Hand Dwelling house /Apartment,,51.89797,-8.47061
07/02/2024,"41 HAMPTON WOODS, BALBRIGGAN, DUBLIN",Dublin,K32D439,"€290,000.00",No,No,Second-Hand Dwelling house /Apartment,,,
15/04/2024,"18 Avondale Grange, Ballygannon Road, Rathdrum",Wicklow,,"€299,118.94",No,Yes,New Dwelling house /Apartment,,52.92639,-6.23556
20/08/2024,"45 LINNETFIELD WALK, CLONEE, DUBLIN 15",Dublin,D15N9P9,"€360,000.00",No,No,Second-Hand Dwelling house /Apartment,,53.33306,-6.24889
02/02/2024,"12A The Elms, Oakwood Lawns, St Marys Road",Offaly,,"€286,343.61",No,Yes,New Dwelling house /Apartment,,53.35222,-7.20167
03/10/2024,"14 Kylemore Wood, Kylewood, Killiney",Dublin,,"€669,603.00",No,Yes,New Dwelling house /Apartment,,53.33306,-6.24889
12/11/2024,"38 ARD NA SI LIS NA DARA, CARRICK RD, DUNDALK",Louth,A91A243,"€195,000.00",No,No,Second-Hand Dwelling house /Apartment,,54.0,-6.41667
03/07/2024,"JONESBORO, CARNAROSS, KELLS",Meath,,"€350,000.00",No,No,Second-Hand Dwelling house /Apartment,,53.72639,-6.87917
07/02/2024,"24 DUBLIN ST, DUNDALK, LOUTH",Louth,A91H5H2,"€184,000.00",No,No,Second-Hand Dwelling house /Apartment,,54.0007503,-6.4055086
13/08/2024,"7 YEW PARK, VIRGINIA, CAVAN",Cavan,A82A504,"€296,000.00",No,No,Second-Hand Dwelling house /Apartment,,53.8326039,-7.0685321
21/06/2024,"BALLINVALLEY LANE, KILDAVIN, CO CARLOW",Carlow,Y21D529,"€435,000.00",No,No,Second-Hand Dwelling house /Apartment,,52.68139,-6.68667
27/05/2024,"KILLARNEY RD, ABBEYFEALE, LIMERICK",Limerick,V94H70A,"€270,000.00",No,No,Second-Hand Dwelling house /Apartment,,52.38139,-9.3025
04/04/2024,"74 CLUAIN ARD, SEA RD, ARKLOW",Wicklow,Y14WP64,"€331,000.00",No,No,Second-Hand Dwelling house /Apartment,,52.79306,-6.14139
07/10/2024,"20 CATHEDRAL VIEW, MULLINGAR, WESTMEATH",Westmeath,N91Y8H3,"€85,000.00",No,No,Second-Hand Dwelling house /Apartment,,53.5262774,-7.3500497
22/11/2024,"2325 MARYVILLE, KILDARE, KILDARE",Kildare,R51R650,"€225,000.00",No,No,Second-Hand Dwelling house /Apartment,,53.1611877,-6.9049384
06/12/2024,"3 OAKLEIGH DR, LONGWOOD, MEATH",Meath,A83W732,"€350,000.00",No,No,New Dwelling house /Apartment,,53.45389,-6.92194
11/07/2024,"5 CLYBAUN HEIGHTS, KNOCKNACARRA, SALTHILL",Galway,H91P93H,"€602,000.00",No,No,Second-Hand Dwelling house /Apartment,,53.27194,-9.04889
23/05/2024,"Esker Beg, Bealnamullia, Athlone",Roscommon,,"€40,000.00",No,No,Second-Hand Dwelling house /Apartment,,53.63333,-8.18333
19/07/2024,"2 ANVILLE COURT, BALLINAMORE, LEITRIM",Leitrim,N41X788,"€162,000.00",No,No,Second-Hand Dwelling house /Apartment,,54.0520652,-7.799814
18/10/2024,"29A WOODFORD DOWNS, CLONDALKIN, DUBLIN",Dublin,D22V2C9,"€345,000.00",Yes,No,Second-Hand Dwelling house /Apartment,,53.3250291,-6.3786519
21/02/2024,"BREWERY ST., CASTLEBELLINGHAM, CASTLEBELLINGHAM",Louth,A91W732,"€270,000.00",No,No,Second-Hand Dwelling house /Apartment,,53.90083,-6.39028
10/11/2024,"15 PARK DR, PARK RD, KILLARNEY",Kerry,V93HPP3,"€330,000.00",No,No,Second-Hand Dwelling house /Apartment,,52.05,-9.51667
07/06/2024,"10 CASTLEWOOD TERRACE, RATHMINES, DUBLIN 6",Dublin,D06E8W7,"€465,000.00",No,No,Second-Hand Dwelling house /Apartment,,53.3234981,-6.2628528
08/03/2024,"97 HAMPTON SQ, NAVAN RD, DUBLIN 7",Dublin,D07XD5N,"€355,000.00",No,No,Second-Hand Dwelling house /Apartment,,53.3610103,-6.302845
04/10/2024,"CULKEENY, MALIN, CO DONEGAL",Donegal,,"€61,000.00",No,No,Second-Hand Dwelling house /Apartment,,55.3,-7.26667
31/05/2024,"84 ST HELENS VILLAGE, KILRANE, ROSSLARE HARBOUR",Wexford,Y35D272,"€235,000.00",No,No,Second-Hand Dwelling house /Apartment,,52.25,-6.35
05/04/2024,"22 RYECROFT, CHURCH RD, BRAY",Wicklow,A98V009,"€585,000.00",No,No,Second-Hand Dwelling house /Apartment,,53.20278,-6.09833
03/05/2024,"18 WINDELE RD, DRUMCONDRA, DUBLIN 9",Dublin,D09E4X7,"€350,000.00",No,No,Second-Hand Dwelling house /Apartment,,53.3735787,-6.2593508
01/07/2024,"No 20 The Elms, Castleredmond, Midleton",Cork,,"€361,233.00",No,Yes,New Dwelling house /Apartment,,51.91526,-8.18052
21/03/2024,"MOATE, KILLAVALLA, WESTPORT",Mayo,F28VN81,"€210,000.00",No,No,Second-Hand Dwelling house /Apartment,,53.8,-9.51667
22/12/2024,"TOBERSCARDEN, TUBBERCURRY, CO SLIGO",Sligo,,"€50,000.00",No,No,Second-Hand Dwelling house /Apartment,,54.05,-8.73333
22/01/2024,"CRONEMORE, AUGHRIM, CO WICKLOW",Wicklow,,"€313,000.00",No,No,Second-Hand Dwelling house /Apartment,,52.85333,-6.3275
23/10/2024,"KILKENNY, GLENTIES, DONEGAL",Donegal,,"€316,500.00",No,No,Second-Hand Dwelling house /Apartment,,54.832353,-8.350546
19/12/2024,"TIGIN BAN, RASSAN, BALLYJAMESDUFF",Mayo,A82T207,"€313,000.00",No,No,Second-Hand Dwelling house /Apartment,,53.75977,-9.11719
02/07/2024,"9 COASTGUARD TERRACE, PUTLAND RD, BRAY",Wicklow,A98VX44,"€3,200,000.00",No,No,Second-Hand Dwelling house /Apartment,,53.20278,-6.09833
09/08/2024,"19 BANNANTYNE, STEAMBOAT QUAY, LIMERICK",Limerick,V94TX99,"€256,000.00",No,No,Second-Hand Dwelling house /Apartment,,52.66472,-8.62306
12/01/2024,"72 BRU NA HABHAINN, SLANE RD, NAVAN",Meath,C15VFX0,"€282,500.00",No,No,Second-Hand Dwelling house /Apartment,,53.65278,-6.68139
13/12/2024,"134 Clochan, Kilmeaden",Waterford,,"€348,018.00",No,Yes,New Dwelling house /Apartment,,52.25833,-7.11194
28/11/2024,"AVONDALE, CONNOLLY, ENNIS",Clare,Y95X4X7,"€275,000.00",No,No,Second-Hand Dwelling house /Apartment,,52.84361,-8.98639
02/07/2024,"ROCKFIELD, CLAREMORRIS, MAYO",Mayo,,"€190,000.00",No,No,Second-Hand Dwelling house /Apartment,,53.76543,-8.9462937
13/06/2024,"34 MOUNTGORRY WOODS, MALAHIDE RD, SWORDS",Dublin,K67DN27,"€315,000.00",No,No,Second-Hand Dwelling house /Apartment,,,
09/10/2024,"57 KILLALA RD, CABRA WEST, DUBLIN 7",Dublin,D07V5W7,"€396,500.00",No,No,Second-Hand Dwelling house /Apartment,,53.3656156,-6.2998913
18/11/2024,"11 THE CROSS OF NEWTOWN, BALLYROAN, PORTLAOISE",Laois,R32AH04,"€260,000.00",No,No,Second-Hand Dwelling house /Apartment,,52.9478953,-7.3087372
14/08/2024,"BUMBLE BEE COTTAGE, TANKARDSTOWN, TULLOW",Carlow,R93ED23,"€258,000.00",No,No,Second-Hand Dwelling house /Apartment,,52.80028,-6.73694
16/12/2024,"25 JAMES GATE, JAMES ST, WATERFORD CITY",Waterford,X91AX65,"€137,000.00",No,No,Second-Hand Dwelling house /Apartment,,52.25833,-7.11194
05/11/2024,"56 ELIZABETH ST, DRUMCONDRA, DUBLIN 3",Dublin,D03P621,"€75,000.00",Yes,No,Second-Hand Dwelling house /Apartment,,53.33306,-6.24889
06/02/2024,"49 DANESFORT DR, LOUGHREA, CO GALWAY",Galway,H62T212,"€281,500.00",No,No,Second-Hand Dwelling house /Apartment,,53.2038265,-8.5577083
05/09/2024,"51 MARSH RD, SCOTCH HALL, DROGHEDA",Louth,A92DX90,"€180,000.00",No,No,Second-Hand Dwelling house /Apartment,,53.71889,-6.34778
27/11/2024,"65 JOHNSTOWN RD, DUN LAOGHAIRE, DUBLIN",Dublin,A96C3Y4,"€813,000.00",No,No,Second-Hand Dwelling house /Apartment,,53.2673835,-6.1476727
10/09/2024,"26 West Point Drive, Donegal Town",Donegal,,"€209,500.00",No,Yes,New Dwelling house /Apartment,,54.91667,-8.0
23/02/2024,"4 RADHARC NA COILLE, ST JOSEPH'S ROAD, PORTUMNA",Galway,H53KN97,"€130,000.00",No,No,Second-Hand Dwelling house /Apartment,,53.08917,-8.21889
26/04/2024,"OSCARS, BALLINORIG RD, TRALEE",Kerry,V92V0PX,"€300,000.00",No,No,Second-Hand Dwelling house /Apartment,,52.27042,-9.70264
31/07/2024,"Derreen, Achill Sound, Co Mayo",Mayo,,"€87,000.00",No,No,Second-Hand Dwelling house /Apartment,,53.92778,-9.93917
26/06/2024,"4 BECKETT PARK ROAD, MERCER VALE, LOUGHLINSTOWN",Dublin,,"€743,949.69",No,Yes,New Dwelling house /Apartment,,53.33306,-6.24889
08/11/2024,"8 Alder Avenue, Cluain Ard, Cobh",Cork,,"€281,938.00",No,Yes,New Dwelling house /Apartment,,51.85722,-8.29917
24/06/2024,"8 GATEWAY VIEW, BALLYMUN, DUBLIN 9",Dublin,D11VY43,"€207,000.00",No,No,Second-Hand Dwelling house /Apartment,,53.33306,-6.24889
17/07/2024,"CARRUERAGH, KILMORNA, LISTOWEL",Kerry,N31E199,"€190,000.00",No,No,Second-Hand Dwelling house /Apartment,,52.44639,-9.485
02/07/2024,"8 PRIORY PARK, NEWMARKET, CORK",Cork,P51T9V6,"€180,000.00",No,No,Second-Hand Dwelling house /Apartment,,52.21667,-9.0
08/11/2024,"BROOK LODGE, DOUGLAS, KILLORGLIN",Kerry,V93RP08,"€340,000.00",No,No,Second-Hand Dwelling house /Apartment,,52.1,-9.78333
26/01/2024,"3 WESTMINSTER COURT, FOXROCK, DUBLIN 18",Dublin,D18VW86,"€630,000.00",No,No,Second-Hand Dwelling house /Apartment,,53.33306,-6.24889
30/05/2024,"MAIN STREET, ENNISCRONE, CO SLIGO",Sligo,,"€150,000.00",No,No,Second-Hand Dwelling house /Apartment,,54.21285,-9.09317
19/06/2024,"509 THE EDGES 3, BEACON SOUTH QUARTER, SANDYFORD DUBLIN 18",Dublin,D18Y0C8,"€350,000.00",No,No,Second-Hand Dwelling house /Apartment,,53.33306,-6.24889
30/04/2024,"52 JOHNSGATE VILLAGE, LIMERICK, LIMERICK",Limerick,V94X9YD,"€115,000.00",No,No,Second-Hand Dwelling house /Apartment,,52.66472,-8.62306
25/09/2024,"APT NO 3 CLUAIN MHOR, CLYBAUN ROAD, GALWAY",Galway,H91RR63,"€265,000.00",No,No,Second-Hand Dwelling house /Apartment,,53.27194,-9.04889
11/10/2024,"BALLINVULLIN, NEWCASTLE WEST, LIMERICK",Limerick,V42Y304,"€326,000.00",No,No,Second-Hand Dwelling house /Apartment,,52.4300034,-9.0198386
11/09/2024,"6 The Way, Kilmartin Grove, Hollystown",Dublin,,"€405,286.00",No,Yes,New Dwelling house /Apartment,,53.33306,-6.24889
10/05/2024,"SILVER BEACH, GORMANSTON, MEATH",Meath,K32YN40,"€1,025,000.00",No,No,Second-Hand Dwelling house /Apartment,,53.64056,-6.23778
29/04/2024,"13 COURTOWN DRIVE, KNOCKNAHEENY, CORK",Cork,T23F2P4,"€76,000.00",Yes,No,Second-Hand Dwelling house /Apartment,,51.9058969,-8.5074063
04/06/2024,"LACKENSILLAGH, AGLISH, WATERFORD",Waterford,P51N403,"€290,000.00",No,No,Second-Hand Dwelling house /Apartment,,52.06889,-7.8275
22/08/2024,"37 GILTSPUR HEIGHTS, SOUTHERN CROSS, BRAY",Wicklow,A98KP73,"€580,000.00",No,No,Second-Hand Dwelling house /Apartment,,53.20278,-6.09833
17/05/2024,"APT 18, CEDAR LODGE, FARMLEIGH AVE",Dublin,D15TY8K,"€510,000.00",No,No,Second-Hand Dwelling house /Apartment,,53.3673956,-6.3608397
12/12/2024,"POMEROY, KNOCKHILL, CAHERDAVIN",Limerick,V94HC3R,"€332,500.00",No,No,Second-Hand Dwelling house /Apartment,,52.66472,-8.62306
04/12/2024,"49 MARGUERITE ROAD, GLASNEVIN, DUBLIN 9",Dublin,D09V6P0,"€725,000.00",No,No,Second-Hand Dwelling house /Apartment,,53.3682655,-6.2668409
09/08/2024,"35 The Avenue, Bellevue Hill, Bellevue",Wicklow,,"€651,982.37",No,Yes,New Dwelling house /Apartment,,53.0,-6.41667
05/07/2024,"2 Tara Glen Hall, Proudstown Road, Navan",Meath,,"€396,476.00",No,Yes,New Dwelling house /Apartment,,53.65278,-6.68139
26/03/2024,"100 Wilmount View, Moynalty Road, Kells",Meath,,"€339,207.00",No,Yes,New Dwelling house /Apartment,,53.72639,-6.87917
18/06/2024,"11 WATERVILLE, ENNIS RD, LIMERICK",Limerick,V94AYH3,"€515,000.00",No,No,Second-Hand Dwelling house /Apartment,,52.66472,-8.62306
20/03/2024,"STONEVIEW, BLARNEY, CORK",Cork,,"€537,000.00",No,No,Second-Hand Dwelling house /Apartment,,51.9479552,-8.5489321
16/12/2024,"18 SHANTALLA RD, BEAUMONT, DUBLIN 9",Dublin,D09NT35,"€450,000.00",No,No,Second-Hand Dwelling house /Apartment,,53.3876333,-6.2441131
31/10/2024,"17 THE BRAMBLES, CASTLEPARK, MALLOW",Cork,P51A5XR,"€265,000.00",No,No,Second-Hand Dwelling house /Apartment,,52.13333,-8.63333
08/10/2024,"MAIN STREET BONNEMAINE, BRIDGEND, LIFFORD PO",Donegal,,"€300,000.00",No,No,Second-Hand Dwelling house /Apartment,,54.91667,-8.0
21/03/2024,"2 ST CLEMENTS VILLAS, WINDMILL ST, LIMERICK",Limerick,V94WFW4,"€235,000.00",No,No,Second-Hand Dwelling house /Apartment,,52.66472,-8.62306
04/10/2024,"APT 5, BRIDGE HOUSE, ST PATRICKS QUAY",Cork,T23CX33,"€290,000.00",No,No,Second-Hand Dwelling house /Apartment,,51.89797,-8.47061
27/08/2024,"12 THE FERNS, BLACKROCK, DUNDALK",Louth,A91RR92,"€460,000.00",No,No,Second-Hand Dwelling house /Apartment,,53.9605309,-6.3688185
12/04/2024,"20 FOUNTAIN VIEW, NEW ROAD, BAILIEBOROUGH",Cavan,A82V0T8,"€125,000.00",No,No,Second-Hand Dwelling house /Apartment,,53.91667,-6.96667
18/11/2024,"OLDCASTLE ROAD, BALLYJAMESDUFF, CO.CAVAN",Cavan,A82A663,"€340,000.00",No,No,Second-Hand Dwelling house /Apartment,,53.85482,-7.1999743
29/02/2024,"27 THE ELMS, SPOLLANSTOWN, TULLAMORE",Offaly,R35RH92,"€320,000.00",No,No,Second-Hand Dwelling house /Apartment,,53.27389,-7.48889
10/12/2024,"REAGROVE, MINANE BRIDGE, CORK",Cork,P17D285,"€280,000.00",No,No,Second-Hand Dwelling house /Apartment,,51.76444,-8.37417
03/07/2024,"20 THE PARK, LARCH HILL, DUBLIN 17",Dublin,D17C736,"€295,000.00",No,No,Second-Hand Dwelling house /Apartment,,53.4000421,-6.2278612
19/08/2024,"MOYNEHALL, CO CAVAN",Cavan,H12HE16,"€140,000.00",No,No,Second-Hand Dwelling house /Apartment,,53.9679659,-7.3534196
14/08/2024,"110 SEAFIELD RD EAST, CLONTARF, DUBLIN 3",Dublin,D03DA52,"€1,250,000.00",No,No,Second-Hand Dwelling house /Apartment,,53.3636115,-6.1874167
30/07/2024,"97 ST BRENDANS AVE, COOLOCK, DUBLIN 5",Dublin,D05H3F9,"€30,000.00",Yes,No,Second-Hand Dwelling house /Apartment,,53.33306,-6.24889
09/08/2024,"56 POPES HILL, POPES RD, CORK",Cork,T23P803,"€190,000.00",No,No,Second-Hand Dwelling house /Apartment,,51.89797,-8.47061
03/12/2024,"54 DANEHILL, PHOENIX PARK RACECOURSE, CASTLEKNOCK",Dublin,D15PHC5,"€432,665.00",No,Yes,New Dwelling house /Apartment,,53.33306,-6.24889
18/09/2024,"61 THE ELMS, Lakeview, Midleton",Cork,,"€277,533.04",No,Yes,New Dwelling house /Apartment,,51.91526,-8.18052
27/09/2024,"268 Station Walk, Rickardstown, Newbridge",Kildare,,"€394,273.12",No,Yes,New Dwelling house /Apartment,,53.18194,-6.79667
30/08/2024,"2 WESTBOURNE LODGE, KNOCKLYON, DUBLIN 16",Dublin,D16C2Y7,"€725,000.00",No,No,Second-Hand Dwelling house /Apartment,,53.2878176,-6.3180085
18/04/2024,"96 Wilmount View, Moynalty, Kells",Meath,,"€385,000.00",No,Yes,New Dwelling house /Apartment,,53.72639,-6.87917
31/05/2024,"Apartment 14, De Verdon Place, Malahide Road",Dublin,,"€329,178.85",Yes,Yes,New Dwelling house /Apartment,,53.33306,-6.24889
03/12/2024,"10 RATHLIN HALL, WATERVILLE TERRACE, WATERVILLE ROAD",Dublin,D15E180,"€280,000.00",No,No,Second-Hand Dwelling house /Apartment,,53.33306,-6.24889
26/09/2024,"102 CASTLECURRAGH VALE, MULHUDDART, DUBLIN 15",Dublin,D15C2F7,"€298,000.00",No,No,Second-Hand Dwelling house /Apartment,,53.4041205,-6.3866279
06/12/2024,"92 LAUREL DR, ESKER HILLS, PORTLAOISE",Laois,R32X57E,"€230,000.00",No,No,Second-Hand Dwelling house /Apartment,,53.0432152,-7.2981532
01/10/2024,"FOREST PARK, OAKPARK, CARLOW",Carlow,R93D6E8,"€1,275,000.00",No,No,Second-Hand Dwelling house /Apartment,,52.8656304,-6.9017962
08/11/2024,"30 BLOCK B NEWTOWN GARDENS, NEWTOWNPARK AVENUE, BLACKROCK",Dublin,A94K1W0,"€441,001.00",No,No,New Dwelling house /Apartment,,53.33306,-6.24889
19/06/2024,"APT 51 THE VILLAGE, CLARRIN ROAD, BALLYTIVANIN",Sligo,,"€110,000.00",No,No,Second-Hand Dwelling house /Apartment,,54.26969,-8.46943
06/03/2024,"4 THE COASTGUARD, SCHULL, CORK",Cork,P81VW30,"€305,000.00",No,No,Second-Hand Dwelling house /Apartment,,51.52487,-9.54798
24/06/2024,"9 CAISLEAN CUIRT, THURLES, TIPPERARY",Tipperary,E41P8K1,"€297,500.00",No,No,Second-Hand Dwelling house /Apartment,,52.6604786,-7.8335279
18/11/2024,"10 DE VESCI COURT, PORTLAOISE, LAOIS",Laois,R32VH05,"€172,500.00",No,No,Second-Hand Dwelling house /Apartment,,53.03441,-7.29979
23/01/2024,"42 PHIBBLESTOWN HOUSE, CLONSILLA, DUBLIN",Dublin,D15PT86,"€271,000.00",No,No,Second-Hand Dwelling house /Apartment,,53.33306,-6.24889
27/03/2024,"APT 206, CRATLOE WOOD, OLD CRATLOE RD",Limerick,V94X56V,"€136,500.00",No,No,Second-Hand Dwelling house /Apartment,,52.66472,-8.62306
19/04/2024,"49 LONGWOOD PARK, GRANGE PARK, RATHFARNHAM DUBLIN 14",Dublin,D14W2V0,"€550,000.00",No,No,Second-Hand Dwelling house /Apartment,,53.33306,-6.24889
19/07/2024,"34 OATFIELD AVE, ROWLAGH, CLONDALKIN DUBLIN 22",Dublin,D22E3H9,"€190,000.00",No,No,Second-Hand Dwelling house /Apartment,,53.33306,-6.24889
07/02/2024,"74 CARROW RD, DRIMNAGH, DUBLIN 12",Dublin,D12EC84,"€316,170.00",No,No,Second-Hand Dwelling house /Apartment,,53.3326352,-6.3213152
04/10/2024,"CLASHANURE, OVENS, COUNTY CORK",Cork,P31HR63,"€765,000.00",No,No,Second-Hand Dwelling house /Apartment,,51.8915765,-8.7042955
09/08/2024,"20 DEERHAVEN WALK, CLONEE, DUBLIN 15",Dublin,D15A9K3,"€410,000.00",No,No,Second-Hand Dwelling house /Apartment,,53.33306,-6.24889
27/02/2024,"MOYVORE, BALLYMORE, MULLINGAR",Westmeath,N91ND71,"€167,000.00",No,No,Second-Hand Dwelling house /Apartment,,53.53333,-7.35
23/10/2024,"14 SLEEPY HOLLOW, KINSEALY LANE, MALAHIDE",Dublin,K36W209,"€950,000.00",No,No,Second-Hand Dwelling house /Apartment,,53.33306,-6.24889
22/11/2024,"HAWTHORN HOUSE, CHURCHTOWN BALLINAE, MULLINGAR",Westmeath,N91K7F9,"€700,000.00",No,No,Second-Hand Dwelling house /Apartment,,53.53333,-7.35
08/11/2024,"7 BRIOT GROVE, TEMPLERS HALL, KILBARRY",Waterford,X91T0XR,"€228,000.00",No,No,Second-Hand Dwelling house /Apartment,,52.23472,-7.13028
16/08/2024,"30 Rose Garden, Rose Hill, Annabella",Cork,,"€348,017.00",No,Yes,New Dwelling house /Apartment,,51.89797,-8.47061
27/05/2024,"5 THE WALLED GARDENS, CASTLETOWN, CELBRIDGE",Kildare,W23CK66,"€368,000.00",No,No,Second-Hand Dwelling house /Apartment,,53.3489592,-6.5402277
03/01/2024,"9 LANSDOWNE WOOD, LANSDOWNE RD, DUBLIN 4",Dublin,D04T660,"€825,000.00",No,No,Second-Hand Dwelling house /Apartment,,53.33306,-6.24889
19/12/2024,"CLONCALLOW, FORGNEY, BALLYMAHON",Longford,N39W567,"€189,000.00",No,No,Second-Hand Dwelling house /Apartment,,53.56667,-7.76667
19/07/2024,"14 Baile Adam, Ballyadam, Carrigtwohill",Cork,,"€300,000.00",Yes,Yes,New Dwelling house /Apartment,,51.90833,-8.26333
24/10/2024,"ALTAGHADERRY, KILLEA, CARRIGANS",Donegal,F93VX6W,"€132,000.00",No,No,Second-Hand Dwelling house /Apartment,,54.95,-7.43333
04/06/2024,"APT 74, THE OLD DISTILLERY, ANNE ST NORTH DUBLIN 7",Dublin,D07NX85,"€325,000.00",No,No,Second-Hand Dwelling house /Apartment,,53.33306,-6.24889
06/03/2024,"APT 1, DERAVARRA HOUSE, DERAVARRA",Westmeath,N91K466,"€193,000.00",No,Yes,New Dwelling house /Apartment,,53.5,-7.5
25/06/2024,"15 MAPLE COURT, RAKEEVAN, BAILIEBOROUGH",Cavan,A82DV78,"€153,000.00",No,No,Second-Hand Dwelling house /Apartment,,53.91667,-6.96667
26/01/2024,"46 OAKWOOD, MACROOM, CORK",Cork,P12HR80,"€250,000.00",No,No,Second-Hand Dwelling house /Apartment,,51.9015733,-8.9499631
13/11/2024,"LISBROCK, BRIDESWELL, ROSCOMMON",Roscommon,,"€211,000.00",No,No,Second-Hand Dwelling house /Apartment,,53.45,-8.1
13/12/2024,"25 CARRIGCOURT, CARRIGALINE, CORK",Cork,P43KV20,"€445,000.00",No,No,Second-Hand Dwelling house /Apartment,,51.8250298,-8.3964292
05/12/2024,"44 SHORESIDE PARK, SEA GARDENS, BRAY",Dublin,A98K6X4,"€440,528.00",No,Yes,New Dwelling house /Apartment,,53.33306,-6.24889
17/12/2024,"THE ORCHARD, AND STUDIO APARTMENT, CARPENTERSTOWN ROAD",Dublin,D15R2RV,"€3,500,000.00",No,No,Second-Hand Dwelling house /Apartment,,53.33306,-6.24889
22/07/2024,"6 Bothar an Chrainn, Ovens",Cork,,"€439,648.00",No,Yes,New Dwelling house /Apartment,,51.8824687,-8.6313848
26/08/2024,"129 THE WATERMILL, WATERMILL RD, RAHENY",Dublin,D05RV87,"€500,000.00",No,No,Second-Hand Dwelling house /Apartment,,53.33306,-6.24889
25/04/2024,"15 WOODSTOWN HEIGHTS, WOODSTOWN VILLAGE, BALLYCULLEN DUBLIN 16",Dublin,D16C7Y8,"€597,000.00",No,No,Second-Hand Dwelling house /Apartment,,53.33306,-6.24889
18/12/2024,"11 THE VILLAGE BETTYGLEN, RAHENY, DUBLIN 5",Dublin,D05VH01,"€570,000.00",No,No,Second-Hand Dwelling house /Apartment,,53.33306,-6.24889
29/10/2024,"7 THE GLENTIES, GURTEENROE, MACROOM",Cork,P12RF40,"€290,000.00",No,No,Second-Hand Dwelling house /Apartment,,51.9,-8.95
12/04/2024,"189 Shanowen, Rathcormac",Cork,,"€334,801.76",No,Yes,New Dwelling house /Apartment,,52.07694,-8.28194
24/10/2024,"49 LONGSHORE DR, JACOBS ISLAND, MAHON",Cork,T12P9XT,"€480,000.00",No,No,Second-Hand Dwelling house /Apartment,,51.89797,-8.47061
12/12/2024,"10 MARETIMO TERRACE, BLACKROCK, CO DUBLIN",Dublin,A94H3V5,"€1,200,000.00",No,No,Second-Hand Dwelling house /Apartment,,53.2997302,-6.1713875
12/01/2024,"CARTRONTROY, ATHLONE, WESTMEATH",Westmeath,N37NW94,"€342,000.00",No,No,Second-Hand Dwelling house /Apartment,,53.4190853,-7.9108692
13/06/2024,"67 Rockfield Close, newtownmountkennedy",Wicklow,,"€317,500.33",No,Yes,New Dwelling house /Apartment,,53.0841018,-6.114746
13/08/2024,"CLOONKEELAUN, ENNISCRONE, COUNTY SLIGO",Sligo,F26FW74,"€70,000.00",No,No,Second-Hand Dwelling house /Apartment,,54.21285,-9.09317
24/05/2024,"18 WESTBOURNE COURT, CLONDALKIN DUBLIN 22, DUBLIN",Dublin,D22N9F9,"€333,000.00",No,No,Second-Hand Dwelling house /Apartment,,53.33306,-6.24889
08/05/2024,"16 WOODFORD GARTH, CLONDALKIN, DUBLIN 22",Dublin,D22E7C1,"€357,000.00",No,No,Second-Hand Dwelling house /Apartment,,53.3229906,-6.3816899
26/06/2024,"45 PARKVIEW CLOSE, POPPINTREE, DUBLIN 11",Dublin,D11XN22,"€270,000.00",Yes,No,Second-Hand Dwelling house /Apartment,,53.33306,-6.24889
06/02/2024,"3 SCHOOL HOUSE LANE, ARDMORE, WESTPORT",Mayo,F28N2P4,"€250,000.00",No,No,Second-Hand Dwelling house /Apartment,,53.8,-9.51667
29/11/2024,"THURSTAINTOWN, BEAU PARK, NAVAN",Meath,C15H6X2,"€306,000.00",No,No,Second-Hand Dwelling house /Apartment,,53.65278,-6.68139
19/07/2024,"20 DUN EIMEAR AVENUE, EASTHAM ROAD, BETTYSTOWN",Meath,A92PFP8,"€377,000.00",No,No,Second-Hand Dwelling house /Apartment,,53.70139,-6.24611
23/05/2024,"108 BETTYGLEN, RAHENY, DUBLIN 5",Dublin,D05CK00,"€745,000.00",No,No,Second-Hand Dwelling house /Apartment,,53.3794394,-6.1598468
12/12/2024,"100 EDEN VILLAS, GLASTHULE, GLENAGEARY",Dublin,A96K510,"€499,000.00",No,No,Second-Hand Dwelling house /Apartment,,53.2847624,-6.1258824
25/10/2024,"4 THE FINISK, RIVER VALLEY, MALLOW",Cork,P51N5NV,"€275,000.00",No,No,Second-Hand Dwelling house /Apartment,,52.13333,-8.63333
28/06/2024,"2 ELTON COURT, SANDYCOVE, DUBLIN",Dublin,A96HH36,"€880,000.00",No,No,Second-Hand Dwelling house /Apartment,,53.284516,-6.112859
30/08/2024,"21 Parkleigh Gardens, Seven Mills, Clonburris",Dublin,,"€340,969.16",No,Yes,New Dwelling house /Apartment,,53.33306,-6.24889
06/11/2024,"AN LAGHAIRT, SHERLOCKSTOWN CROSSROADS, SALLINS",Kildare,,"€1,600,000.00",No,No,Second-Hand Dwelling house /Apartment,,53.24889,-6.66611
20/12/2024,"DERRYDUFF, ROSSCARBERY, COUNTY CORK",Cork,P85W583,"€80,000.00",No,No,Second-Hand Dwelling house /Apartment,,51.89797,-8.47061
27/03/2024,"APT 34, ST JAMES GATE, ANNE ST",Waterford,X91V099,"€89,000.00",No,No,Second-Hand Dwelling house /Apartment,,52.25833,-7.11194
19/09/2024,"52 KERINS PARK, TRALEE",Kerry,V92Y9YY,"€90,000.00",Yes,No,Second-Hand Dwelling house /Apartment,,52.27042,-9.70264
29/05/2024,"36 Woodbrook Avenue, Woodblock Road, Shankill",Dublin,,"€603,524.23",No,Yes,New Dwelling house /Apartment,,53.33306,-6.24889
23/10/2024,"1A  BARRACK GREEN, KINSALE, COUNTY CORK",Cork,P17Y036,"€405,000.00",No,No,Second-Hand Dwelling house /Apartment,,51.7106554,-8.5212307
06/12/2024,"MAABIT, CLONREDDAN, CREE",Clare,V15P683,"€285,000.00",No,No,Second-Hand Dwelling house /Apartment,,52.81556,-8.96667
01/03/2024,"10 RYEBRIDGE ROW, KILCOCK, KILDARE",Kildare,W23X9W0,"€390,000.00",No,No,Second-Hand Dwelling house /Apartment,,53.40222,-6.67083
22/03/2024,"73 MONALIN, WICKLOW HILLS, NEWTOWNMOUNTKENNEDY",Wicklow,A63T291,"€495,000.00",No,No,Second-Hand Dwelling house /Apartment,,53.0880643,-6.1138909
04/06/2024,"TULLYCULLION, BALLYSHANNON, DONEGAL TOWN",Donegal,F94P2KT,"€322,000.00",No,No,Second-Hand Dwelling house /Apartment,,54.91667,-8.0
10/01/2024,"25 UPPER WEAFER STREET, ENNISCORTHY, CO WEXFORD",Wexford,Y21E4A6,"€85,000.00",No,No,Second-Hand Dwelling house /Apartment,,52.50083,-6.55778
15/04/2024,"55 DAISYHILL MANOR, BALLYCONNELL, CAVAN",Cavan,H14DX24,"€177,500.00",No,No,Second-Hand Dwelling house /Apartment,,54.1097715,-7.5777363
22/11/2024,"2 MURGASTY COTTAGES, TIPPERARY TOWN, TIPPERARY",Tipperary,E34TH68,"€100,000.00",No,No,Second-Hand Dwelling house /Apartment,,52.47333,-8.15583
25/10/2024,"ORANS WELL, LAGORE RD, DUNSHAUGHLIN",Meath,A85K738,"€1,038,000.00",No,No,Second-Hand Dwelling house /Apartment,,53.5125,-6.54
27/06/2024,"3 LINTOWN WAY, LINTOWN HALL, KILKENNY",Kilkenny,R95E1W0,"€270,000.00",No,No,Second-Hand Dwelling house /Apartment,,52.6622606,-7.237389
26/03/2024,"GORTNAVERN, COOLBOY, LETTERKENNY",Donegal,F92RW5F,"€270,000.00",No,No,Second-Hand Dwelling house /Apartment,,54.95,-7.73333
28/06/2024,"22 oak church grove, oak church, kildare",Kildare,,"€352,422.00",No,Yes,New Dwelling house /Apartment,,53.15611,-6.91444
19/04/2024,"47 CHELSEA GARDENS, CLONTARF, DUBLIN 3",Dublin,D03RY11,"€603,000.00",No,No,Second-Hand Dwelling house /Apartment,,53.3625652,-6.1899094
02/12/2024,"JENMAR, 9 OAKFIELD RD, SLIGO",Sligo,F91AKF6,"€390,000.00",No,No,Second-Hand Dwelling house /Apartment,,54.26969,-8.46943
14/10/2024,"4 MEADOW GROVE, MALLOW, CORK",Cork,P51YNR1,"€420,000.00",No,No,Second-Hand Dwelling house /Apartment,,52.13333,-8.63333
19/11/2024,"5 PARK GROVE, GRANGE RATH, DROGHEDA",Meath,A92VY64,"€235,000.00",No,No,Second-Hand Dwelling house /Apartment,,53.7070599,-6.3077433
14/03/2024,"15 MAPLE AVE, CASTLEPARK, MALLOW",Cork,P51FKN1,"€347,500.00",No,No,Second-Hand Dwelling house /Apartment,,52.13333,-8.63333
10/10/2024,"CREAKAN UPPER, NEW ROSS, WEXFORD",Wexford,Y34P499,"€300,000.00",No,No,Second-Hand Dwelling house /Apartment,,52.3692858,-6.9292064
30/09/2024,"7 WELLINGTON ST, WATERFORD",Waterford,X91EAE2,"€170,000.00",No,No,Second-Hand Dwelling house /Apartment,,52.2606297,-7.1172444
30/08/2024,"LARAHEENHILL, HOLLYFORT, GOREY",Wexford,,"€168,000.00",No,No,Second-Hand Dwelling house /Apartment,,52.67472,-6.2925
05/11/2024,"DUN ARD, BALLYGROMAN, OVENS",Cork,P31CH02,"€925,000.00",No,No,Second-Hand Dwelling house /Apartment,,51.86667,-8.66667
01/03/2024,"1ST FLOOR ANVIL BAR, KNOCKNAGOUN, RYLANE",Cork,P32ET10,"€73,500.00",No,No,Second-Hand Dwelling house /Apartment,,51.98333,-8.83333
21/08/2024,"37 Ferrard Park, Drogheda, Co. Louth",Louth,,"€308,370.04",No,Yes,New Dwelling house /Apartment,,53.7298945,-6.3607389
21/06/2024,"THE OLD RECTORY, BALLYHOOLY, CO CORK",Cork,P51PF24,"€350,000.00",No,No,Second-Hand Dwelling house /Apartment,,52.14944,-8.40056
20/12/2024,"56 MILLBRIDGE WAY, MILL LANE, NAAS",Kildare,W91PH6P,"€400,000.00",No,No,Second-Hand Dwelling house /Apartment,,53.21583,-6.66694
15/03/2024,"BALLYNAMORAHAN, KILMACOW, CO KILKENNY",Kilkenny,X91RF89,"€300,000.00",No,No,Second-Hand Dwelling house /Apartment,,52.30611,-7.17167
06/06/2024,"10 MOUNT ARGUS PARK, HAROLDS CROSS, DUBLIN 6W",Dublin,D6WK226,"€595,000.00",No,No,Second-Hand Dwelling house /Apartment,,53.33306,-6.24889
11/03/2024,"3 INGLEWOOD VILLAS, THOMONDGATE, LIMERICK",Limerick,V94EVN1,"€175,000.00",No,No,Second-Hand Dwelling house /Apartment,,52.66472,-8.62306
20/11/2024,"62 Beechtree Place, Curragh Farm, Newbridge",Kildare,,"€383,259.91",No,Yes,New Dwelling house /Apartment,,53.18194,-6.79667
19/07/2024,"55 FISHERMANS GROVE, DUNMORE EAST, WATERFORD",Waterford,X91D628,"€363,000.00",No,No,Second-Hand Dwelling house /Apartment,,52.15139,-6.98611
07/08/2024,"ANNAGH, GLENFARNE, LEITRIM",Leitrim,F91N2N2,"€87,000.00",No,No,Second-Hand Dwelling house /Apartment,,54.28694,-7.98722
26/07/2024,"29 THE PRIORY, NEWBRIDGE, KILDARE",Kildare,W12C995,"€539,000.00",No,No,Second-Hand Dwelling house /Apartment,,53.1854899,-6.7979664
21/06/2024,"7 Cnoc Na Ri, Kells Road, Kingscourt",Cavan,,"€286,343.61",No,Yes,New Dwelling house /Apartment,,53.90806,-6.80556
29/04/2024,"30 CARRAIG PALMER, QUINCENTENNIAL DR, SALTHILL",Galway,H91N2X5,"€235,000.00",No,No,Second-Hand Dwelling house /Apartment,,53.27194,-9.04889
18/07/2024,"5 Elmeley, Golf Links Road, Bettystown",Meath,A92N8YR,"€389,400.00",No,Yes,New Dwelling house /Apartment,,53.70139,-6.24611
09/08/2024,"19 WOODFORD MEADOWS, CLONDALKIN, DUBLIN 22",Dublin,D22NP99,"€285,000.00",No,No,Second-Hand Dwelling house /Apartment,,53.3248844,-6.3797038
03/01/2024,"90 KNOWTH COURT, POPPINTREE, DUBLIN 11",Dublin,D11Y9FT,"€275,000.00",No,No,Second-Hand Dwelling house /Apartment,,53.33306,-6.24889
15/04/2024,"1 BIRCH PLACE, THE WILLOWS, DUNSHAUGHLIN",Meath,,"€480,176.21",No,Yes,New Dwelling house /Apartment,,53.5125,-6.54
26/04/2024,"EAGLEHILL, BALLINAMULT, WATERFORD",Waterford,E91PY84,"€329,000.00",No,No,Second-Hand Dwelling house /Apartment,,52.21111,-7.73667
22/04/2024,"210 THE OLD INFIRMARY, JOHNS HILL, WATERFORD",Waterford,X91W773,"€130,000.00",No,No,Second-Hand Dwelling house /Apartment,,52.25833,-7.11194
18/07/2024,"28 Port na Rinne, Ringaskiddy, Co. Cork",Cork,,"€290,748.00",No,Yes,New Dwelling house /Apartment,,51.83389,-8.31694
08/03/2024,"Clogher, Turlough",Mayo,,"€90,000.00",No,Yes,New Dwelling house /Apartment,,53.8742838,-9.2321293
08/03/2024,"CALPE, MAIN ST, BALLYHAHILL",Limerick,V94T2WX,"€110,000.00",No,No,Second-Hand Dwelling house /Apartment,,52.66472,-8.62306
22/03/2024,"7 TORC TERRACE, KILLARNEY",Kerry,V93H28V,"€81,000.00",Yes,No,Second-Hand Dwelling house /Apartment,,52.05,-9.51667
10/05/2024,"PROSPECT, MAREE, ORANMORE",Galway,H91AE9K,"€530,000.00",No,No,Second-Hand Dwelling house /Apartment,,53.26833,-8.92
18/11/2024,"CURNACARTHY, TULRAHAN, CLAREMORRIS",Mayo,F12XE17,"€237,000.00",No,No,Second-Hand Dwelling house /Apartment,,53.71667,-9.0
14/08/2024,"SHALIMAR, OLD BATTERY RD, ATHLONE",Westmeath,N37F6H0,"€170,000.00",No,No,Second-Hand Dwelling house /Apartment,,53.43333,-7.95
18/07/2024,"Apartment 16 The Harvey, Block 6E  Level 6, Lansdowne Place",Dublin,,"€2,625,000.00",No,Yes,New Dwelling house /Apartment,,53.33306,-6.24889
19/01/2024,"BLACKFRIARY, TRIM, CO MEATH",Meath,,"€300,000.00",No,No,Second-Hand Dwelling house /Apartment,,53.5588145,-6.7876686
09/07/2024,"107 GAYBROOK LAWNS, SWORDS RD, MALAHIDE",Dublin,K36TK30,"€970,000.00",No,No,Second-Hand Dwelling house /Apartment,,53.33306,-6.24889
12/12/2024,"41 HOWTHVIEW PARK, DONAGHMEDE, DUBLIN 13",Dublin,D13DP23,"€248,500.00",No,No,Second-Hand Dwelling house /Apartment,,53.33306,-6.24889
02/09/2024,"5 WOODSTOWN DR, KNOCKLYON, DUBLIN 16",Dublin,D16HY93,"€575,000.00",No,No,Second-Hand Dwelling house /Apartment,,53.2763215,-6.3274799
15/04/2024,"4 ST MICHAELS TCE, NAAS, CO KILDARE",Kildare,W91EAY2,"€460,000.00",No,No,Second-Hand Dwelling house /Apartment,,53.21583,-6.66694
14/06/2024,"28 HAMPTON GREEN, NAVAN ROAD, DUBLIN 7",Dublin,D07N9V2,"€467,000.00",No,No,Second-Hand Dwelling house /Apartment,,53.3625337,-6.3048086
10/04/2024,"40 HOLYWELL WOOD, GORSE HILL, SWORDS",Dublin,K67X267,"€195,000.00",No,No,Second-Hand Dwelling house /Apartment,,53.33306,-6.24889
22/05/2024,"5 MONTGOMERY COURT, FOLEY ST, DUBLIN 1",Dublin,D01AD71,"€375,000.00",No,No,Second-Hand Dwelling house /Apartment,,53.33306,-6.24889
04/12/2024,"17 COLLEGE ORCHARD, NEWBRIDGE, KILDARE",Kildare,W12FP62,"€370,000.00",No,No,Second-Hand Dwelling house /Apartment,,53.1876161,-6.7982628
20/09/2024,"CLOONAKILLEG, MOUNT TALBOT, ROSCOMMON",Roscommon,,"€137,000.00",No,No,Second-Hand Dwelling house /Apartment,,53.63333,-8.18333
15/03/2024,"1 FERNWOOD AVE, SPRINGFIELD, TALLAGHT",Dublin,D24P5K3,"€230,000.00",No,No,Second-Hand Dwelling house /Apartment,,53.2884675,-6.3841933
28/05/2024,"APT 49, CLEARWATER COURT SOUTH, ROYAL CANAL PARK DUBLIN 15",Dublin,D15H971,"€280,000.00",No,No,Second-Hand Dwelling house /Apartment,,53.33306,-6.24889
01/11/2024,"43 COOKE'S TERRACE, BOHERMORE, GALWAY",Galway,H91AWF5,"€210,000.00",No,No,Second-Hand Dwelling house /Apartment,,53.27194,-9.04889
27/06/2024,"3B MAHON MILLS, KILMACTHOMAS, CO WATERFORD",Waterford,X42WY16,"€135,750.00",Yes,No,Second-Hand Dwelling house /Apartment,,52.20972,-7.42583
02/10/2024,"56 THE WILLOWS, GORT AN OIR, CASTLEMARTYR",Cork,P25NP59,"€320,000.00",No,No,Second-Hand Dwelling house /Apartment,,51.9148531,-8.0494863
13/12/2024,"4 Hazel Avenue, Deerpark, Creagh",Wexford,,"€325,991.00",No,Yes,New Dwelling house /Apartment,,52.68139,-6.32528
23/08/2024,"65 Carrigbrook, Tullow Road",Carlow,,"€219,823.79",No,Yes,New Dwelling house /Apartment,,52.84083,-6.92611
08/05/2024,"12 ORCHARD HALL, DISWELLSTOWN, CASTLEKNOCK",Dublin,D15W5HX,"€331,500.00",No,No,Second-Hand Dwelling house /Apartment,,53.33306,-6.24889
06/06/2024,"32 Rowan View, Kilcarbery Grange, Dublin 22",Dublin,,"€356,828.00",No,Yes,New Dwelling house /Apartment,,53.3174111,-6.4232713
21/02/2024,"KINNELARGY, DOWNINGS, LETTERKENNY",Donegal,F92FW2X,"€155,000.00",No,No,Second-Hand Dwelling house /Apartment,,54.95,-7.73333
25/06/2024,"21 Garraí na Sailí, Letteragh Road, Rahoon",Galway,,"€422,907.49",No,Yes,New Dwelling house /Apartment,,53.27277,-9.08765
22/10/2024,"60 THE PINES, VENETIAN HALL, KILLESTER DUBLIN 5",Dublin,D05W883,"€509,000.00",No,No,Second-Hand Dwelling house /Apartment,,53.33306,-6.24889
23/05/2024,"12 PINEWOODS, NEWPORT RD, WESTPORT",Mayo,F28KV08,"€375,000.00",No,No,Second-Hand Dwelling house /Apartment,,53.8,-9.51667
12/03/2024,"13 MOUNT ARGUS SQ, MOUNT ARGUS WAY, HAROLDS CROSS DUBLIN 6W",Dublin,D6WYP08,"€480,000.00",No,No,Second-Hand Dwelling house /Apartment,,53.33306,-6.24889
21/10/2024,"90 SORRENTO RD, DALKEY, DUBLIN",Dublin,A96FT53,"€1,300,000.00",No,No,Second-Hand Dwelling house /Apartment,,53.2735191,-6.0974232
02/09/2024,"23 LOUGH CONN RD, BALLYFERMOT, DUBLIN 10",Dublin,D10RP84,"€300,000.00",No,No,Second-Hand Dwelling house /Apartment,,53.3471634,-6.3551014
07/03/2024,"8 WATERVILLE, THE LOUTH, CORK",Cork,T12W2FH,"€375,000.00",No,No,Second-Hand Dwelling house /Apartment,,51.89797,-8.47061
12/06/2024,"42 STOCKING WOOD COPSE, STOCKING AVENUE, RATHFARNHAM",Dublin,D16FX40,"€300,000.00",No,No,Second-Hand Dwelling house /Apartment,,53.33306,-6.24889
