Date of Sale (dd/mm/yyyy),Address,County,Eircode,Price (€),Not Full Market Price,VAT Exclusive,Description of Property,Property Size Description,lat,lng
30/11/2017,"5 Liscorrie Hall, Bog Lane, Drogheda",Louth,,"€195,000.00",No,Yes,New Dwelling house /Apartment,greater than or equal to 38 sq metres and less than 125 sq metres,53.71889,-6.34778
09/03/2017,"14 Marconi Crescent, Honeypark, Dun Laoghaire",Dublin,,"€616,740.08",No,Yes,New Dwelling house /Apartment,greater than or equal to 125 sq metres,53.2810175,-6.143826
28/09/2017,"3 THATCHERS WAY, LUSK VILLAGE ESTATE, LUSK",Dublin,,"€245,000.00",No,No,Second-Hand Dwelling house /Apartment,,53.33306,-6.24889
13/03/2017,"38A/39 SOUTH RICHMOND STREET, PORTABELLO, DUBLIN 2",Dublin,,"€155,000.00",No,No,Second-Hand Dwelling house /Apartment,,53.33306,-6.24889
25/09/2017,"12 ARDCROSS, CROSSHAVEN, CORK",Cork,,"€383,333.00",No,No,Second-Hand Dwelling house /Apartment,,51.8027848,-8.2883281
21/12/2017,"47 CELTIC PARK AVE, COLLINS AVE, DUBLIN 9",Dublin,,"€465,000.00",No,No,Second-Hand Dwelling house /Apartment,,53.33306,-6.24889
30/01/2017,"BARRADERRY WEST, KILTEGAN, WICKLOW",Wicklow,,"€210,000.00",No,No,Second-Hand Dwelling house /Apartment,,52.90111,-6.60722
18/12/2017,"TONAGH, MOUNT NUGENT, OLDCASTLE",Cavan,,"€120,000.00",No,No,Second-Hand Dwelling house /Apartment,,53.99083,-7.36056
15/09/2017,"17 BALLYGRAIGUE, NENAGH, TIPPERARY",Tipperary,,"€83,000.00",No,No,Second-Hand Dwelling house /Apartment,,52.855713,-8.1950857
14/11/2017,"APT 71, RATHMINES TOWN CENTRE, RATHMINES RD LOWER DUBLIN 6",Dublin,,"€362,000.00",No,No,Second-Hand Dwelling house /Apartment,,53.3255868,-6.2648824
28/09/2017,"7A KNOCK HILL, ENNIS RD, KNOCK HILL",Limerick,,"€175,000.00",No,No,Second-Hand Dwelling house /Apartment,,52.66472,-8.62306
27/01/2017,"7 STILLORGAN GATE, UPPER KILMACUD ROAD, DUBLIN 14",Dublin,,"€700,440.00",No,Yes,New Dwelling house /Apartment,greater than or equal to 125 sq metres,53.33306,-6.24889
03/08/2017,"APT 1, 9 HATCH STREET LOWER, DUBLIN 2",Dublin,,"€1,750,000.00",No,No,Second-Hand Dwelling house /Apartment,,53.3341683,-6.2564068
28/03/2017,"22 NEWLINE, CASTLEBAR, MAYO",Mayo,,"€40,000.00",No,No,Second-Hand Dwelling house /Apartment,,53.860499,-9.297969
04/10/2017,"1 MILLMOUNT MEADOWS, MAIN ST, AVOCA",Wicklow,,"€300,000.00",No,No,Second-Hand Dwelling house /Apartment,,52.85278,-6.21694
23/02/2017,"165A LAUREL PARK, NEWCASTLE, GALWAY",Galway,,"€240,000.00",No,No,Second-Hand Dwelling house /Apartment,,53.2830461,-9.0764245
01/09/2017,"11 RAVENS COURT, FINGLAS, DUBLIN",Dublin,,"€240,000.00",No,No,Second-Hand Dwelling house /Apartment,,53.33306,-6.24889
09/03/2017,"4 MEADOW COURT STEPASIDE PARK, STEPASIDE, DUBLIN",Dublin,,"€270,000.00",No,No,Second-Hand Dwelling house /Apartment,,53.2544627,-6.2086372
08/02/2017,"MEENAGOWAN, LETTERMACAWARD, DONEGAL",Donegal,,"€137,500.00",No,No,Second-Hand Dwelling house /Apartment,,54.8485725,-8.3202028
14/06/2017,"BRITTAS, GLASSON, ATHLONE",Westmeath,,"€455,000.00",No,No,Second-Hand Dwelling house /Apartment,,53.43333,-7.95
17/05/2017,"APT 6 CASTLEOAK, DUBLIN ROAD, MALAHIDE",Dublin,,"€380,000.00",No,No,Second-Hand Dwelling house /Apartment,,53.33306,-6.24889
03/11/2017,"23 Beresford Road, Donabate",Dublin,,"€396,476.00",No,Yes,New Dwelling house /Apartment,greater than or equal to 38 sq metres and less than 125 sq metres,53.33306,-6.24889
20/11/2017,"80 THE PLAZA, BALLYMUN, DUBLIN 9",Dublin,,"€129,000.00",No,No,Second-Hand Dwelling house /Apartment,,53.33306,-6.24889
04/04/2017,"12 CHAPEL LANE, CASHEL, TIPPERARY",Tipperary,,"€51,000.00",No,No,Second-Hand Dwelling house /Apartment,,52.275579,-7.9944826
10/11/2017,"7 ARDESKIN HEIGHTS, DONEGAL TOWN, DONEGAL",Donegal,,"€91,000.00",No,No,Second-Hand Dwelling house /Apartment,,54.65,-8.11667
10/02/2017,"AVIEMORE, 29 CLEVEDON, CARRIGALINE",Cork,,"€256,500.00",No,No,Second-Hand Dwelling house /Apartment,,51.81167,-8.39861
25/08/2017,"MOSSVALE, DUNDRUM, DUBLIN 14",Dublin,,"€1,000,000.00",No,No,Second-Hand Dwelling house /Apartment,,53.33306,-6.24889
09/10/2017,"APT 6, 262 NORTH CIRCULAR ROAD, DUBLIN 7",Dublin,,"€110,900.00",No,No,Second-Hand Dwelling house /Apartment,,53.3590437,-6.2802317
25/09/2017,"72 NORTHBROOK AVE, RANELAGH, DUBLIN 6",Dublin,,"€400,000.00",No,No,Second-Hand Dwelling house /Apartment,,53.33306,-6.24889
31/05/2017,"6 OCEAN VIEW, GOLF LINKS RD, KILKEE",Clare,,"€185,000.00",No,No,Second-Hand Dwelling house /Apartment,,52.67917,-9.64417
16/08/2017,"28 WHITECHURCH COURT, RATHFARNHAM, DUBLIN 16",Dublin,,"€320,000.00",No,No,Second-Hand Dwelling house /Apartment,,53.33306,-6.24889
01/06/2017,"3 DELGANY HILLS, DELGANY, WICKLOW",Wicklow,,"€320,000.00",No,No,Second-Hand Dwelling house /Apartment,,53.1341151,-6.0810584
30/06/2017,"CASA SOL MILL LANE, KILMACLEAGUE EAST, DUNMORE EAST",Waterford,,"€339,000.00",No,No,Second-Hand Dwelling house /Apartment,,52.15139,-6.98611
16/08/2017,"2 elm court, maynooth road, celbridge",Kildare,,"€230,000.00",No,Yes,New Dwelling house /Apartment,greater than or equal to 38 sq metres and less than 125 sq metres,53.33861,-6.54361
22/12/2017,"69 MOYLARAGH RISE, BALBRIGGAN, COUNTY DUBLIN",Dublin,,"€132,500.00",No,No,Second-Hand Dwelling house /Apartment,,53.6101521,-6.2030533
12/09/2017,"46 CAISEAL CAM, ROSCAM, GALWAY",Galway,,"€380,000.00",No,No,Second-Hand Dwelling house /Apartment,,53.2750747,-8.9708226
07/04/2017,"APT 13  THE CLOSE, ROBSWALL, MALAHIDE",Dublin,,"€250,000.00",No,No,Second-Hand Dwelling house /Apartment,,53.33306,-6.24889
12/05/2017,"8 GOLDEN MEADOWS, CLONAKILTY, CO. CORK",Cork,,"€75,000.00",No,No,Second-Hand Dwelling house /Apartment,,51.62306,-8.87056
14/12/2017,"42 The Avenue, Scholarstown Wood, Scholarstown Road",Dublin,,"€431,718.06",No,Yes,New Dwelling house /Apartment,greater than or equal to 38 sq metres and less than 125 sq metres,53.33306,-6.24889
08/02/2017,"7 HARBOUR COURT, GEORGES PLACE, DUN LAOGHAIRE",Dublin,,"€345,000.00",No,No,Second-Hand Dwelling house /Apartment,,53.33306,-6.24889
07/04/2017,"115N, Longboat Quay North, Sir John Rogerson's Quay",Dublin,,"€495,000.00",No,No,New Dwelling house /Apartment,greater than or equal to 38 sq metres and less than 125 sq metres,53.33306,-6.24889
29/08/2017,"15 WHITEBEAM AVE, CLONSKEAGH, DUBLIN 14",Dublin,,"€1,460,000.00",No,No,Second-Hand Dwelling house /Apartment,,53.3121053,-6.240404
29/11/2017,"APT 19 SMITHFIELD LOFTS, 150 NORTH KING STREET, SMITHFIELD",Dublin,,"€305,000.00",No,No,Second-Hand Dwelling house /Apartment,,53.33306,-6.24889
13/06/2017,"23 BOROIMHE HAZEL, SWORDS, DUBLIN",Dublin,,"€280,000.00",No,No,Second-Hand Dwelling house /Apartment,,53.4432489,-6.2316039
01/01/2017,"25 PINTAIL HOUSE, REDCOURT OAKS, SEAFIELD RD EAST",Dublin,,"€148,148.00",Yes,No,Second-Hand Dwelling house /Apartment,,53.33306,-6.24889
14/12/2017,"213 LIFFEY TRUST BUILDING, SHERIFF STREET, DUBLIN 1",Dublin,,"€26,000,000.00",No,No,Second-Hand Dwelling house /Apartment,,53.3498005,-6.2299289
08/09/2017,"4 THE GREEN, ROBERTSHILL CIRCULAR RD, KILKENNY",Kilkenny,,"€184,000.00",No,No,Second-Hand Dwelling house /Apartment,,52.65417,-7.25222
17/02/2017,"8 ARAN COURT, GALWAY RD, ROSCOMMON",Roscommon,,"€125,000.00",No,No,Second-Hand Dwelling house /Apartment,,53.63333,-8.18333
15/12/2017,"3 MOUNT EUSTACE AVE, TYRRELSTOWN, DUBLIN 15",Dublin,,"€215,000.00",No,No,Second-Hand Dwelling house /Apartment,,53.4211739,-6.3886736
29/06/2017,"APT1, 78 WHITWORTH ROAD, DRUMCONDRA",Dublin,,"€450,000.00",No,No,Second-Hand Dwelling house /Apartment,,53.33306,-6.24889
01/12/2017,"CARA ST, CLONES, COUNTY MONAGHAN",Monaghan,,"€50,000.00",No,No,Second-Hand Dwelling house /Apartment,,54.177305,-7.2348251
06/01/2017,"71 THE WATERWAYS, SALLINS, KILDARE",Kildare,,"€215,000.00",No,No,Second-Hand Dwelling house /Apartment,,53.2474116,-6.6614832
30/11/2017,"50 CLAREVILLE RD, HAROLDS CROSS, DUBLIN 6 WEST",Dublin,,"€485,000.00",No,No,Second-Hand Dwelling house /Apartment,,53.33306,-6.24889
09/06/2017,"APT 1, ARCHES, HALF WAY",Cork,,"€368,000.00",No,No,Second-Hand Dwelling house /Apartment,,51.89797,-8.47061
18/10/2017,"29 LARCHFIELD, DUNBOYNE, CO MEATH",Meath,,"€320,000.00",Yes,No,Second-Hand Dwelling house /Apartment,,53.4148241,-6.4669591
29/06/2017,"36 BARNWALL COURT, HAMLET LANE, BALBRIGGAN",Dublin,,"€180,000.00",No,No,Second-Hand Dwelling house /Apartment,,53.33306,-6.24889
28/09/2017,"60 ABBERLEY APTS, ABBERLEY SQ, HIGH ST DUBLIN 24",Dublin,,"€230,000.00",No,No,Second-Hand Dwelling house /Apartment,,53.33306,-6.24889
19/06/2017,"42 MOUNTJOY ST, DUBLIN 7, DUBLIN",Dublin,,"€395,000.00",No,No,Second-Hand Dwelling house /Apartment,,53.3541286,-6.2696784
16/03/2017,"5 DELHURST TERRACE, ONGAR PARK, CLONSILLA",Dublin,,"€215,000.00",No,No,Second-Hand Dwelling house /Apartment,,53.33306,-6.24889
27/03/2017,"AIRBORNE, HIGH ST, SCHULL",Cork,,"€126,000.00",No,No,Second-Hand Dwelling house /Apartment,,51.52487,-9.54798
15/11/2017,"APT 202 AN COLM CHILLE, EASTHAM ROAD, BETTYSTOWN",Meath,,"€96,855.40",No,No,Second-Hand Dwelling house /Apartment,,53.70139,-6.24611
25/09/2017,"7 Cois Cille, Church Road, Carrigtwohill",Cork,,"€237,162.50",Yes,Yes,New Dwelling house /Apartment,greater than or equal to 38 sq metres and less than 125 sq metres,51.90833,-8.26333
29/08/2017,"113 HAZEL PARK, NEWCASTLE, GALWAY",Galway,,"€255,000.00",No,No,Second-Hand Dwelling house /Apartment,,53.284538,-9.073904
01/09/2017,"23 ROCHFORT HOUSE, BRENNANSTOWN, CABINTEELY",Dublin,,"€465,000.00",No,No,Second-Hand Dwelling house /Apartment,,53.33306,-6.24889
30/03/2017,"12 Springmount Woods, Glanmire",Cork,,"€242,290.00",No,Yes,New Dwelling house /Apartment,greater than or equal to 38 sq metres and less than 125 sq metres,51.91583,-8.39972
07/06/2017,"14 Ferns Green, Ferns Bridge, Monasterevin",Kildare,,"€194,388.00",No,Yes,New Dwelling house /Apartment,less than 38 sq metres,53.1498743,-7.0576479
01/02/2017,"16 Cedar Lawns, St. Mary's Road, Edenderry",Offaly,,"€145,375.00",No,Yes,New Dwelling house /Apartment,greater than or equal to 38 sq metres and less than 125 sq metres,53.34528,-7.04972
10/08/2017,"39 THE MOORINGS, FITZWILLIAM QUAY, DUBLIN",Dublin,,"€285,000.00",No,No,Second-Hand Dwelling house /Apartment,,53.33306,-6.24889
21/03/2017,"35 CASTLELOST VALE, ROCHFORDBRIDGE, WESTMEATH",Westmeath,,"€145,000.00",No,No,Second-Hand Dwelling house /Apartment,,53.5,-7.5
02/06/2017,"59 BAWNLEA AVE, JOBSTOWN, TALLAGHT DUBLIN 24",Dublin,,"€160,000.00",No,No,Second-Hand Dwelling house /Apartment,,53.2810382,-6.396818
10/04/2017,"89 PEARSE PARK, DUNDALK, LOUTH",Louth,,"€140,000.00",No,No,Second-Hand Dwelling house /Apartment,,54.0041237,-6.4074496
26/09/2017,"10 FRY COURT, EXCISE ST, ATHLONE",Westmeath,,"€15,000.00",No,No,Second-Hand Dwelling house /Apartment,,53.43333,-7.95
25/09/2017,"27 SEAN DOIRE, GOREY, WEXFORD",Wexford,,"€166,000.00",No,No,Second-Hand Dwelling house /Apartment,,52.6817056,-6.294177
17/01/2017,"64 WARREN AVE, CARPENTERSTOWN, DUBLIN",Dublin,,"€495,000.00",No,No,Second-Hand Dwelling house /Apartment,,53.33306,-6.24889
28/07/2017,"GLASLECK, KILLIAN CROSS, SHERCOOK",Cavan,,"€60,000.00",No,No,Second-Hand Dwelling house /Apartment,,53.99083,-7.36056
02/08/2017,"32 LONG AVE, DUNDALK, LOUTH",Louth,,"€126,000.00",No,No,Second-Hand Dwelling house /Apartment,,53.9564979,-6.3900858
18/01/2017,"TUSKER, BROOMFIELD, CASTLEBLAYNEY",Monaghan,,"€40,000.00",No,No,Second-Hand Dwelling house /Apartment,,54.11667,-6.73333
17/01/2017,"4 GLENBROOK, ADRIGOLE, BEARA",Cork,,"€123,500.00",No,No,Second-Hand Dwelling house /Apartment,,51.89797,-8.47061
03/07/2017,"12B Deanstown Park, Finglas, Dublin 11",Dublin,,"€233,480.00",No,Yes,New Dwelling house /Apartment,greater than or equal to 38 sq metres and less than 125 sq metres,53.3858707,-6.3151845
22/05/2017,"10 COIS LOCHA, DOOHAMLET, CASTLEBLAYNEY",Monaghan,,"€133,000.00",No,No,Second-Hand Dwelling house /Apartment,,54.11667,-6.73333
27/02/2017,"3 CHELMSFORD AVE, RANELAGH, DUBLIN 6",Dublin,,"€725,000.00",No,No,Second-Hand Dwelling house /Apartment,,53.33306,-6.24889
21/08/2017,"26 ULVERTON RD, DALKEY, DUBLIN",Dublin,,"€550,000.00",Yes,No,Second-Hand Dwelling house /Apartment,,53.2797757,-6.10654
18/07/2017,"6 Oaktree Road, Cunnaberry Hill, Tully Road",Kildare,,"€226,872.00",No,Yes,New Dwelling house /Apartment,greater than or equal to 38 sq metres and less than 125 sq metres,53.15611,-6.91444
30/06/2017,"69 ST BRENDANS AVE, WOODQUAY, GALWAY",Galway,,"€205,000.00",No,No,Second-Hand Dwelling house /Apartment,,53.27194,-9.04889
08/11/2017,"18 ASSUMPTION PARK, ROSCREA, TIPPERARY",Tipperary,,"€86,000.00",No,No,Second-Hand Dwelling house /Apartment,,52.47333,-8.15583
04/07/2017,"17 ASHMOUNT, SILVERSPRINGS, CORK",Cork,,"€255,000.00",No,No,Second-Hand Dwelling house /Apartment,,51.89797,-8.47061
05/09/2017,"100 KINGSCOURT, CHURCH ST, CASTLEPOLLARD",Westmeath,,"€165,000.00",No,No,Second-Hand Dwelling house /Apartment,,53.66667,-7.3
06/12/2017,"18 OAKVIEW, INCHVALE RD, DOUGLAS",Cork,,"€315,500.00",No,No,Second-Hand Dwelling house /Apartment,,51.87444,-8.435
04/07/2017,"RIVERSDALE, BELGOOLY, CORK",Cork,,"€255,000.00",No,No,Second-Hand Dwelling house /Apartment,,51.73889,-8.49
31/05/2017,"4 Chaplain Place, Rowlagh Village Centre, Clondalkin",Dublin,,"€92,373.34",No,Yes,New Dwelling house /Apartment,greater than or equal to 38 sq metres and less than 125 sq metres,53.33306,-6.24889
04/10/2017,"9 CHERRY COURT, BOREENMANNA RD, BALLINLOUGH",Cork,,"€333,000.00",No,No,Second-Hand Dwelling house /Apartment,,51.89797,-8.47061
29/08/2017,"51 WOODFIELD GREEN, NEWCASTLE WEST, LIMERICK",Limerick,,"€190,000.00",No,No,Second-Hand Dwelling house /Apartment,,52.4432988,-9.0491264
16/03/2017,"10 HILLSIDE GROVE, GLASHEEN, CORK",Cork,,"€390,000.00",No,No,Second-Hand Dwelling house /Apartment,,51.8854887,-8.4931032
20/03/2017,"TOWNEY, KILCAR, DONEGAL",Donegal,,"€47,000.00",No,No,Second-Hand Dwelling house /Apartment,,54.63389,-8.59333
03/10/2017,"95 MARY STREET, NEW ROSS, COUNTY WEXFORD",Wexford,,"€20,000.00",No,No,Second-Hand Dwelling house /Apartment,,52.3952563,-6.9426704
17/07/2017,"HOLLYWELL, ROSCOMMON",Roscommon,,"€190,000.00",No,No,Second-Hand Dwelling house /Apartment,,53.63333,-8.18333
19/05/2017,"67 GLENMORE WOODS, DUBLIN RD, MULLINGAR",Westmeath,,"€183,000.00",No,No,Second-Hand Dwelling house /Apartment,,,
21/12/2017,"FLAG RD, MILTOWN MALBAY, CO CLARE",Clare,,"€92,500.00",No,No,Second-Hand Dwelling house /Apartment,,52.8510758,-9.4096601
07/07/2017,"12 LEESON ST, 58-59 UPPER LEESON ST, DUBLIN 4",Dublin,,"€385,000.00",No,No,Second-Hand Dwelling house /Apartment,,53.3310696,-6.2525034
29/11/2017,"65 WINDMILL COURT, OLD LOWER GERARD, GRIFFIN ST",Limerick,,"€91,250.00",No,No,Second-Hand Dwelling house /Apartment,,52.66472,-8.62306
10/04/2017,"8 MARKET COURT, MAINE ST, TRALEE",Kerry,,"€35,000.00",No,No,Second-Hand Dwelling house /Apartment,,52.27042,-9.70264
03/10/2017,"34 Limetree Hall, Dublin Road, Maynooth",Kildare,,"€427,312.00",No,Yes,New Dwelling house /Apartment,greater than or equal to 125 sq metres,53.385,-6.59361
20/10/2017,"MARTRY, COROFIN, COUNTY CLARE",Clare,,"€27,000.00",No,No,Second-Hand Dwelling house /Apartment,,52.94778,-9.06306
05/01/2017,"15 THE HAVEN, GRANTSTOWN PARK, DUNMORE RD",Waterford,,"€168,000.00",No,No,Second-Hand Dwelling house /Apartment,,52.25833,-7.11194
27/11/2017,"CULLEEN, RATHCABBIN, ROSCREA",Tipperary,,"€100,000.00",No,No,Second-Hand Dwelling house /Apartment,,52.47333,-8.15583
15/09/2017,"72 THE CRESCENT, PARKWEST POINT, DUBLIN 22",Dublin,,"€252,000.00",No,No,Second-Hand Dwelling house /Apartment,,53.33306,-6.24889
11/04/2017,"41 RIVERGROVE, GLANMIRE, CORK",Cork,,"€312,000.00",No,No,Second-Hand Dwelling house /Apartment,,51.9284446,-8.3838044
10/11/2017,"APARTMENT 3 EGLINGTON COURT, 7 EYRE STREET, GALWAY",Galway,,"€156,750.00",No,No,Second-Hand Dwelling house /Apartment,,53.27194,-9.04889
11/05/2017,"26 ARMSTRONG GROVE, CLARA, CO OFFALY",Offaly,,"€120,000.00",No,No,Second-Hand Dwelling house /Apartment,,53.3380718,-7.619857
24/01/2017,"RAHARNEY ROAD, KILLUCAN, WESTMEATH",Westmeath,,"€182,500.00",No,No,Second-Hand Dwelling house /Apartment,,53.51439,-7.14194
09/11/2017,"93 CHERRY AVE, RIVER VALLEY, SWORDS",Dublin,,"€275,000.00",No,No,Second-Hand Dwelling house /Apartment,,53.4494535,-6.2352657
24/11/2017,"23 TUSCANY PARK, BALDOYLE, DUBLIN",Dublin,,"€240,000.00",No,No,Second-Hand Dwelling house /Apartment,,53.3947312,-6.1339891
24/08/2017,"SAUNDERSCOURT, CROSSABEG, COUNTY WEXFORD",Wexford,,"€164,000.00",No,No,Second-Hand Dwelling house /Apartment,,52.385,-6.49528
06/03/2017,"SUITE 20, TWO  MILE INN, ENNIS ROAD",Limerick,,"€28,000.00",No,No,Second-Hand Dwelling house /Apartment,,52.66472,-8.62306
09/05/2017,"7 FACTORY HILL, GLANMIRE, CORK",Cork,,"€130,000.00",No,No,Second-Hand Dwelling house /Apartment,,51.9078466,-8.3721099
05/01/2017,"APT 1, BLK 6 CLARION QUAY APTS, EXCISE WALK DUBLIN 1",Dublin,,"€345,000.00",No,No,Second-Hand Dwelling house /Apartment,,53.33306,-6.24889
18/09/2017,"27 King St, Beltree, Clongriffin",Dublin,,"€299,204.00",No,Yes,New Dwelling house /Apartment,greater than or equal to 125 sq metres,53.33306,-6.24889
28/02/2017,"133, Tubberclaire Meadows, Athlumney",Meath,,"€244,000.00",No,Yes,New Dwelling house /Apartment,greater than or equal to 38 sq metres and less than 125 sq metres,53.66667,-6.66667
21/03/2017,"GLENATHALLIN, LOUGHREA, GALWAY",Galway,,"€170,000.00",No,No,Second-Hand Dwelling house /Apartment,,53.19694,-8.56694
28/04/2017,"9 COURTSIDE, FOTA, CO CORK",Cork,,"€385,000.00",No,No,Second-Hand Dwelling house /Apartment,,51.89797,-8.47061
20/12/2017,"25 Lynhurst, Herbert Road, Bray",Wicklow,,"€466,960.35",No,Yes,New Dwelling house /Apartment,greater than or equal to 38 sq metres and less than 125 sq metres,53.20278,-6.09833
16/06/2017,"30 CASTLEMARA, NEWTOWN, CASTLETROY",Limerick,,"€260,000.00",No,No,Second-Hand Dwelling house /Apartment,,52.66472,-8.62306
08/10/2017,"GRANAGH, KILMALLOCK, COUNTY LIMERICK",Limerick,,"€175,000.00",No,No,Second-Hand Dwelling house /Apartment,,52.4,-8.57722
04/04/2017,"65 FERGUSON ROAD, DRUMCONDRA, DUBLIN 9",Dublin,,"€367,000.00",No,No,Second-Hand Dwelling house /Apartment,,53.372202,-6.2582454
05/12/2017,"7 BRIOT WALK, TEMPLERS HALL, WATERFORD",Tipperary,,"€112,000.00",No,No,Second-Hand Dwelling house /Apartment,,52.47333,-8.15583
17/10/2017,"51 ROYSTON, KIMMAGE RD WEST, DUBLIN 12",Dublin,,"€411,500.00",No,No,Second-Hand Dwelling house /Apartment,,53.33306,-6.24889
07/04/2017,"7 SILVERPOINT, ASHMOUNT, SILVERSPRINGS",Cork,,"€90,859.00",No,Yes,New Dwelling house /Apartment,greater than or equal to 38 sq metres and less than 125 sq metres,51.89797,-8.47061
03/10/2017,"GORTNALONE, ATTYMON, ATHENRY",Galway,,"€88,210.00",No,No,Second-Hand Dwelling house /Apartment,,53.29639,-8.74306
17/08/2017,"5 LEDWIDGE HALL, SLANE, MEATH",Meath,,"€340,000.00",No,No,Second-Hand Dwelling house /Apartment,,53.7091681,-6.5391397
09/11/2017,"13 SLIABH CAIRN, KILTIMAGH, MAYO",Mayo,,"€115,000.00",No,No,Second-Hand Dwelling house /Apartment,,53.85,-9.0
24/07/2017,"Apartment 21(1b), Danesfort Court, Loughrea",Galway,,"€44,384.00",No,Yes,New Dwelling house /Apartment,greater than or equal to 38 sq metres and less than 125 sq metres,53.19694,-8.56694
06/01/2017,"22 MICHAEL COLLINS ROAD, MERVUE, GALWAY",Galway,,"€100,000.00",Yes,No,Second-Hand Dwelling house /Apartment,,53.2806085,-9.0166998
05/05/2017,"1 KILKENNY ROAD, GOWRAN, CO KILKENNY",Kilkenny,,"€30,000.00",No,No,Second-Hand Dwelling house /Apartment,,52.62944,-7.07333
01/11/2017,"AVOKA, BLACKROCK RD, CORK",Cork,,"€4,080,000.00",No,No,Second-Hand Dwelling house /Apartment,,51.89797,-8.47061
12/04/2017,"APT 5 ST CATHERINES CHURCH, BRIDGEFOOT STREET, DUBLIN 8",Dublin,,"€110,114.37",No,No,Second-Hand Dwelling house /Apartment,,53.33306,-6.24889
25/10/2017,"APT 4, THE TRAMWAY, THE GREEN",Wicklow,,"€206,000.00",No,No,Second-Hand Dwelling house /Apartment,,53.1732449,-6.5274418
03/08/2017,"25 CARRIGLEA, OLD PARK, CORBALLY",Limerick,,"€225,000.00",No,No,Second-Hand Dwelling house /Apartment,,52.66472,-8.62306
10/10/2017,"APT 4, RIVERWALK, INNER RING RD",Waterford,,"€57,000.00",No,No,Second-Hand Dwelling house /Apartment,,52.25833,-7.11194
26/04/2017,"FORRESTALSTOWN, GLENMORE, CO KILKENNY",Kilkenny,,"€30,000.00",No,No,Second-Hand Dwelling house /Apartment,,52.35167,-7.025
31/03/2017,"5 Roseland Avenue, Cualanor, Upper Glenageary Road",Dublin,,"€735,682.81",No,Yes,New Dwelling house /Apartment,greater than or equal to 125 sq metres,53.33306,-6.24889
27/04/2017,"77 QUINNS RD, SHANKILL, DUBLIN",Dublin,,"€467,500.00",No,No,Second-Hand Dwelling house /Apartment,,53.33306,-6.24889
04/05/2017,"169 RIVERFOREST, LEIXLIP, KILDARE",Kildare,,"€265,000.00",Yes,No,Second-Hand Dwelling house /Apartment,,53.3724458,-6.4899229
07/09/2017,"25 CULLAIRBAUN, ATHENRY, CO GALWAY",Galway,,"€54,000.00",Yes,No,Second-Hand Dwelling house /Apartment,,53.3045387,-8.7521445
12/04/2017,"MILL ST, BIRR, CO. OFFALY",Offaly,,"€47,000.00",No,No,Second-Hand Dwelling house /Apartment,,53.0938036,-7.9106905
16/03/2017,"APT 19, RYE ABBEY, KILCOCK",Kildare,,"€146,000.00",No,No,Second-Hand Dwelling house /Apartment,,53.3958815,-6.6627092
28/04/2017,"BALLYQUIRKE, CLIFDEN, CO KILKENNY",Kilkenny,,"€270,000.00",No,No,Second-Hand Dwelling house /Apartment,,52.64472,-7.14972
31/03/2017,"40 HEADLANDS, PUTLAND RD, BRAY",Wicklow,,"€255,000.00",No,No,Second-Hand Dwelling house /Apartment,,53.20278,-6.09833
21/12/2017,"135 BREGA HAMLET LANE, BALBRIGGAN, DUBLIN",Dublin,,"€167,000.00",No,No,Second-Hand Dwelling house /Apartment,,53.6150035,-6.2027144
05/07/2017,"RATHCAM, MILLTOWNPASS, CO WESTMEATH",Westmeath,,"€185,000.00",No,No,Second-Hand Dwelling house /Apartment,,53.43417,-7.24194
07/03/2017,"45 HOLYWELL DRIVE, GORSE HILL, FELTRIM",Dublin,,"€205,000.00",No,No,Second-Hand Dwelling house /Apartment,,53.33306,-6.24889
23/06/2017,"2 The Meadows, The Paddocks, Hansfield",Dublin,,"€185,022.02",Yes,Yes,New Dwelling house /Apartment,greater than or equal to 38 sq metres and less than 125 sq metres,53.33306,-6.24889
12/06/2017,"1 THE TURRETS, RATHMINES RD UPPER, DUBLIN",Dublin,,"€214,000.00",No,No,Second-Hand Dwelling house /Apartment,,53.33306,-6.24889
10/10/2017,"90 KNOCKBRACK DOWNS, DROGHEDA, LOUTH",Louth,,"€180,000.00",No,No,Second-Hand Dwelling house /Apartment,,53.7012798,-6.366654
21/12/2017,"35 FAIRGREEN, CAVAN, COUNTY CAVAN",Cavan,,"€71,000.00",No,No,Second-Hand Dwelling house /Apartment,,54.0744429,-7.0838689
07/12/2017,"7 SPRINGFIELD, BLACKHORSE AVE, DUBLIN 7",Dublin,,"€385,000.00",No,No,Second-Hand Dwelling house /Apartment,,53.33306,-6.24889
18/08/2017,"CARRICKNABRICK, LOUGHDUFF, CAVAN",Cavan,,"€68,000.00",No,No,Second-Hand Dwelling house /Apartment,,53.99083,-7.36056
06/10/2017,"1 SHANDON COURT, YELLOW RD UPPER, WATERFORD",Waterford,,"€101,000.00",No,No,Second-Hand Dwelling house /Apartment,,52.25833,-7.11194
04/04/2017,"Knockataggle More, Kilcummin, Killarney",Kerry,,"€108,370.00",No,Yes,New Dwelling house /Apartment,greater than or equal to 38 sq metres and less than 125 sq metres,52.1182485,-9.4393884
27/04/2017,"3 GREENHILL DR, KNOCKCROGHERY, ROSCOMMON",Roscommon,,"€115,000.00",No,No,Second-Hand Dwelling house /Apartment,,53.56667,-8.1
10/03/2017,"3 Balgriffin Grove, Malahide Road, Balgriffin",Dublin,,"€375,000.00",Yes,Yes,New Dwelling house /Apartment,greater than or equal to 38 sq metres and less than 125 sq metres,53.33306,-6.24889
25/09/2017,"1 ANNAVILLE, DUNMORE RD, WATERFORD",Waterford,,"€395,000.00",No,No,Second-Hand Dwelling house /Apartment,,52.25833,-7.11194
20/12/2017,"14 Kilheale Drive, Kilheale Manor, Kill",Kildare,,"€273,128.00",No,Yes,New Dwelling house /Apartment,greater than or equal to 38 sq metres and less than 125 sq metres,53.25139,-6.59167
26/07/2017,"9 CORRIB PARK, NEWCASTLE, GALWAY",Galway,,"€235,000.00",No,No,Second-Hand Dwelling house /Apartment,,53.2815398,-9.0725839
03/01/2017,"504 MOUNT KENNETH, THE COURT YARD, DOCK RD",Limerick,,"€60,625.00",No,No,Second-Hand Dwelling house /Apartment,,52.66472,-8.62306
08/08/2017,"37 ROCHESTOWN RISE, ROCHESTOWN, CORK",Cork,,"€447,000.00",No,No,Second-Hand Dwelling house /Apartment,,51.87,-8.38306
09/11/2017,"10 COOLEVIN, BALLYBRACK, DUBLIN",Dublin,,"€290,000.00",No,No,Second-Hand Dwelling house /Apartment,,53.33306,-6.24889
27/10/2017,"7 Odins Way, Taylors Lane, Rathfarnham",Dublin,,"€519,824.00",No,Yes,New Dwelling house /Apartment,greater than or equal to 38 sq metres and less than 125 sq metres,53.33306,-6.24889
06/10/2017,"COBBLERS BANK, BAILY, HOWTH",Dublin,,"€2,900,000.00",No,No,Second-Hand Dwelling house /Apartment,,53.33306,-6.24889
11/07/2017,"15 Hollywoodrath Rise, Hollystown",Dublin,,"€325,991.00",No,Yes,New Dwelling house /Apartment,greater than or equal to 38 sq metres and less than 125 sq metres,53.33306,-6.24889
06/06/2017,"APARTMENT 1, 13 WOLFE TONE ST, CLONMEL",Tipperary,,"€73,000.00",No,No,Second-Hand Dwelling house /Apartment,,52.3527262,-7.7057923
24/02/2017,"THE WILLOWS, WEST VILLAGE, BALLINCOLLIG",Cork,,"€422,000.00",No,No,Second-Hand Dwelling house /Apartment,,51.880594,-8.5951988
25/08/2017,"16 HAMILTON HILL, BARNAGEERAGH COVE, SKERRIES",Dublin,,"€295,154.00",No,Yes,New Dwelling house /Apartment,greater than or equal to 125 sq metres,53.33306,-6.24889
20/07/2017,"34 CLONLEA, MOUNT OVAL VILLAGE, ROCHESTOWN",Cork,,"€220,000.00",No,No,Second-Hand Dwelling house /Apartment,,51.87,-8.38306
10/05/2017,"50 SPRINGVALE, EDMONDSTOWN RD, RATHFARNHAM DUBLIN 14",Dublin,,"€400,000.00",No,No,Second-Hand Dwelling house /Apartment,,53.33306,-6.24889
24/05/2017,"9 CHURCH PLACE, COROFIN, CLARE",Clare,,"€95,000.00",No,No,Second-Hand Dwelling house /Apartment,,52.94778,-9.06306
30/06/2017,"20 GLEANN TAIN CLOSE, LETTERKENNY, DONEGAL",Donegal,,"€113,000.00",No,No,Second-Hand Dwelling house /Apartment,,54.95,-7.73333
14/12/2017,"UNIT NO. 102 SECOND FLOOR, NORTHBANK, CASTLEFORBES ROAD",Dublin,,"€302,095.00",No,No,Second-Hand Dwelling house /Apartment,,53.33306,-6.24889
24/05/2017,"2 GREENHILLS VIEW, THE PINES, BALLINASLOE",Galway,,"€105,000.00",No,No,Second-Hand Dwelling house /Apartment,,53.3275,-8.21944
10/07/2017,"12 DALTONS AVE, KILLARNEY, KERRY",Kerry,,"€178,000.00",No,No,Second-Hand Dwelling house /Apartment,,52.05,-9.51667
15/12/2017,"AILLE, BARNA, GALWAY",Galway,,"€356,000.00",No,No,Second-Hand Dwelling house /Apartment,,53.2724604,-9.1453188
06/12/2017,"6 WOODLANDS DEMENSE, MIDDLE GLANMIRE RD, MONTENOTTE",Cork,,"€585,000.00",No,No,Second-Hand Dwelling house /Apartment,,51.89797,-8.47061
03/05/2017,"16 Bridge Avenue, Royal Canal Park, Ratoath Road",Dublin,,"€356,828.19",No,Yes,New Dwelling house /Apartment,greater than or equal to 125 sq metres,53.33306,-6.24889
14/12/2017,"24 BAYVIEW AVE, NORTH STRAND, DUBLIN 3",Dublin,,"€250,000.00",No,No,Second-Hand Dwelling house /Apartment,,53.3590636,-6.2444864
06/02/2017,"14 The Green, Whitefield Manor, Bettystown",Meath,,"€242,000.00",No,Yes,New Dwelling house /Apartment,less than 38 sq metres,53.70139,-6.24611
02/06/2017,"262 SWORDS RD, SANTRY, DUBLIN 9",Dublin,,"€290,000.00",No,No,Second-Hand Dwelling house /Apartment,,53.3896418,-6.2458286
14/11/2017,"6 Dunville Way, Athlumney, Navan",Meath,,"€220,264.31",No,Yes,New Dwelling house /Apartment,greater than or equal to 125 sq metres,53.65278,-6.68139
22/12/2017,"91 CRENIGANS BANOG, MILLTOWN ROAD, ASHBOURNE",Meath,,"€303,965.00",No,Yes,New Dwelling house /Apartment,greater than or equal to 125 sq metres,53.51163,-6.39821
08/02/2017,"14 FORSTER COURT, FORSTER ST, GALWAY CITY",Galway,,"€382,500.00",No,No,Second-Hand Dwelling house /Apartment,,53.27194,-9.04889
25/04/2017,"25 Ashfield Avenue, Ridgewood, Forrest Road",Dublin,,"€315,000.00",No,Yes,New Dwelling house /Apartment,less than 38 sq metres,53.33306,-6.24889
13/07/2017,"42 ascail rois, carrickmacross",Monaghan,,"€149,780.00",No,Yes,New Dwelling house /Apartment,less than 38 sq metres,53.97278,-6.71889
07/12/2017,"4 THE DRIVE, CNOC NA GREINE, KILCULLEN",Kildare,,"€175,000.00",No,No,Second-Hand Dwelling house /Apartment,,53.13028,-6.74444
31/01/2017,"27A WOODFORD, BREWERY RD, STILLORGAN",Dublin,,"€690,000.00",No,No,Second-Hand Dwelling house /Apartment,,53.33306,-6.24889
07/03/2017,"285 KILDARE RD, CRUMLIN, DUBLIN 12",Dublin,,"€250,000.00",No,No,Second-Hand Dwelling house /Apartment,,53.3250161,-6.3120211
18/08/2017,"21 LONGWOOD AVE, SOUTH CIRCULAR RD, PORTOBELLO",Dublin,,"€800,000.00",Yes,No,Second-Hand Dwelling house /Apartment,,53.33306,-6.24889
06/02/2017,"30 OCONNELL RD, TIPPERARY, TIPPERARY",Tipperary,,"€67,000.00",No,No,Second-Hand Dwelling house /Apartment,,52.47333,-8.15583
13/04/2017,"15 MILLBROOK CLOSE, SALLYBROOK, GLANMIRE",Cork,,"€245,000.00",No,No,Second-Hand Dwelling house /Apartment,,51.91583,-8.39972
07/04/2017,"3 CRANNAGH COURT, CRANNAGH RD, RATHFARNHAM DUBLIN 14",Dublin,,"€350,000.00",No,No,Second-Hand Dwelling house /Apartment,,53.33306,-6.24889
10/11/2017,"14 VERVILLE COURT, VERNON AVE, CLONTARF DUBLIN 3",Dublin,,"€322,000.00",No,No,Second-Hand Dwelling house /Apartment,,53.33306,-6.24889
11/08/2017,"9 LIMELAWN GLADE, CLONSILLA, DUBLIN 15",Dublin,,"€390,000.00",No,No,Second-Hand Dwelling house /Apartment,,53.33306,-6.24889
06/11/2017,"49 Maudlin Vale, TRIM, MEATH",Meath,,"€225,000.00",No,No,Second-Hand Dwelling house /Apartment,,53.5474318,-6.7845512
15/05/2017,"51 Knightswood, Matthews Lane, Drogheda",Louth,,"€175,330.39",No,Yes,New Dwelling house /Apartment,greater than or equal to 38 sq metres and less than 125 sq metres,53.71889,-6.34778
22/09/2017,"16 LEO STREET, NORTH CIRCULAR ROAD, DUBLIN 7",Dublin,,"€349,000.00",No,No,Second-Hand Dwelling house /Apartment,,53.33306,-6.24889
03/08/2017,"SUNNINGDALE, LAKELANDS, TIPPERARY TOWN",Tipperary,,"€140,000.00",No,No,Second-Hand Dwelling house /Apartment,,52.47333,-8.15583
05/05/2017,"6 WOODVILLE GROVE, LUCAN, DUBLIN",Dublin,,"€339,000.00",No,No,Second-Hand Dwelling house /Apartment,,53.3579414,-6.4267726
16/01/2017,"GARRYHARRY, LETTERKENNY, DONEGAL",Donegal,,"€165,000.00",No,No,Second-Hand Dwelling house /Apartment,,54.95,-7.73333
30/08/2017,"GRAVELSTOWNE, KELLS, CO MEATH",Meath,,"€112,000.00",No,No,Second-Hand Dwelling house /Apartment,,53.72639,-6.87917
03/07/2017,"BALLINHINCH, ASHFORD, CO WICKLOW",Wicklow,,"€415,000.00",No,No,Second-Hand Dwelling house /Apartment,,53.00833,-6.11139
01/08/2017,"WHITESTOWN, GREENORE, COUNTY LOUTH",Louth,,"€220,000.00",No,No,Second-Hand Dwelling house /Apartment,,53.9957137,-6.1234332
19/05/2017,"6 WILLOW WOOD WALK, CLONSILLA DUBLIN 15, DUBLIN",Dublin,,"€265,000.00",No,No,Second-Hand Dwelling house /Apartment,,53.3908735,-6.4191694
31/10/2017,"9 ROS ARD, UPPER GLANMIRE, CORK",Cork,,"€285,000.00",Yes,No,Second-Hand Dwelling house /Apartment,,51.95028,-8.42833
10/11/2017,"11 RAILWAY MEWS, PORTARLINGTON, LAOIS",Laois,,"€129,000.00",No,No,Second-Hand Dwelling house /Apartment,,53.1471777,-7.1762854
19/06/2017,"56 THE GROVE, CLARION RD, BALLYTIVNAN",Sligo,,"€80,000.00",No,No,Second-Hand Dwelling house /Apartment,,54.26969,-8.46943
27/11/2017,"HIGHFIELD, DRYNAN, SWORDS",Dublin,,"€900,000.00",No,No,Second-Hand Dwelling house /Apartment,,53.33306,-6.24889
03/10/2017,"ARD ALAINN, KNOCKADOZEN, RATHDRUM",Wicklow,,"€175,000.00",No,No,Second-Hand Dwelling house /Apartment,,52.92639,-6.23556
20/12/2017,"GARBALLAGH, DULEEK, MEATH",Meath,,"€357,000.00",No,No,Second-Hand Dwelling house /Apartment,,53.6491648,-6.4575259
20/12/2017,"NEWTOWN, CAHERCONLISH, LIMERICK",Limerick,,"€28,635.00",No,No,Second-Hand Dwelling house /Apartment,,52.5766401,-8.4756282
10/11/2017,"12 AVONVALE HALL, BALLYNERRIN, WICKLOW",Wicklow,,"€672,000.00",No,No,Second-Hand Dwelling house /Apartment,,53.12833,-6.075
20/07/2017,"10 RICHMOND HALL, MOUNT ST ANNES, MILLTOWN DUBLIN 6",Dublin,,"€572,688.00",No,No,Second-Hand Dwelling house /Apartment,,53.33306,-6.24889
13/10/2017,"22 Cherryvalley Green, Rathmolyon",Meath,,"€259,912.00",No,Yes,New Dwelling house /Apartment,greater than or equal to 38 sq metres and less than 125 sq metres,53.48989,-6.80537
04/08/2017,"110 BELVEDERE HILLS, MULLINGAR, CO WESTMEATH",Westmeath,,"€160,000.00",No,No,Second-Hand Dwelling house /Apartment,,53.5123144,-7.3372553
08/09/2017,"61 FAIRGREEN, BALLYSIMON RD, LIMERICK",Limerick,,"€75,000.00",No,No,Second-Hand Dwelling house /Apartment,,52.66472,-8.62306
23/06/2017,"BALLYEDERLAN, ST JOHNS POINT, DUNKINEELY",Donegal,,"€112,000.00",No,No,Second-Hand Dwelling house /Apartment,,54.63083,-8.37056
30/01/2017,"TOBERPATRICK LODGE, SCREEN, SLIGO",Sligo,,"€540,000.00",No,No,Second-Hand Dwelling house /Apartment,,54.26969,-8.46943
09/02/2017,"167 BANGOR RD, CRUMLIN, DUBLIN 12",Dublin,,"€301,000.00",No,No,Second-Hand Dwelling house /Apartment,,53.3194313,-6.2974951
09/08/2017,"ASHGAR HOUSE, BALLYMADUN, GARRISTOWN",Dublin,,"€657,342.00",No,No,Second-Hand Dwelling house /Apartment,,53.33306,-6.24889
20/06/2017,"15 BASIN COURT, TRALEE, KERRY",Kerry,,"€38,038.00",No,No,Second-Hand Dwelling house /Apartment,,52.27042,-9.70264
15/09/2017,"40 Kellet's Grove, Lagore Road, Dunshaughlin",Meath,,"€289,868.00",No,Yes,New Dwelling house /Apartment,greater than or equal to 38 sq metres and less than 125 sq metres,53.5125,-6.54
29/06/2017,"2 PALACEANNE MILL, MURRAGH, ENNISKEANE",Cork,,"€165,000.00",No,No,Second-Hand Dwelling house /Apartment,,51.89797,-8.47061
13/04/2017,"112 CORD ROAD, DROGHEDA, COUNTY LOUTH",Louth,,"€45,000.00",No,No,Second-Hand Dwelling house /Apartment,,53.7168405,-6.3439614
08/02/2017,"CARNAC, 19 SILVER BIRCHES, DUNDRUM DUBLIN 14",Dublin,,"€630,000.00",No,No,Second-Hand Dwelling house /Apartment,,53.33306,-6.24889
25/10/2017,"43  Manor Road, Manor Farm, Lehanaghbeg",Cork,,"€264,317.18",No,Yes,New Dwelling house /Apartment,greater than or equal to 38 sq metres and less than 125 sq metres,51.89797,-8.47061
25/05/2017,"2 MOUNT SOUTHWELL TERRACE, LETTERKENNY, DONEGAL",Donegal,,"€100,000.00",No,No,Second-Hand Dwelling house /Apartment,,54.95,-7.73333
20/12/2017,"35  lisheen Woods, Ovens",Cork,,"€325,992.00",No,Yes,New Dwelling house /Apartment,less than 38 sq metres,51.8801649,-8.6257421
27/09/2017,"96 LAKE DR, KILMINCHY, PORTLAOISE",Laois,,"€101,321.00",No,No,Second-Hand Dwelling house /Apartment,,53.03441,-7.29979
29/11/2017,"CRONEYBYRNE HOUSE, CRONEYBYRNE, RATHDRUM",Wicklow,,"€1,654,000.00",No,No,Second-Hand Dwelling house /Apartment,,52.92639,-6.23556
14/02/2017,"15 EDENBROOK COURT, RATHFARNHAM, DUBLIN 14",Dublin,,"€335,000.00",No,No,Second-Hand Dwelling house /Apartment,,53.2900388,-6.2912924
22/08/2017,"70 BRANSWOOD, ATHY, KILDARE",Kildare,,"€142,000.00",No,No,Second-Hand Dwelling house /Apartment,,52.9847107,-6.9960328
27/06/2017,"38 COLLEGEGATE, SUMMERVILLE AVE, SOUTH CIRCULAR RD",Limerick,,"€207,000.00",No,No,Second-Hand Dwelling house /Apartment,,52.66472,-8.62306
08/06/2017,"LOUGHAN, MOYNALTY, KELLS",Meath,,"€35,000.00",No,No,Second-Hand Dwelling house /Apartment,,53.7749825,-6.9262837
24/11/2017,"4 WARRENSTOWN LAWN, BLANCHARDSTOWN, DUBLIN 15",Dublin,,"€235,000.00",No,No,Second-Hand Dwelling house /Apartment,,53.3995806,-6.3860735
02/03/2017,"108 CLONLEA, MOUNT OVAL, ROCHESTOWN",Cork,,"€155,000.00",No,No,Second-Hand Dwelling house /Apartment,,51.87,-8.38306
27/01/2017,"8 RIVERWOOD PARK, CARPENTERSTOWN, CASTLEKNOCK DUBLIN 15",Dublin,,"€358,000.00",No,No,Second-Hand Dwelling house /Apartment,,53.33306,-6.24889
20/06/2017,"17 TRALEE MARINA, TRALEE, KERRY",Kerry,,"€39,692.00",No,No,Second-Hand Dwelling house /Apartment,,52.27042,-9.70264
28/02/2017,"ARDNAGNO, KINUARA, GALWAY",Galway,,"€360,000.00",No,No,Second-Hand Dwelling house /Apartment,,53.27194,-9.04889
25/09/2017,"3 Cois Cille, Church Road, Carrigtwohill",Cork,,"€237,162.50",Yes,Yes,New Dwelling house /Apartment,greater than or equal to 38 sq metres and less than 125 sq metres,51.90833,-8.26333
17/10/2017,"74 DALE ROAD, KILMACUD, CO DUBLIN",Dublin,,"€595,000.00",No,No,Second-Hand Dwelling house /Apartment,,53.2850833,-6.2135255
31/08/2017,"13 MEADOW VALLEY, SEAFIELD, YOUGHAL",Cork,,"€176,000.00",No,No,Second-Hand Dwelling house /Apartment,,51.95,-7.85056
22/12/2017,"BROOKVALE AVE, ROSCOMMON, ROSCOMMON",Roscommon,,"€110,000.00",No,No,Second-Hand Dwelling house /Apartment,,53.63333,-8.18333
19/08/2017,"6 PINEWOOD VILLAS, GLASNEVIN NORTH, DUBLIN 11",Dublin,,"€465,000.00",No,No,Second-Hand Dwelling house /Apartment,,53.33306,-6.24889
17/07/2017,"27 EUSTON ST, GREENORE, LOUTH",Louth,,"€88,500.00",No,No,Second-Hand Dwelling house /Apartment,,54.0324875,-6.1334542
06/12/2017,"16 LOWER POULADUFF RD, BALLYPHEHANE, CORK",Cork,,"€235,000.00",No,No,Second-Hand Dwelling house /Apartment,,51.8776503,-8.4846119
02/02/2017,"1 GLEN ABHAINN PH2, DUBLIN RD, ATHLONE",Westmeath,,"€1,859,358.00",No,No,Second-Hand Dwelling house /Apartment,,53.43333,-7.95
02/11/2017,"26 Parkside Walk, Malahide Road, Dublin 13",Dublin,,"€303,964.75",No,Yes,New Dwelling house /Apartment,greater than or equal to 38 sq metres and less than 125 sq metres,53.33306,-6.24889
04/04/2017,"PEPPAROS CASTLE, KILMUCKRIDGE, WEXFORD",Wexford,,"€240,000.00",No,No,Second-Hand Dwelling house /Apartment,,52.50361,-6.28722
02/06/2017,"2 KICLARE, KILCLARE, LEITRIM",Leitrim,,"€127,000.00",No,No,Second-Hand Dwelling house /Apartment,,54.00778,-8.01556
23/10/2017,"5 CLUAIN AOIBHINN, STATION RD, ROSSLARE",Wexford,,"€310,000.00",No,No,Second-Hand Dwelling house /Apartment,,52.27583,-6.38444
07/06/2017,"28 Park Avenue, Millers Glen, Swords",Dublin,,"€288,546.24",No,Yes,New Dwelling house /Apartment,greater than or equal to 38 sq metres and less than 125 sq metres,53.4737683,-6.244472
17/01/2017,"ST RAGHEGLIN, BELTURBET, CAVAN",Cavan,,"€125,043.16",No,No,Second-Hand Dwelling house /Apartment,,54.1,-7.45
06/06/2017,"16 THE COURT, KINGSWOOD, DUBLIN",Dublin,,"€310,000.00",No,No,Second-Hand Dwelling house /Apartment,,53.3037743,-6.3734868
20/03/2017,"TRALAHAN COTTAGE, MONTANAGAY, ABBEYDORNEY",Kerry,,"€70,000.00",No,No,Second-Hand Dwelling house /Apartment,,52.35,-9.68333
21/12/2017,"BELL TOWER, SOUTH SCHULL, SCHULL",Cork,,"€380,000.00",No,No,Second-Hand Dwelling house /Apartment,,51.52487,-9.54798
15/12/2017,"LIOS AN UISCE, 1 ROCK RD, BLACKROCK",Dublin,,"€3,350,000.00",No,No,Second-Hand Dwelling house /Apartment,,53.33306,-6.24889
20/12/2017,"10 Rathmill Green, Rathmill Manor, Rathcoole",Dublin,,"€321,585.90",No,Yes,New Dwelling house /Apartment,greater than or equal to 38 sq metres and less than 125 sq metres,53.33306,-6.24889
07/11/2017,"10A BALLYRANDLE DR, DUNGARVAN, WATERFORD",Waterford,,"€190,000.00",No,No,Second-Hand Dwelling house /Apartment,,52.1060731,-7.5740386
19/09/2017,"54 MICHAEL COLLINS PARK, CLONDALKIN DUBLIN 22, DUBLIN",Dublin,,"€58,355.56",Yes,No,Second-Hand Dwelling house /Apartment,,53.3273993,-6.3980778
18/08/2017,"66 CLARENCE MANGAN RD, DUBLIN 8",Dublin,,"€518,315.00",No,No,Second-Hand Dwelling house /Apartment,,53.3351371,-6.278126
17/10/2017,"1 CASTLE WOODS, PIERCESTOWN, CO. WEXFORD",Wexford,,"€335,000.00",No,No,Second-Hand Dwelling house /Apartment,,52.2894785,-6.4873069
03/08/2017,"102 GERALD GRIFFIN ST, BLACKPOOL, CORK",Cork,,"€170,000.00",No,No,Second-Hand Dwelling house /Apartment,,51.9074252,-8.4758238
07/09/2017,"30 KILLININNY COURT, BALLYCULLEN AVE, FIRHOUSE DUBLIN 24",Dublin,,"€216,000.00",No,No,Second-Hand Dwelling house /Apartment,,53.33306,-6.24889
15/12/2017,"JOHN STREET, DINGLE, CO KERRY",Kerry,,"€284,000.00",No,No,Second-Hand Dwelling house /Apartment,,52.1395042,-10.2653893
05/09/2017,"ROSEBERRY, NEWBRIDGE, KILDARE",Kildare,,"€335,000.00",No,No,Second-Hand Dwelling house /Apartment,,53.1960476,-6.7907492
13/09/2017,"32A KEVIN STREET, DUBLIN 8",Dublin,,"€300,000.00",No,No,Second-Hand Dwelling house /Apartment,,53.3376089,-6.2659577
08/12/2017,"15 The Downs, Ballymote",Sligo,,"€114,537.44",No,Yes,New Dwelling house /Apartment,greater than or equal to 125 sq metres,54.0830993,-8.5122801
23/02/2017,"197 BEECHWOOD COURT, STILLORGAN, DUBLIN",Dublin,,"€365,000.00",No,No,Second-Hand Dwelling house /Apartment,,53.2823898,-6.1903922
09/10/2017,"GLEN COTTAGE, KING WILLIAMS GLEN, TULLYALLEN",Louth,,"€395,000.00",No,No,Second-Hand Dwelling house /Apartment,,53.73611,-6.42278
19/12/2017,"17 BLUEBERRY FIELDS, BROOMFIELD, MIDLETON",Cork,,"€247,500.00",No,No,Second-Hand Dwelling house /Apartment,,51.9224909,-8.1704571
09/11/2017,"9 LORRO GATE, ATHENRY, GALWAY",Galway,,"€2,000,000.00",No,No,Second-Hand Dwelling house /Apartment,,53.2957101,-8.7541727
14/07/2017,"8 Cedar Lawns, St Mary's Road, Edenderry",Offaly,,"€158,590.31",No,Yes,New Dwelling house /Apartment,greater than or equal to 38 sq metres and less than 125 sq metres,53.34528,-7.04972
24/03/2017,"18 SALLYNOGGIN VILLAS, DUN LAOGHAIRE, DUBLIN",Dublin,,"€125,118.12",Yes,No,Second-Hand Dwelling house /Apartment,,53.2809575,-6.139635
03/11/2017,"59 MONASTERY RISE, CLONDALKIN, DUBLIN 22",Dublin,,"€325,000.00",No,No,Second-Hand Dwelling house /Apartment,,53.3201977,-6.3880343
30/11/2017,"44 MILLRACE, MILLHOUSE, MIDLETON",Cork,,"€160,000.00",No,No,Second-Hand Dwelling house /Apartment,,51.91526,-8.18052
04/09/2017,"11 ST PAULS COURT, SHADEMORE AVE, ARD NA GREINE DUBLIN 13",Dublin,,"€192,067.00",No,No,Second-Hand Dwelling house /Apartment,,53.33306,-6.24889
06/10/2017,"37 PENROSE COURT, ANNE ST, WATERFORD",Waterford,,"€71,000.00",No,No,Second-Hand Dwelling house /Apartment,,52.25833,-7.11194
14/12/2017,"2 BELTREE AVENUE, CLONGRIFFIN, DUBLIN 13",Dublin,,"€375,000.00",No,No,Second-Hand Dwelling house /Apartment,,53.33306,-6.24889
05/12/2017,"47 THE CAIRNS, CROSSAKIEL, KELLS",Meath,,"€125,000.00",No,No,Second-Hand Dwelling house /Apartment,,53.72639,-6.87917
08/09/2017,"10 Cedar Lane, Newport Road, West;port",Mayo,,"€264,317.18",No,Yes,New Dwelling house /Apartment,greater than or equal to 38 sq metres and less than 125 sq metres,53.75977,-9.11719
09/06/2017,"4 ST JOSEPHS PARK, TUAM, GALWAY",Galway,,"€144,000.00",No,No,Second-Hand Dwelling house /Apartment,,53.5197881,-8.851262
24/03/2017,"APT D6 EDEN HALL, MODEL FARM RD, CORK",Cork,,"€137,000.00",No,No,Second-Hand Dwelling house /Apartment,,51.8896108,-8.5385403
22/05/2017,"28 KELLET'S GROVE, DUNSHAUGHLIN, CO. MEATH",Meath,,"€247,563.00",No,Yes,New Dwelling house /Apartment,greater than or equal to 125 sq metres,53.5125,-6.54
30/08/2017,"30 BOW BRIDGE, BOW LANE WEST, KILMAINHAM DUBLIN 8",Dublin,,"€282,000.00",No,No,Second-Hand Dwelling house /Apartment,,53.33306,-6.24889
24/02/2017,"25 Aughamore, Kilcock Road, Clane",Kildare,,"€268,031.71",No,Yes,New Dwelling house /Apartment,greater than or equal to 125 sq metres,53.29139,-6.68917
08/11/2017,"FRIARSTOWN HILL, GRANGE, CO LIMERICK",Limerick,,"€569,530.00",No,No,Second-Hand Dwelling house /Apartment,,52.60333,-8.44889
18/04/2017,"CORBALLY, QUIN, CLARE",Clare,,"€100,000.00",No,No,Second-Hand Dwelling house /Apartment,,52.81861,-8.86694
23/06/2017,"45 DEERPARK RD, CASTLEKNOCK, DUBLIN 15",Dublin,,"€1,100,000.00",No,No,Second-Hand Dwelling house /Apartment,,53.3741152,-6.3528556
01/06/2017,"CLASHANEA, OOLA, LIMERICK",Limerick,,"€266,000.00",No,No,Second-Hand Dwelling house /Apartment,,52.5251152,-8.2862354
20/12/2017,"90 MARSH RD, DROGHEDA, LOUTH",Louth,,"€50,000.00",No,No,Second-Hand Dwelling house /Apartment,,53.7144086,-6.3395215
13/12/2017,"Lisnageer, cootehill",Cavan,,"€150,000.00",No,Yes,New Dwelling house /Apartment,greater than or equal to 38 sq metres and less than 125 sq metres,54.0743991,-7.1741496
18/05/2017,"COMMONS CROSS, DROMISKIN, DUNDALK",Louth,,"€112,000.00",No,No,Second-Hand Dwelling house /Apartment,,54.0,-6.41667
23/07/2017,"APT 98 ANNA LIVIA HOUSE, VIKING HARBOUR, USHERS ISLAND",Dublin,,"€205,000.00",No,No,Second-Hand Dwelling house /Apartment,,53.33306,-6.24889
22/08/2017,"7 Errew Drive, Lough Rynn Castle Estate, Mohill",Leitrim,,"€79,295.15",No,Yes,New Dwelling house /Apartment,greater than or equal to 38 sq metres and less than 125 sq metres,53.91667,-7.86667
01/09/2017,"26 Lana an Bhaile, Craughwell",Galway,,"€233,480.00",No,Yes,New Dwelling house /Apartment,greater than or equal to 125 sq metres,53.22611,-8.73306
09/08/2017,"AISLING, BEECHMOUNT, COBH",Cork,,"€272,500.00",No,No,Second-Hand Dwelling house /Apartment,,51.85722,-8.29917
31/01/2017,"8 CHESTNUT GROVE, CASTLEBAR, MAYO",Mayo,,"€145,000.00",No,No,Second-Hand Dwelling house /Apartment,,53.8496288,-9.2928255
27/10/2017,"97 DRISIN, BALLYMONEEN RD, KNOCKNACARRA",Galway,,"€265,000.00",No,No,Second-Hand Dwelling house /Apartment,,53.27194,-9.04889
02/08/2017,"10 AN SRAIDE BHAILE, SHANAVOHER BEEWNG, CORK",Cork,,"€85,000.00",No,No,Second-Hand Dwelling house /Apartment,,51.89797,-8.47061
21/08/2017,"33 NEW ROW SQ, NEW ROW, DUBLIN 8",Dublin,,"€307,000.00",No,No,Second-Hand Dwelling house /Apartment,,53.33306,-6.24889
06/02/2017,"AHANBOY, PORTMAGEE, KILLARNEY",Kerry,,"€10,000.00",No,No,Second-Hand Dwelling house /Apartment,,52.05,-9.51667
10/04/2017,"63 DELFORD DR, ROCHESTOWN, CORK",Cork,,"€287,000.00",No,No,Second-Hand Dwelling house /Apartment,,51.8776243,-8.4189656
12/10/2017,"146 ARDEN VIEW, TULLAMORE, COUNTY OFFALY",Offaly,,"€80,000.00",No,No,Second-Hand Dwelling house /Apartment,,53.2817761,-7.4962251
21/12/2017,"2 FORBES LANE, DUBLIN 8, DUBLIN",Dublin,,"€260,000.00",No,No,Second-Hand Dwelling house /Apartment,,53.3394114,-6.2874538
29/06/2017,"189 Churchfields, Ashbourne",Meath,,"€235,280.00",No,Yes,New Dwelling house /Apartment,greater than or equal to 38 sq metres and less than 125 sq metres,53.5074254,-6.407285
03/07/2017,"2 ARDUINNE, BURNFORT, MALLOW",Cork,,"€370,000.00",No,No,Second-Hand Dwelling house /Apartment,,52.13333,-8.63333
10/06/2017,"CLOONDACE, KNOCK, CO. MAYO",Mayo,,"€53,000.00",No,No,Second-Hand Dwelling house /Apartment,,53.8078812,-8.9184667
20/12/2017,"20 Crocknageeha, Rinclevan, Dunfanaghy",Donegal,,"€180,616.73",No,Yes,New Dwelling house /Apartment,greater than or equal to 38 sq metres and less than 125 sq metres,55.18333,-7.96667
28/07/2017,"72 ORCHARDSTOWN DR, TEMPLEOGUE, DUBLIN 14",Dublin,,"€410,000.00",No,No,Second-Hand Dwelling house /Apartment,,53.33306,-6.24889
03/07/2017,"123 MAIN ST, BALLYBAY, MONAGHAN",Monaghan,,"€43,500.00",No,No,Second-Hand Dwelling house /Apartment,,54.1257032,-6.9007921
11/05/2017,"92 PARK AVE, SWORDS, DUBLIN",Dublin,,"€290,000.00",No,No,Second-Hand Dwelling house /Apartment,,53.4586128,-6.2408392
20/12/2017,"19 Beechwood Gate, Hansfield",Dublin,,"€295,153.00",No,Yes,New Dwelling house /Apartment,greater than or equal to 38 sq metres and less than 125 sq metres,53.33306,-6.24889
22/04/2017,"38B YEATS VILLAGE, BALLINODE, CO SLIGO",Sligo,,"€58,000.00",No,No,Second-Hand Dwelling house /Apartment,,54.26969,-8.46943
10/02/2017,"37 THE MEADOWS, SMITHBOROUGH, CO MONAGHAN",Monaghan,,"€88,106.00",Yes,Yes,New Dwelling house /Apartment,greater than or equal to 38 sq metres and less than 125 sq metres,54.2193896,-7.1033436
03/02/2017,"CLONKEEFY, BALLYJAMESDUFF, CAVAN",Cavan,,"€258,760.00",No,No,Second-Hand Dwelling house /Apartment,,53.86528,-7.20278
22/08/2017,"190 STANNAWAY RD, CRUMLIN, DUBLIN 12",Dublin,,"€139,048.75",No,No,Second-Hand Dwelling house /Apartment,,53.3175416,-6.3050532
30/11/2017,"6 CAREYSWOODS, WHITEGATE, CORK",Cork,,"€230,000.00",No,No,Second-Hand Dwelling house /Apartment,,51.83056,-8.22972
02/06/2017,"4 AILESBURY OAKS, AILESBURY RD, BALLSBRIDGE DUBLIN 4",Dublin,,"€840,000.00",No,No,Second-Hand Dwelling house /Apartment,,53.33306,-6.24889
20/12/2017,"FLATS, 11 O'CONNELL STREET, WATERFORD CITY",Waterford,,"€155,000.00",No,No,Second-Hand Dwelling house /Apartment,,52.25833,-7.11194
23/03/2017,"33 CONNOLLY SQ, BRAY, WICKLOW",Wicklow,,"€236,000.00",No,No,Second-Hand Dwelling house /Apartment,,53.2030932,-6.112124
18/12/2017,"105 THE WESTMORELAND, CHARLOTTE QUAY DOCK, DUBLIN 4",Dublin,,"€395,000.00",No,Yes,New Dwelling house /Apartment,greater than or equal to 38 sq metres and less than 125 sq metres,53.33306,-6.24889
06/10/2017,"12 ORMOND GROVE, SWORDS MANOR, SWORDS",Dublin,,"€296,000.00",No,No,Second-Hand Dwelling house /Apartment,,53.33306,-6.24889
23/02/2017,"13 STONEBRIDGE AVE, HARTSTOWN, CLONSILLA DUBLIN 15",Dublin,,"€215,000.00",No,No,Second-Hand Dwelling house /Apartment,,53.33306,-6.24889
21/03/2017,"GLENCOLUMKILLE GARDA STATION, GANNEW, GLENCOLUMKILLE",Donegal,,"€47,500.00",No,No,Second-Hand Dwelling house /Apartment,,54.91667,-8.0
23/11/2017,"16 NIALL ST, STONEYBATTER, DUBLIN 7",Dublin,,"€190,000.00",No,No,Second-Hand Dwelling house /Apartment,,53.33306,-6.24889
12/05/2017,"47 The Cairns, Crossakiel, Kells",Meath,,"€54,371.30",No,Yes,New Dwelling house /Apartment,greater than or equal to 125 sq metres,53.72639,-6.87917
18/01/2017,"10 BROOKFIELD PARK, KEENAGH, CO LONGFORD",Longford,,"€110,500.00",No,No,Second-Hand Dwelling house /Apartment,,53.62316,-7.81488
30/06/2017,"176 PEARSE PARK, DROGHEDA, LOUTH",Louth,,"€60,000.00",No,No,Second-Hand Dwelling house /Apartment,,53.7205956,-6.346687
29/09/2017,"12 TURNBERRY, WARREN HOUSE ROAD, BALDOYLE",Dublin,,"€540,000.00",No,No,Second-Hand Dwelling house /Apartment,,53.33306,-6.24889
08/12/2017,"22  Orchid Grove, Abbeyfort, Kinsale",Cork,,"€160,000.00",No,Yes,New Dwelling house /Apartment,greater than or equal to 38 sq metres and less than 125 sq metres,51.7075,-8.53056
20/12/2017,"7 SLIEVENAMON GOLF CLUB, LISRONAGH, CLONMEL",Tipperary,,"€169,000.00",No,No,Second-Hand Dwelling house /Apartment,,52.47333,-8.15583
07/11/2017,"17 the park, paddocks, hansfield",Dublin,,"€277,533.00",No,Yes,New Dwelling house /Apartment,greater than or equal to 38 sq metres and less than 125 sq metres,53.33306,-6.24889
12/01/2017,"NEWTOWN, NORWOOD, NENAGH",Tipperary,,"€300,000.00",No,No,Second-Hand Dwelling house /Apartment,,52.47333,-8.15583
07/03/2017,"APT 17, BODEN MEATH, BALLYBODEN DUBLIN 16",Dublin,,"€235,100.00",No,No,Second-Hand Dwelling house /Apartment,,53.33306,-6.24889
29/08/2017,"106 RUIGNALECKA, SLIGO RD, BALLINA",Mayo,,"€277,500.00",No,No,Second-Hand Dwelling house /Apartment,,54.11667,-9.16667
21/11/2017,"14 Oak Drive, Derrinturn",Kildare,,"€229,225.00",No,Yes,New Dwelling house /Apartment,greater than or equal to 125 sq metres,53.34167,-6.94111
30/08/2017,"SEANAGURRAN, AN SPIDEAL, CO GALWAY",Galway,,"€285,000.00",No,No,Second-Hand Dwelling house /Apartment,,53.24667,-9.30278
09/11/2017,"73 ROSSMORE VILLAGE, DUNDRUM RD, TIPPERARY",Tipperary,,"€117,000.00",Yes,No,Second-Hand Dwelling house /Apartment,,52.47333,-8.15583
25/10/2017,"COOL BAY, MOUNTSHANNON, CO CLARE",Clare,,"€115,000.00",No,No,Second-Hand Dwelling house /Apartment,,52.93056,-8.42583
14/06/2017,"22 LENIHAN AVE, PROSPECT, LIMERICK",Limerick,,"€32,000.00",No,No,Second-Hand Dwelling house /Apartment,,52.6530201,-8.6270149
03/08/2017,"2 RAILWAY AVE, CLIFDEN, GALWAY",Galway,,"€104,000.00",No,No,Second-Hand Dwelling house /Apartment,,53.48907,-10.0191
20/06/2017,"28 THE DRIVE, HUNTERS RUN, DUBLIN 15",Dublin,,"€280,000.00",No,No,Second-Hand Dwelling house /Apartment,,53.33306,-6.24889
06/12/2017,"6 FARMLEIGH PARK, STILLORGAN, DUBLIN",Dublin,,"€695,000.00",No,No,Second-Hand Dwelling house /Apartment,,53.2830605,-6.1923725
27/07/2017,"7 The Drive, Piper's Hill, Killashee",Kildare,,"€431,717.00",No,Yes,New Dwelling house /Apartment,greater than or equal to 125 sq metres,53.15611,-6.91444
13/09/2017,"11 SLIEVE ARDAGH, GRANGEMOCKLER, CARRICK ON SUIR",Tipperary,,"€100,000.00",No,No,Second-Hand Dwelling house /Apartment,,52.47333,-8.15583
18/08/2017,"KEAVES, BALLINAMORE BRIDGE, BALLINASLOE",Galway,,"€30,000.00",No,No,Second-Hand Dwelling house /Apartment,,53.3275,-8.21944
16/06/2017,"19 BELLVUE COURT, OLD YOUGHAL ROAD, CORK",Cork,,"€140,000.00",No,No,Second-Hand Dwelling house /Apartment,,51.89797,-8.47061
24/10/2017,"5 O'BRIENS RANGE, ENNISCORTHY, CO WEXFORD",Wexford,,"€170,000.00",No,No,Second-Hand Dwelling house /Apartment,,52.50083,-6.55778
25/01/2017,"AUGHNAGOMAUN, CASHEL, CO TIPPERARY",Tipperary,,"€80,000.00",No,No,Second-Hand Dwelling house /Apartment,,52.66667,-7.83333
06/02/2017,"100 Evanwood, Golf Links Road, Castletroy",Limerick,,"€209,500.00",No,Yes,New Dwelling house /Apartment,greater than or equal to 38 sq metres and less than 125 sq metres,52.66472,-8.62306
02/02/2017,"51 MILLBROOK RD, RAHENY DUBLIN 5, DUBLIN",Dublin,,"€153,320.00",Yes,No,Second-Hand Dwelling house /Apartment,,53.33306,-6.24889
19/12/2017,"WEST END, SNEEM, KERRY",Kerry,,"€70,000.00",No,No,Second-Hand Dwelling house /Apartment,,51.83333,-9.9
25/01/2017,"21 CHURCH PARK DR, HAROLDS CROSS, DUBLIN 6W",Dublin,,"€430,000.00",No,No,Second-Hand Dwelling house /Apartment,,53.33306,-6.24889
06/12/2017,"59 ST JAMESS WOOD, SOUTH CIRCULAR RD, DUBLIN 8",Dublin,,"€329,000.00",No,No,Second-Hand Dwelling house /Apartment,,53.33306,-6.24889
21/12/2017,"179 OXMANTOWN RD, STONEYBATTER, DUBLIN 7",Dublin,,"€390,000.00",No,No,Second-Hand Dwelling house /Apartment,,53.33306,-6.24889
11/10/2017,"3 BARRYS PLACE, CATHEDRAL ROAD, CORK",Cork,,"€180,000.00",No,No,Second-Hand Dwelling house /Apartment,,51.89797,-8.47061
12/05/2017,"11 ASHFIELD, GREATMEADOW, BOYLE",Roscommon,,"€135,000.00",Yes,No,Second-Hand Dwelling house /Apartment,,53.9648351,-8.3042371
25/08/2017,"81 MARINA COURT, ATHY, KILDARE",Kildare,,"€80,000.00",No,No,Second-Hand Dwelling house /Apartment,,52.9885651,-6.9826509
30/03/2017,"REA, KILMORNA, LISTOWEL",Kerry,,"€77,500.00",No,No,Second-Hand Dwelling house /Apartment,,52.44639,-9.485
05/05/2017,"APT 1 CAPPAVILLA VILLAGE, UNIVERSITY OF LIMERICK GARRAUN, CLONLARA",Clare,,"€23,070,000.00",No,No,Second-Hand Dwelling house /Apartment,,52.81556,-8.96667
16/08/2017,"DERRYVUNLAN, BALLYSHRULE, BALLINASLOE",Galway,,"€36,300.00",Yes,No,Second-Hand Dwelling house /Apartment,,53.3275,-8.21944
03/10/2017,"31 ridgewoon manor, melitta road, kildare",Kildare,,"€255,506.61",No,Yes,New Dwelling house /Apartment,greater than or equal to 125 sq metres,53.15611,-6.91444
10/10/2017,"22 RICHMOND HALL, MOUNT ST ANNES, MILLTOWN",Dublin,,"€622,736.00",No,No,Second-Hand Dwelling house /Apartment,,53.33306,-6.24889
08/12/2017,"3 WOODVILLE PLACE, CLONMELLON, WESTMEATH",Westmeath,,"€155,000.00",No,No,Second-Hand Dwelling house /Apartment,,53.66374,-7.01779
04/02/2017,"19 COLPE AVENUE, DEEPFORDE, DROGHEDA",Meath,,"€425,000.00",No,No,Second-Hand Dwelling house /Apartment,,53.7027465,-6.3168291
12/10/2017,"BALLYMARTIN, KILMAINE, MAYO",Mayo,,"€43,200.00",Yes,No,Second-Hand Dwelling house /Apartment,,53.5831578,-9.1456418
17/07/2017,"GLENAHULLA, MITCHELSTOWN, CO CORK",Cork,,"€215,000.00",No,No,Second-Hand Dwelling house /Apartment,,52.26583,-8.26806
14/03/2017,"30 BEECHDALE RD, BALLYCULLEN, DUBLIN 24",Dublin,,"€360,000.00",No,No,Second-Hand Dwelling house /Apartment,,53.2704764,-6.3359483
01/06/2017,"71 MILLRACE RD, PHOENIX PARK RACECOURSE, CASTLEKNOCK",Dublin,,"€340,000.00",No,No,Second-Hand Dwelling house /Apartment,,53.3725727,-6.3355977
05/07/2017,"95 PEARSE RD, GRAIGUECULLEN, CARLOW",Carlow,,"€115,000.00",No,No,Second-Hand Dwelling house /Apartment,,52.84083,-6.92611
31/03/2017,"KILNADEEMA, LOUGHREA, CO. GALWAY",Galway,,"€60,000.00",No,No,Second-Hand Dwelling house /Apartment,,53.19694,-8.56694
02/05/2017,"356 MORELL AVE, NAAS, KILDARE",Kildare,,"€235,000.00",No,No,Second-Hand Dwelling house /Apartment,,53.2375661,-6.6586765
18/12/2017,"24 LEVMOSS AVE, LEVMOSS PARK, THE GALLOPS DUBLIN 18",Dublin,,"€425,000.00",No,No,Second-Hand Dwelling house /Apartment,,53.33306,-6.24889
13/11/2017,"RAHEENAGURREN WEST, COURTOWN RD, GOREY",Wexford,,"€310,000.00",No,No,Second-Hand Dwelling house /Apartment,,52.67472,-6.2925
21/07/2017,"ST JOSEPHS, SCHOLARSTOWN RD, RATHFARNHAM DUBLIN 16",Dublin,,"€580,000.00",No,No,Second-Hand Dwelling house /Apartment,,53.33306,-6.24889
06/07/2017,"CRAYSTOWN COTTAGE, NAVAN, CO MEATH",Meath,,"€40,000.00",No,No,Second-Hand Dwelling house /Apartment,,53.65278,-6.68139
28/11/2017,"24 Stillorgan Gate, Stillorgan",Dublin,,"€497,798.00",No,Yes,New Dwelling house /Apartment,greater than or equal to 125 sq metres,53.33306,-6.24889
28/07/2017,"23 THE LAWN, WESTGROVE, DONNYBROOK",Cork,,"€355,000.00",No,No,Second-Hand Dwelling house /Apartment,,51.89797,-8.47061
21/12/2017,"50 Carton Grove, Dublin Road, Maynooth",Kildare,,"€295,154.18",No,Yes,New Dwelling house /Apartment,greater than or equal to 38 sq metres and less than 125 sq metres,53.385,-6.59361
06/06/2017,"2 MARINEGATE, BELMONT, COBH",Cork,,"€192,000.00",No,No,Second-Hand Dwelling house /Apartment,,51.85722,-8.29917
09/06/2017,"ROCKFIELD, TOGHER, CARRICKGORMAN BAILEBOROUGH",Cavan,,"€85,000.00",No,No,Second-Hand Dwelling house /Apartment,,53.91667,-6.96667
24/08/2017,"65 MARBLE CREST, GALLOWS HILL, LOUGHBOY",Kilkenny,,"€215,000.00",No,No,Second-Hand Dwelling house /Apartment,,52.65417,-7.25222
07/11/2017,"7 BAILLE NA GAILLE, BALLYDAVID, KERRY",Kerry,,"€195,000.00",No,No,Second-Hand Dwelling house /Apartment,,52.19056,-10.38
10/04/2017,"GORTSKEAGH, CHARLEVILLE, CORK",Cork,,"€160,000.00",No,No,Second-Hand Dwelling house /Apartment,,52.35,-8.68333
09/02/2017,"CLOONLYON, BALLYGAR, CO GALWAY",Galway,,"€66,000.00",No,No,Second-Hand Dwelling house /Apartment,,53.5090674,-8.328428
10/02/2017,"5 CUSTUME PIER APPARTMENTS, CUSTUME PLACE, ATHLONE",Westmeath,,"€92,000.00",No,No,Second-Hand Dwelling house /Apartment,,53.43333,-7.95
07/07/2017,"229 CHAMBERS PARK, KILCOCK, KILDARE",Kildare,,"€169,000.00",No,No,Second-Hand Dwelling house /Apartment,,53.3923714,-6.6722936
08/12/2017,"CLARAGHTLEA, KILLARNEY ROAD, MILLSTREET",Cork,,"€330,000.00",No,No,Second-Hand Dwelling house /Apartment,,52.06667,-9.06667
14/09/2017,"5 STILLORGAN PARK AVENUE, BLACKROCK, CO DUBLIN",Dublin,,"€935,000.00",No,No,Second-Hand Dwelling house /Apartment,,53.2887834,-6.1940542
02/06/2017,"21 WHITEWATER ESTUARY, BALLYHACK, WEXFORD",Wexford,,"€125,000.00",No,No,Second-Hand Dwelling house /Apartment,,52.2503672,-6.9646138
29/09/2017,"15 CLOONOMRA, CLONLARA, CLARE",Clare,,"€125,000.00",No,No,Second-Hand Dwelling house /Apartment,,52.81556,-8.96667
17/11/2017,"128 MOUNT PROSPECT GLEN, CLONARD, WEXFORD",Wexford,,"€150,000.00",No,No,Second-Hand Dwelling house /Apartment,,52.33417,-6.4575
24/05/2017,"15 MILLRACE AVE, SAGGART, DUBLIN",Dublin,,"€322,000.00",No,No,Second-Hand Dwelling house /Apartment,,53.2808227,-6.4509888
28/07/2017,"DWYERS RD, MIDLETON, CORK",Cork,,"€367,500.00",No,No,Second-Hand Dwelling house /Apartment,,51.91526,-8.18052
18/08/2017,"Apt 17 Adelphi Manor, Upper George&#039;s Street, Dun Laoghaire",Dublin,,"€528,633.00",No,Yes,New Dwelling house /Apartment,greater than or equal to 38 sq metres and less than 125 sq metres,52.60361,-8.24444
16/11/2017,"MULLANWARY, BELTURBET, COUNTY CAVAN",Cavan,,"€20,000.00",No,No,Second-Hand Dwelling house /Apartment,,54.1199101,-7.4917334
21/08/2017,"31 MORRISCASTLE VILLAGE, KILMUCKRIDGE, WEXFORD",Wexford,,"€175,000.00",No,No,Second-Hand Dwelling house /Apartment,,52.5170686,-6.2547214
16/08/2017,"11 SYCAMORE DRIVE, BALLYCUMBER, CO. OFFALY",Offaly,,"€43,375.00",Yes,No,Second-Hand Dwelling house /Apartment,,53.3266703,-7.6905202
24/08/2017,"BARRACK STREET, OLDCASTLE, CO MEATH",Meath,,"€60,000.00",No,No,Second-Hand Dwelling house /Apartment,,53.76648,-7.16284
11/09/2017,"4 Hollywoodrath Rise, Hollystown, Dublin 16",Dublin,,"€279,735.68",No,Yes,New Dwelling house /Apartment,greater than or equal to 38 sq metres and less than 125 sq metres,53.33306,-6.24889
01/11/2017,"33 DUNDRUM GATE, BALLINTEER RD, DUBLIN 16",Dublin,,"€410,000.00",No,No,Second-Hand Dwelling house /Apartment,,53.33306,-6.24889
21/04/2017,"63 PARK RIDGE, GRANGE RATH, DROGHEDA",Meath,,"€245,000.00",No,No,Second-Hand Dwelling house /Apartment,,53.7056698,-6.3003504
28/04/2017,"1 DodderBrook Gardens, DodderBrook Wood, Ballycullen",Dublin,,"€351,938.00",No,Yes,New Dwelling house /Apartment,greater than or equal to 38 sq metres and less than 125 sq metres,53.33306,-6.24889
28/08/2017,"10 LISSAVA TERRACE, CAHIR, TIPPERARY",Tipperary,,"€110,000.00",No,No,Second-Hand Dwelling house /Apartment,,52.47333,-8.15583
02/02/2017,"1 POACHERS LOCK, CHURCH STREET, LEIGHLINBRIDGE",Carlow,,"€63,500.00",No,No,Second-Hand Dwelling house /Apartment,,52.73639,-6.9725
14/09/2017,"COZY COTTAGE, AHAGLASIN, CASTLEFREKE",Cork,,"€235,000.00",No,No,Second-Hand Dwelling house /Apartment,,51.89797,-8.47061
28/07/2017,"14 HILLCREST, CLAREMORRIS, CO MAYO",Mayo,,"€167,500.00",No,No,Second-Hand Dwelling house /Apartment,,53.71667,-9.0
27/03/2017,"65 CORBAWN DR, SHANKILL, DUBLIN",Dublin,,"€387,500.00",No,No,Second-Hand Dwelling house /Apartment,,53.2358766,-6.1120701
22/03/2017,"MANAKAI, PORTAN, CLONEE",Meath,D15TN84,"€280,000.00",No,No,Second-Hand Dwelling house /Apartment,,53.41167,-6.44417
08/09/2017,"23 THE WALK, ROBSWALL MALAHIDE, DUBLIN",Dublin,,"€585,000.00",No,No,Second-Hand Dwelling house /Apartment,,53.33306,-6.24889
21/12/2017,"BREAFFY RD, CASTLEBAR, MAYO",Mayo,,"€350,000.00",No,No,Second-Hand Dwelling house /Apartment,,53.8503929,-9.2782696
27/07/2017,"125 CLUAIN BUILDING, THE MOYNE, ENNISCORTHY",Wexford,,"€73,000.00",No,No,Second-Hand Dwelling house /Apartment,,52.50083,-6.55778
26/07/2017,"4 Crannach, kenagh",Longford,,"€43,750.00",No,Yes,New Dwelling house /Apartment,greater than or equal to 125 sq metres,53.72536,-7.79823
26/09/2017,"2 Woodbank, Shankill",Dublin,,"€291,107.91",No,Yes,New Dwelling house /Apartment,greater than or equal to 38 sq metres and less than 125 sq metres,53.2364425,-6.1272857
27/02/2017,"3 FERN CLOSE, CASTLEHEIGHTS, CARRIGALINE",Cork,,"€211,538.46",No,No,Second-Hand Dwelling house /Apartment,,51.81167,-8.39861
18/10/2017,"40 HARRISON PLACE, CHARLEVILLE, CORK",Cork,,"€110,000.00",No,No,Second-Hand Dwelling house /Apartment,,52.35,-8.68333
07/07/2017,"39 Cois Farraige, Blackrock, Dundalk",Louth,,"€198,950.00",No,Yes,New Dwelling house /Apartment,greater than or equal to 38 sq metres and less than 125 sq metres,53.9660669,-6.3755284
25/01/2017,"27 ANNAGHDUN, INAGH, CLARE",Clare,,"€177,000.00",No,No,Second-Hand Dwelling house /Apartment,,52.875,-9.18167
12/12/2017,"41 AWBEG RIVERVALLEY, MALLOW, CORK",Cork,,"€172,000.00",No,No,Second-Hand Dwelling house /Apartment,,52.13333,-8.63333
26/07/2017,"21 A Oakfield  Manor, Kinlough",Leitrim,,"€60,000.00",No,Yes,New Dwelling house /Apartment,greater than or equal to 38 sq metres and less than 125 sq metres,54.4507844,-8.2890601
12/12/2017,"CARRIGANURRA, SLIEVERUE, KILKENNY",Kilkenny,,"€80,000.00",Yes,No,Second-Hand Dwelling house /Apartment,,52.65417,-7.25222
10/05/2017,"226 PARKLANDS, NORTHWOOD, SANTRY DUBLIN 9",Dublin,,"€160,000.00",No,No,Second-Hand Dwelling house /Apartment,,53.33306,-6.24889
13/11/2017,"1 COIS NA GALE, ATHEA, LIMERICK",Limerick,,"€76,000.00",No,No,Second-Hand Dwelling house /Apartment,,52.45972,-9.28944
01/12/2017,"13 WILTON MANOR, RATHNEW, CO WICKLOW",Wicklow,,"€235,000.00",No,No,Second-Hand Dwelling house /Apartment,,52.9872492,-6.0775053
05/12/2017,"HYMNESTOWN, NEW INN, CASHEL",Tipperary,,"€185,000.00",No,No,Second-Hand Dwelling house /Apartment,,52.47333,-8.15583
29/06/2017,"PALLAS, DONOHILL, CO TIPPERARY",Tipperary,,"€70,000.00",No,No,Second-Hand Dwelling house /Apartment,,52.5319657,-8.1206463
25/04/2017,"19 ARD GLAS, BALLYVORA, FERBANE",Offaly,,"€139,000.00",No,No,Second-Hand Dwelling house /Apartment,,53.26944,-7.82694
03/04/2017,"18 PARK VILLAS, DUNDALK, LOUTH",Louth,,"€172,000.00",No,No,Second-Hand Dwelling house /Apartment,,54.0037662,-6.4056563
11/08/2017,"KILLALOE, CALLAN, KILKENNY",Kilkenny,,"€200,000.00",Yes,No,Second-Hand Dwelling house /Apartment,,52.5823984,-7.4192444
30/01/2017,"27 CLONASLEE, NENAGH, CO TIPPERARY",Tipperary,,"€210,000.00",No,No,Second-Hand Dwelling house /Apartment,,52.8695391,-8.2107497
05/12/2017,"DUNBIN KNOCKBRIDGE, DUNDALK, LOUTH",Louth,,"€255,000.00",No,No,Second-Hand Dwelling house /Apartment,,54.0,-6.41667
27/04/2017,"4 Castleway, Kinsealy Lane, Malahide",Dublin,,"€681,415.92",No,Yes,New Dwelling house /Apartment,greater than or equal to 38 sq metres and less than 125 sq metres,53.33306,-6.24889
28/07/2017,"87 RATHMINES TOWN CENTRE, RATHMINES, DUBLIN 6",Dublin,,"€340,000.00",No,No,Second-Hand Dwelling house /Apartment,,53.3252466,-6.2641254
19/06/2017,"KNOCKRANNY, CASTLEBAR RD, WESTPORT",Mayo,,"€495,000.00",No,No,Second-Hand Dwelling house /Apartment,,53.8,-9.51667
28/09/2017,"7 SEAGRANGE AVE, BALDOYLE, DUBLIN 13",Dublin,,"€295,000.00",No,No,Second-Hand Dwelling house /Apartment,,53.395968,-6.1385968
11/10/2017,"OUGHTOUSE, STRAIDE, FOXFORD",Mayo,,"€85,000.00",No,No,Second-Hand Dwelling house /Apartment,,53.98333,-9.11667
16/08/2017,"167 GLENWOOD, DUBLIN RD, DUNDALK",Louth,,"€157,000.00",No,No,Second-Hand Dwelling house /Apartment,,54.0,-6.41667
04/12/2017,"13A MEADOWBANK PARK, LETTERKENNY, DONEGAL",Donegal,,"€83,000.00",No,No,Second-Hand Dwelling house /Apartment,,54.9602664,-7.739364
06/10/2017,"32 MOOREHALL CLOSE, ARDEE, LOUTH",Louth,,"€270,000.00",No,No,Second-Hand Dwelling house /Apartment,,53.85972,-6.54056
17/05/2017,"2 WATERVILLE LINKS, WATERVILLE, KERRY",Kerry,,"€140,000.00",No,No,Second-Hand Dwelling house /Apartment,,51.83333,-10.16667
29/03/2017,"8 HILL STREET, BALLINA, CO MAYO",Mayo,,"€67,000.00",No,No,Second-Hand Dwelling house /Apartment,,54.1119373,-9.1559228
03/08/2017,"10  LIMETREE HALL, DUBLIN ROAD, MAYNOOTH",Kildare,,"€352,422.00",No,Yes,New Dwelling house /Apartment,greater than or equal to 38 sq metres and less than 125 sq metres,53.385,-6.59361
09/02/2017,"LISMULBREEDA, DARRAGH, ENNIS",Clare,,"€245,000.00",No,No,Second-Hand Dwelling house /Apartment,,52.84361,-8.98639
23/06/2017,"APT 6, BRUACH NA LAOI, UNION QUAY",Cork,,"€160,000.00",No,No,Second-Hand Dwelling house /Apartment,,51.896289,-8.467555
13/07/2017,"290 CHARLESLAND PARK, GREYSTONES, CO WICKLOW",Wicklow,,"€275,000.00",No,No,Second-Hand Dwelling house /Apartment,,53.125287,-6.0711873
20/03/2017,"APT 63, GROVE ISLAND, CORBALLY",Limerick,,"€125,000.00",No,No,Second-Hand Dwelling house /Apartment,,52.66472,-8.62306
01/09/2017,"THE OLD PRESBYTERY, VALLEYMOUNT, WICKLOW",Wicklow,,"€685,000.00",No,No,Second-Hand Dwelling house /Apartment,,53.10389,-6.55361
23/08/2017,"Apt. 4, Block 1 New Priory, Hole in the Wall Road",Dublin,,"€156,828.00",No,Yes,New Dwelling house /Apartment,greater than or equal to 38 sq metres and less than 125 sq metres,53.33306,-6.24889
15/06/2017,"BROADFIELDS BUNGALOW, KILMINION, DUNGARVAN",Waterford,,"€250,000.00",No,No,Second-Hand Dwelling house /Apartment,,52.08806,-7.62528
22/08/2017,"21 The Lane, Riverchapel Wood, Riverchapel",Wexford,,"€124,000.00",No,Yes,New Dwelling house /Apartment,greater than or equal to 38 sq metres and less than 125 sq metres,52.63667,-6.23194
27/02/2017,"232 BALROTHERY EST, TALLAGHT, DUBLIN 24",Dublin,,"€256,000.00",No,No,Second-Hand Dwelling house /Apartment,,53.2913701,-6.3402871
30/11/2017,"1 Croftwell, School Road, Rathcoole",Dublin,,"€361,233.48",No,Yes,New Dwelling house /Apartment,greater than or equal to 125 sq metres,53.33306,-6.24889
31/10/2017,"20 carton grove, dublin road, maynooth",Kildare,,"€281,938.33",No,Yes,New Dwelling house /Apartment,less than 38 sq metres,53.385,-6.59361
20/11/2017,"APT 31 YEATS VILLAGE, BALLINODE, SLIGO",Sligo,,"€100,000.00",No,No,Second-Hand Dwelling house /Apartment,,54.26969,-8.46943
07/12/2017,"214 CITY CAMPUS, LORD EDWARD STREET, LIMERICK",Limerick,,"€135,000.00",No,No,Second-Hand Dwelling house /Apartment,,52.66472,-8.62306
28/02/2017,"17 JUTLAND HALL, STEAMBOAT QUAY, LIMERICK",Limerick,,"€48,000.00",No,No,Second-Hand Dwelling house /Apartment,,52.66472,-8.62306
20/12/2017,"26A THE GLEN, BETTYGLEN, WATERMILL RD DUBLIN 5",Dublin,,"€210,000.00",No,No,Second-Hand Dwelling house /Apartment,,53.33306,-6.24889
15/11/2017,"36 CANON HALL, CHURCH ST EAST, DUBLIN 3",Dublin,,"€307,000.00",No,No,Second-Hand Dwelling house /Apartment,,53.33306,-6.24889
26/04/2017,"58 LOG NA GCAPALL, CIRCULAR RD SOUTH, LIMERICK",Limerick,,"€203,000.00",No,No,Second-Hand Dwelling house /Apartment,,52.66472,-8.62306
24/02/2017,"6 HAWTHORN WALK, PARCNAGOWAN, OUTRATH RD",Kilkenny,,"€240,000.00",No,No,Second-Hand Dwelling house /Apartment,,52.65417,-7.25222
04/10/2017,"49 HONEYVIEW, CLONMEL, TIPPERARY",Tipperary,,"€140,000.00",No,No,Second-Hand Dwelling house /Apartment,,52.3613764,-7.7171787
14/01/2017,"APT 7, ROSSGROVE HOUSE, HENNESSYS RD",Waterford,,"€30,000.00",No,No,Second-Hand Dwelling house /Apartment,,52.25833,-7.11194
10/03/2017,"23 Maydenhayes Lane, Maydenhayes, Mornington",Meath,,"€211,013.21",No,Yes,New Dwelling house /Apartment,greater than or equal to 125 sq metres,53.7134674,-6.2821009
05/04/2017,"45 HARBOUR VIEW, KILLALOW, CLARE",Clare,,"€67,500.00",No,No,Second-Hand Dwelling house /Apartment,,52.81556,-8.96667
03/07/2017,"76 CARYSFORT DOWNS, BLACKROCK, DUBLIN",Dublin,,"€915,000.00",No,No,Second-Hand Dwelling house /Apartment,,53.2860639,-6.1853485
07/12/2017,"2 BARRYSCOURT HOUSE, DOUGLAS, CORK",Cork,,"€148,015.50",No,No,Second-Hand Dwelling house /Apartment,,51.87444,-8.435
05/07/2017,"4 THE SQUARE, JEWELLERS, DUNMANWAY",Cork,,"€85,000.00",No,No,Second-Hand Dwelling house /Apartment,,51.71667,-9.11667
03/11/2017,"151A CORKE ABBEY, BRAY, CO WICKLOW",Dublin,,"€370,000.00",No,No,Second-Hand Dwelling house /Apartment,,53.33306,-6.24889
15/11/2017,"25 HILLVIEW, RHODE, OFFALY",Offaly,,"€130,000.00",Yes,No,Second-Hand Dwelling house /Apartment,,53.35222,-7.20167
16/01/2017,"6 MILLSTREAM, KILLALOE, CLARE",Clare,,"€90,000.00",No,No,Second-Hand Dwelling house /Apartment,,52.8033263,-8.4427785
24/01/2017,"60 SEAMOUNT, STILLORGAN, DUBLIN",Dublin,,"€342,500.00",No,No,Second-Hand Dwelling house /Apartment,,53.33306,-6.24889
15/05/2017,"41 Barley Field, Wicklow Hills, Newtownmountkennedy",Wicklow,,"€185,021.00",No,Yes,New Dwelling house /Apartment,greater than or equal to 38 sq metres and less than 125 sq metres,53.0,-6.41667
26/07/2017,"36 BOROIMHE HAZEL, SWORDS, DUBLIN",Dublin,,"€352,500.00",No,No,Second-Hand Dwelling house /Apartment,,53.4432489,-6.2316039
24/11/2017,"BALLINVOHER, TOURLOUGHMORE, CO GALWAY",Galway,,"€275,000.00",No,No,Second-Hand Dwelling house /Apartment,,53.27194,-9.04889
16/01/2017,"264 SEAPARK, MALAHIDE, DUBLIN",Dublin,,"€720,000.00",No,No,Second-Hand Dwelling house /Apartment,,53.4459435,-6.1449958
23/06/2017,"24 AISLIN HEIGHTS, RAHEEN, LIMERICK",Limerick,,"€150,000.00",No,No,Second-Hand Dwelling house /Apartment,,52.66472,-8.62306
09/06/2017,"160 THE OLD DISTILLERY, NORTH ANNE ST, DUBLIN 7",Dublin,,"€195,000.00",No,No,Second-Hand Dwelling house /Apartment,,53.33306,-6.24889
31/01/2017,"SPRINGVALE, BALLYCARNEY, ENNISCORTHY",Wexford,,"€103,000.00",No,No,Second-Hand Dwelling house /Apartment,,52.50083,-6.55778
18/09/2017,"2 GLENHEIGHTS PLACE, GLENHEIGHTS ROAD, BALLYVOLANE",Cork,,"€162,000.00",No,No,Second-Hand Dwelling house /Apartment,,51.89797,-8.47061
13/12/2017,"22 Willow Close, Dunshaughlin, Co. Meath",Meath,,"€303,965.00",No,Yes,New Dwelling house /Apartment,greater than or equal to 38 sq metres and less than 125 sq metres,53.501175,-6.5327915
18/10/2017,"17 THE OAKS, ELMFIELD, LEOPARDSTOWN",Dublin,,"€329,949.20",No,Yes,New Dwelling house /Apartment,greater than or equal to 38 sq metres and less than 125 sq metres,53.33306,-6.24889
23/10/2017,"Apartment 41, Zone 4, Ballisodare Town Centre",Sligo,,"€75,506.89",No,Yes,New Dwelling house /Apartment,greater than or equal to 38 sq metres and less than 125 sq metres,54.26969,-8.46943
28/09/2017,"14A THOMOND VILLAGE, BALLYGLENNON, CRATLOE RD",Limerick,,"€40,500.00",No,No,Second-Hand Dwelling house /Apartment,,,
27/04/2017,"34 GARRYBAWN AVE, GARRYBAWN, DUNDALK",Louth,,"€152,000.00",No,No,Second-Hand Dwelling house /Apartment,,54.0,-6.41667
13/11/2017,"31 FOXBOROUGH WALK, LUCAN, DUBLIN",Dublin,,"€260,000.00",No,No,Second-Hand Dwelling house /Apartment,,53.3404314,-6.4227004
08/12/2017,"DRIFTWOOD, KILCOMMON, THURLES",Tipperary,,"€20,000.00",Yes,No,Second-Hand Dwelling house /Apartment,,52.47333,-8.15583
20/09/2017,"14 GOLDEN MEADOWS, CLOGHEEN, CLONAKILTY",Cork,,"€65,000.00",No,No,Second-Hand Dwelling house /Apartment,,51.62306,-8.87056
29/11/2017,"BALLINGOOLA, GRANGE, KILMALLOCK",Limerick,,"€100,000.00",No,No,Second-Hand Dwelling house /Apartment,,52.4,-8.57722
13/06/2017,"14 CORNELSCOURT, HILL ROAD, CABINTEELY",Dublin,,"€585,000.00",No,No,Second-Hand Dwelling house /Apartment,,53.2640459,-6.1685637
24/06/2017,"1 KYLEMORE DRIVE, BALLYFERMOT, DUBLIN 10",Dublin,,"€245,000.00",No,No,Second-Hand Dwelling house /Apartment,,53.3370092,-6.3508901
14/07/2017,"69 THE MEADOWS, BALLYBRIT, GALWAY",Galway,,"€220,000.00",No,No,Second-Hand Dwelling house /Apartment,,53.2897991,-8.9990244
16/08/2017,"MILL ROAD, BALLINRIG, SUMMERHILL",Meath,,"€193,000.00",No,No,Second-Hand Dwelling house /Apartment,,53.47694,-6.73639
09/02/2017,"5A JOHNSGATE VILLAGE, NEW RD, LIMERICK",Limerick,,"€35,000.00",No,No,Second-Hand Dwelling house /Apartment,,52.66472,-8.62306
30/03/2017,"29 RIVERWALK, MAIN STREET, CASTLEREA",Roscommon,,"€30,000.00",No,No,Second-Hand Dwelling house /Apartment,,53.76667,-8.5
23/10/2017,"WOODSIDE, FAIRYHOUSE LODGE, RATOATH",Meath,,"€530,000.00",No,No,Second-Hand Dwelling house /Apartment,,53.50806,-6.4625
02/08/2017,"5 WHITEGABLES, SWORDS ROAD, MALAHIDE",Dublin,,"€581,497.79",No,Yes,New Dwelling house /Apartment,greater than or equal to 38 sq metres and less than 125 sq metres,53.33306,-6.24889
15/09/2017,"8 SANTRY COURT, OFF COOLOCK LANE, SANTRY DUBLIN 9",Dublin,,"€350,000.00",No,No,Second-Hand Dwelling house /Apartment,,53.33306,-6.24889
26/07/2017,"22 BELMONT GARDENS, DONNYBROOK, DUBLIN 4",Dublin,,"€910,000.00",No,No,Second-Hand Dwelling house /Apartment,,53.3190982,-6.2405678
18/01/2017,"3 MAYFIELD, THE TWENTIES, DROGHEDA",Louth,,"€202,000.00",No,No,Second-Hand Dwelling house /Apartment,,53.71889,-6.34778
26/10/2017,"85 THE WAXWORKS RATHBORNE RD, ASHTOWN, DUBLIN 15",Dublin,,"€283,000.00",No,No,Second-Hand Dwelling house /Apartment,,53.33306,-6.24889
16/01/2017,"1 THE COURT, GREENFIELDS, FIRIES",Kerry,,"€120,000.00",No,No,Second-Hand Dwelling house /Apartment,,52.16667,-9.75
11/09/2017,"1 THE CRESCENT PIPERS HILL, NAAS",Kildare,,"€422,900.00",No,Yes,New Dwelling house /Apartment,greater than or equal to 125 sq metres,53.21583,-6.66694
05/12/2017,"11 ARDMORE WOOD, HERBERT ROAD, BRAY",Wicklow,,"€395,000.00",No,No,Second-Hand Dwelling house /Apartment,,53.20278,-6.09833
12/05/2017,"7 The Demense, Monivea",Galway,,"€277,533.00",No,Yes,New Dwelling house /Apartment,greater than or equal to 38 sq metres and less than 125 sq metres,53.3715056,-8.6993344
08/08/2017,"4 KILDERRY HALL, ASHBOURNE, MEATH",Meath,,"€175,000.00",No,No,Second-Hand Dwelling house /Apartment,,53.5150275,-6.4052172
28/08/2017,"6 dunville park, athlumney, navan",Meath,,"€237,884.00",No,Yes,New Dwelling house /Apartment,greater than or equal to 38 sq metres and less than 125 sq metres,53.65278,-6.68139
29/05/2017,"21 Sli Na Coille, Belturbet, Cavan",Cavan,,"€130,000.00",No,Yes,New Dwelling house /Apartment,greater than or equal to 38 sq metres and less than 125 sq metres,54.0996669,-7.4576577
15/09/2017,"HEATHER HILL, KILMACOO, AVOCA",Wicklow,,"€310,000.00",No,No,Second-Hand Dwelling house /Apartment,,52.85278,-6.21694
29/08/2017,"38 BARRY PARK, FINGLAS WEST, DUBLIN 11",Dublin,,"€195,000.00",No,No,Second-Hand Dwelling house /Apartment,,53.3946391,-6.3128999
27/04/2017,"12 MARYBOROUGH COURT, DOUGLAS, CORK",Cork,,"€465,000.00",No,No,Second-Hand Dwelling house /Apartment,,51.8713327,-8.4160881
15/12/2017,"97 GLANTAN, GOLF LINKS RD, CASTLETROY",Limerick,,"€162,000.00",No,No,Second-Hand Dwelling house /Apartment,,52.66472,-8.62306
20/12/2017,"20 LIBRARY RD, SHANKILL, DUBLIN",Dublin,,"€465,000.00",No,No,Second-Hand Dwelling house /Apartment,,53.2341811,-6.1275408
24/02/2017,"25 UPPER CHURCH STREET, TIPPERARY TOWN, TIPPERARY",Tipperary,,"€40,000.00",No,No,Second-Hand Dwelling house /Apartment,,52.47333,-8.15583
14/09/2017,"38 DONAGHMEDE PARK, DONAGHMEDE, DUBLIN 13",Dublin,,"€300,000.00",No,No,Second-Hand Dwelling house /Apartment,,53.3928933,-6.1584716
16/03/2017,"34 ryebridge green, kilcock",Kildare,,"€235,682.00",No,Yes,New Dwelling house /Apartment,greater than or equal to 38 sq metres and less than 125 sq metres,53.40222,-6.67083
05/12/2017,"80 ST ASSAMS AVE, RAHENY, DUBLIN 5",Dublin,,"€601,000.00",No,No,Second-Hand Dwelling house /Apartment,,53.33306,-6.24889
11/10/2017,"6 MARINA PARK, VICTORIA RD, CORK",Cork,,"€250,000.00",No,No,Second-Hand Dwelling house /Apartment,,51.89797,-8.47061
20/06/2017,"25 TRALEE MARINA, TRALEE, KERRY",Kerry,,"€39,692.00",No,No,Second-Hand Dwelling house /Apartment,,52.27042,-9.70264
05/04/2017,"2311 MELITTA RD, KILDARE TOWN, KILDARE",Kildare,,"€162,500.00",No,No,Second-Hand Dwelling house /Apartment,,53.15611,-6.91444
17/02/2017,"3 RIVERVIEW, BRIDGETOWN, LAGHEY",Donegal,,"€165,000.00",No,No,Second-Hand Dwelling house /Apartment,,54.91667,-8.0
27/01/2017,"TY TWYN, LODGES LANE, NEWTOWN HILL",Waterford,,"€308,000.00",No,No,Second-Hand Dwelling house /Apartment,,52.25833,-7.11194
06/12/2017,"30 Tullyhall Drive, Lucan, County Dublin",Dublin,,"€273,127.75",No,Yes,New Dwelling house /Apartment,greater than or equal to 38 sq metres and less than 125 sq metres,53.3356153,-6.4401741
09/05/2017,"ROSSCAT, ROSSNOWLAGH, DONEGAL",Donegal,,"€107,500.00",No,No,Second-Hand Dwelling house /Apartment,,54.55,-8.2
29/12/2017,"55 THE MEADOWS, BALLYBRIT, GALWAY CITY",Galway,,"€253,000.00",No,No,Second-Hand Dwelling house /Apartment,,53.2898786,-9.0002064
09/10/2017,"16 MOORETOWN AVE, SWORDS, DUBLIN",Dublin,,"€237,000.00",No,No,Second-Hand Dwelling house /Apartment,,53.462964,-6.2310582
25/08/2017,"20 Farnamurry, Nenagh",Tipperary,,"€149,779.73",No,Yes,New Dwelling house /Apartment,greater than or equal to 38 sq metres and less than 125 sq metres,52.8539686,-8.1914297
07/04/2017,"4 WILLIAMSTOWN GLEN, WILLIAMSTOWN RD, WATERFORD",Waterford,,"€180,000.00",No,No,Second-Hand Dwelling house /Apartment,,52.25833,-7.11194
23/06/2017,"1 & 2 LAKEVIEW COTTAGES, DUBLIN ROAD, VIRGINIA",Cavan,,"€150,000.00",No,No,Second-Hand Dwelling house /Apartment,,53.83389,-7.07556
27/10/2017,"16 TOBER JARLATH RD, TUAM, GALWAY",Galway,,"€120,000.00",No,No,Second-Hand Dwelling house /Apartment,,53.51667,-8.85
19/05/2017,"20 THE HERON, THORNWOOD, BOOTERSTOWN AVE",Dublin,,"€350,000.00",No,No,Second-Hand Dwelling house /Apartment,,53.33306,-6.24889
16/05/2017,"11 ESKER PINES, BALLYHAUNIS, MAYO",Mayo,,"€80,000.00",No,No,Second-Hand Dwelling house /Apartment,,53.7599134,-8.7566475
22/08/2017,"113 HAZLEWOOD, BRIDGETOWN, CO WEXFORD",Wexford,,"€74,000.00",No,No,Second-Hand Dwelling house /Apartment,,52.22806,-6.54417
29/09/2017,"40 BEAUPARK SQUARE, DONAGHMEDE, DUBLIN 13",Dublin,,"€330,000.00",No,No,Second-Hand Dwelling house /Apartment,,53.33306,-6.24889
05/05/2017,"BARRYSCOURT, CARRIGTWOHILL, CORK",Cork,,"€490,000.00",No,No,Second-Hand Dwelling house /Apartment,,51.9046596,-8.2592602
19/05/2017,"158 TIRELLAN HEIGHTS, GALWAY, GALWAY",Galway,,"€242,000.00",No,No,Second-Hand Dwelling house /Apartment,,53.2905251,-9.0499864
01/09/2017,"SHANGRI LA, BRIARHILL, WATERFALL",Cork,,"€318,000.00",No,No,Second-Hand Dwelling house /Apartment,,51.85944,-8.55917
08/11/2017,"APT 14 BRENTWOOD, WILTON, CORK",Cork,,"€90,000.00",No,No,Second-Hand Dwelling house /Apartment,,51.89797,-8.47061
27/10/2017,"69 COIS INBHIR, BEAVERSTOWN RD, DONABATE",Dublin,,"€422,000.00",No,No,Second-Hand Dwelling house /Apartment,,53.33306,-6.24889
05/04/2017,"4 ROSSECORT AVE, BALGADDY RD, LUCAN",Dublin,,"€207,000.00",No,No,Second-Hand Dwelling house /Apartment,,53.33306,-6.24889
18/05/2017,"5 GLENARM, VICTORIA AVE, CORK",Cork,,"€227,500.00",No,No,Second-Hand Dwelling house /Apartment,,51.89797,-8.47061
20/06/2017,"MAIN STREET, FERBANE, CO. OFFALY",Offaly,,"€95,000.00",No,No,Second-Hand Dwelling house /Apartment,,53.2724556,-7.8280418
20/12/2017,"33 OLIVEMOUNT RD, DUNDRUM, DUBLIN 14",Dublin,,"€615,000.00",No,No,Second-Hand Dwelling house /Apartment,,53.3039389,-6.2444437
10/02/2017,"32 RATH GLAS, BALLINASLOE, CO GALWAY",Galway,,"€141,000.00",No,No,Second-Hand Dwelling house /Apartment,,53.3275,-8.21944
30/01/2017,"18 CAISLEAN OIR, ATHENRY, GALWAY",Galway,,"€210,000.00",No,No,Second-Hand Dwelling house /Apartment,,53.3051967,-8.745896
23/08/2017,"21 Hamilton Hill, Barnageeragh Cove, Skerries",Dublin,,"€295,154.18",No,Yes,New Dwelling house /Apartment,greater than or equal to 38 sq metres and less than 125 sq metres,53.33306,-6.24889
21/12/2017,"35 ADARE VILLAS, ADARE MANOR, ADARE",Limerick,,"€300,000.00",No,No,Second-Hand Dwelling house /Apartment,,52.56194,-8.79556
20/01/2017,"BALLYVOILE, STRADBALLY, WATERFORD",Waterford,,"€355,000.00",No,No,Second-Hand Dwelling house /Apartment,,52.13,-7.46
23/06/2017,"APT 3, TARA, AN CAISLEAN",Cork,,"€200,000.00",No,No,Second-Hand Dwelling house /Apartment,,51.89797,-8.47061
14/03/2017,"144 CUSTOM HOUSE HARBOUR, IFSC, DUBLIN 1",Dublin,,"€320,000.00",No,No,Second-Hand Dwelling house /Apartment,,53.3510956,-6.2464399
23/03/2017,"4 Oak Hill, Gorey",Wexford,,"€198,237.00",No,Yes,New Dwelling house /Apartment,greater than or equal to 125 sq metres,52.67472,-6.2925
26/06/2017,"83 CARRIG COURT, FORTUNESTOWN LANE, SAGGART",Dublin,,"€210,000.00",No,No,Second-Hand Dwelling house /Apartment,,53.33306,-6.24889
13/04/2017,"24 WATERFALL RD, RAHENY, DUBLIN 5",Dublin,,"€568,750.00",No,No,Second-Hand Dwelling house /Apartment,,53.3760419,-6.1833905
16/06/2017,"99 Reilean, Roscam",Galway,,"€50,000.00",No,Yes,New Dwelling house /Apartment,greater than or equal to 38 sq metres and less than 125 sq metres,53.2743393,-8.9755195
10/11/2017,"BRIDGESTREET, KILLALOE, CO CLARE",Clare,,"€115,000.00",No,No,Second-Hand Dwelling house /Apartment,,52.80667,-8.44361
30/06/2017,"95 SEABOURNE, CHARLESLAND, GREYSTONES",Wicklow,,"€310,000.00",No,No,Second-Hand Dwelling house /Apartment,,53.14083,-6.06306
02/10/2017,"BEN MORE, BULLAUN, LOUGHREA",Galway,,"€300,000.00",No,No,Second-Hand Dwelling house /Apartment,,53.19694,-8.56694
19/05/2017,"17 ROSCONNELL AVE, NEWBRIDGE, KILDARE",Kildare,,"€158,700.75",No,No,Second-Hand Dwelling house /Apartment,,53.18194,-6.79667
06/11/2017,"39 Ard na Deirge, Killaloe",Clare,,"€211,454.00",No,Yes,New Dwelling house /Apartment,greater than or equal to 38 sq metres and less than 125 sq metres,52.80667,-8.44361
15/12/2017,"73 Millers Court, Old Quarter, Ballincollig",Cork,,"€290,748.89",No,Yes,New Dwelling house /Apartment,greater than or equal to 38 sq metres and less than 125 sq metres,51.8913136,-8.6005382
01/09/2017,"Graigeunahill, Glenmore, Co. Kilkenny",Kilkenny,,"€230,000.00",No,Yes,New Dwelling house /Apartment,greater than or equal to 125 sq metres,52.35167,-7.025
13/06/2017,"13 THORNBERRY, ABBEYLEIX, LAOIS",Laois,,"€94,100.00",No,No,Second-Hand Dwelling house /Apartment,,52.9099141,-7.3348651
18/08/2017,"9 COLLEGE VIEW, SILLOGE RD, BALLYMUN",Dublin,,"€192,700.00",No,No,Second-Hand Dwelling house /Apartment,,53.33306,-6.24889
09/10/2017,"57 ELM RD, RIVERBANK, ANNACOTTY",Limerick,,"€185,000.00",No,No,Second-Hand Dwelling house /Apartment,,52.66806,-8.54722
21/08/2017,"APT 2 CHESTNUT ROAD, NAVENNY STREET, BALLYBOFEY",Donegal,,"€18,600.00",No,No,Second-Hand Dwelling house /Apartment,,54.8,-7.78333
23/02/2017,"16 THOMOND VILLAGE, OLD CRATLOE ROAD, LIMERICK",Limerick,,"€29,000.00",No,No,Second-Hand Dwelling house /Apartment,,,
10/07/2017,"4The Avenue, The Paddocks, Hansfiled",Dublin,,"€325,999.00",No,Yes,New Dwelling house /Apartment,greater than or equal to 38 sq metres and less than 125 sq metres,53.33306,-6.24889
05/09/2017,"SEANTEACH, BOHOONA, SPIDDAL",Galway,,"€347,000.00",No,No,Second-Hand Dwelling house /Apartment,,53.24667,-9.30278
08/02/2017,"5 CHAPEL LANE, AUGHRIM, CO. WICKLOW",Wicklow,,"€112,880.00",No,No,Second-Hand Dwelling house /Apartment,,52.8574022,-6.323641
02/06/2017,"130 COIS ABHAINN, CAHERWEESHEEN, TRALEE",Kerry,,"€100,000.00",No,No,Second-Hand Dwelling house /Apartment,,52.27042,-9.70264
18/12/2017,"DERRYNANE, 2 GLENDALOUGH PARK, THE LOUTH",Cork,,"€400,000.00",No,No,Second-Hand Dwelling house /Apartment,,51.8869474,-8.4721107
22/09/2017,"CARRAIG RUA, FERMOYLE, LANESBOROUGH",Longford,,"€146,000.00",No,No,Second-Hand Dwelling house /Apartment,,53.66667,-7.98333
04/01/2017,"TIG SACKY, BAILE LOISCE, BALLY DAVID",Kerry,,"€15,000.00",No,No,Second-Hand Dwelling house /Apartment,,52.16667,-9.75
27/10/2017,"MONAVADRA, CUFFSGRANGE, CO KILKENNY",Kilkenny,,"€75,000.00",No,No,Second-Hand Dwelling house /Apartment,,52.65417,-7.25222
22/11/2017,"236 THE CAMDEN, CHARLOTTE QUAY, DOCK DUBLIN 4",Dublin,,"€415,000.00",No,No,Second-Hand Dwelling house /Apartment,,53.33306,-6.24889
21/07/2017,"13 CASTLE AVENUE, THURLES, CO TIPPERARY",Tipperary,,"€145,000.00",No,No,Second-Hand Dwelling house /Apartment,,52.6804448,-7.8179743
14/08/2017,"APARTMENT 1, 14A JOHN STREET, LIMERICK",Limerick,,"€71,000.00",No,No,Second-Hand Dwelling house /Apartment,,52.66472,-8.62306
11/03/2017,"STAGHALL, BELTURBET, CO CAVAN",Cavan,,"€70,000.00",No,No,Second-Hand Dwelling house /Apartment,,54.0970897,-7.464814
01/06/2017,"68 BROOKWOOD RISE, ARTANE, DUBLIN 5",Dublin,,"€482,000.00",No,No,Second-Hand Dwelling house /Apartment,,53.33306,-6.24889
31/07/2017,"14 THE GRANGE, BALLYBAUGHAL, COUNTY DUBLIN",Dublin,,"€505,000.00",No,No,Second-Hand Dwelling house /Apartment,,53.38046,-6.27113
03/10/2017,"APT 11, 96 SOUTH MAIN ST, CORK",Cork,,"€66,000.00",No,No,Second-Hand Dwelling house /Apartment,,51.7451761,-8.7360975
07/03/2017,"81 WHATLEY HALL, ARCHERS WOOD, CLONLEA",Dublin,,"€175,000.00",No,No,Second-Hand Dwelling house /Apartment,,53.33306,-6.24889
12/12/2017,"49 Oak Avenue, Evanwood, Golf Links Road",Limerick,,"€251,127.75",No,Yes,New Dwelling house /Apartment,less than 38 sq metres,52.66472,-8.62306
07/09/2017,"10 CASTLEBANK, ARDNACRUSHA, CLARE",Clare,,"€274,000.00",No,No,Second-Hand Dwelling house /Apartment,,52.81556,-8.96667
26/04/2017,"33 COIS NA HABHAINN, PORTUMNA, COUNTY GALWAY",Galway,,"€110,000.00",No,No,Second-Hand Dwelling house /Apartment,,53.08917,-8.21889
05/09/2017,"24 PLAS DHONAILL MHIC AMHLAIGH, KILKENNY",Kilkenny,,"€110,000.00",Yes,No,Second-Hand Dwelling house /Apartment,,52.6457589,-7.261381
27/03/2017,"AGHADARK, BALLINAMORE, LEITRIM",Leitrim,,"€64,000.00",No,No,Second-Hand Dwelling house /Apartment,,54.0521101,-7.8124376
26/01/2017,"18 WATERLOO ROAD, BALLSBRIDGE, DUBLIN 4",Dublin,,"€156,250.00",Yes,No,Second-Hand Dwelling house /Apartment,,53.33306,-6.24889
28/09/2017,"30A THOMOND VILLAGE, CRATLOE RD, THOMOND VILLAGE",Limerick,,"€40,500.00",No,No,Second-Hand Dwelling house /Apartment,,,
09/08/2017,"ENNIS RD, GORT, GALWAY",Galway,,"€118,000.00",No,No,Second-Hand Dwelling house /Apartment,,53.0623053,-8.8140343
12/08/2017,"75 KEVIN BARRYS AVE, TRALEE, KERRY",Kerry,,"€75,000.00",Yes,No,Second-Hand Dwelling house /Apartment,,52.27042,-9.70264
16/11/2017,"38 LANSDOWNE BLOCK, PEMBROKE SQ, UPPER GRAND CANAL ST DUBLIN 4",Dublin,,"€450,000.00",No,No,Second-Hand Dwelling house /Apartment,,53.33306,-6.24889
15/02/2017,"31 CARRIGMORE OAK, CITYWEST, SAGGART",Dublin,,"€165,000.00",Yes,No,Second-Hand Dwelling house /Apartment,,53.33306,-6.24889
09/11/2017,"4 Citywest Village Avenue, Citywest Village, Citywest",Dublin,,"€286,343.61",No,Yes,New Dwelling house /Apartment,greater than or equal to 125 sq metres,53.286945,-6.4192809
02/11/2017,"33 DEANSTOWN GREEN, FINGLAS WEST, DUBLIN 11",Dublin,,"€190,000.00",Yes,No,Second-Hand Dwelling house /Apartment,,53.3848634,-6.3150424
09/05/2017,"20 DEELISH PARK, KILLARNEY, CO KERRY",Kerry,,"€285,000.00",No,No,Second-Hand Dwelling house /Apartment,,52.05,-9.51667
10/04/2017,"LUKESTOWN, KILLYMASNEY, NEWMILLS",Donegal,,"€30,000.00",No,No,Second-Hand Dwelling house /Apartment,,54.92917,-7.80722
18/12/2017,"7 The Way, Citywest Village, Citywest",Dublin,,"€310,000.00",No,Yes,New Dwelling house /Apartment,greater than or equal to 38 sq metres and less than 125 sq metres,53.2881646,-6.4214363
14/06/2017,"24 Beresford Place, Donabate",Dublin,,"€299,500.00",No,Yes,New Dwelling house /Apartment,greater than or equal to 38 sq metres and less than 125 sq metres,53.4907775,-6.1615505
21/12/2017,"BALLYGADDY, CLAREEN, BIRR",Offaly,,"€67,000.00",No,No,Second-Hand Dwelling house /Apartment,,53.09139,-7.91333
22/11/2017,"65 CHURCHFIELDS HOUSE, CHURCHFIELDS, SALTHILL",Galway,,"€800,000.00",No,No,Second-Hand Dwelling house /Apartment,,53.27194,-9.04889
28/07/2017,"55 CROTTY AVE, WALKINSTOWN, DUBLIN 12",Dublin,,"€290,000.00",No,No,Second-Hand Dwelling house /Apartment,,53.3187358,-6.3239182
06/10/2017,"SEAFIELD, KNOCKNAHUR, SLIGO",Sligo,,"€290,000.00",Yes,No,Second-Hand Dwelling house /Apartment,,54.245,-8.53861
31/03/2017,"APT 21, FITZWILLIAM COURT, DYER ST",Louth,,"€1,900,000.00",No,No,Second-Hand Dwelling house /Apartment,,53.94861,-6.54139
10/05/2017,"19 WOODSIDE, RIVER FOREST, LEIXLIP",Kildare,,"€270,000.00",No,No,Second-Hand Dwelling house /Apartment,,53.36583,-6.49556
19/04/2017,"FLAT 1, 3 MOUNT SOUTHWELL, LETTERKENNY",Donegal,,"€85,000.00",No,No,Second-Hand Dwelling house /Apartment,,54.95,-7.73333
10/10/2017,"76 CASTLEDAWSON, ROCK RD, SION HILL",Dublin,,"€585,000.00",No,No,Second-Hand Dwelling house /Apartment,,53.33306,-6.24889
22/05/2017,"65 RATHBRIDE ABBEY, KILDARE, KILDARE",Kildare,,"€250,000.00",No,No,Second-Hand Dwelling house /Apartment,,53.15611,-6.91444
04/12/2017,"3 PARKNASILLOGUE, ENNISKERRY, CO WICKLOW",Wicklow,,"€484,000.00",No,No,Second-Hand Dwelling house /Apartment,,53.1925,-6.16917
11/05/2017,"58 DERRYNANE SQ, DORSET ST, DUBLIN 1",Dublin,,"€260,000.00",No,No,Second-Hand Dwelling house /Apartment,,53.33306,-6.24889
12/07/2017,"11 RAVENSWOOD RD, RAVENSWOOD, CLONSILLA DUBLIN 15",Dublin,,"€335,000.00",No,No,Second-Hand Dwelling house /Apartment,,53.33306,-6.24889
14/11/2017,"1 GLENORE, OLD DOUGHISKA ROAD, DOUGHISKA",Galway,,"€700,000.00",No,No,Second-Hand Dwelling house /Apartment,,53.27861,-8.97389
13/09/2017,"APT 1, 158 LOWER GLANMIRE RD, CORK",Cork,,"€401,000.00",No,No,Second-Hand Dwelling house /Apartment,,51.9023383,-8.4573473
25/05/2017,"46 ASHFIELD RISE, BALBRIGGAN, DUBLIN",Dublin,,"€150,000.00",No,No,Second-Hand Dwelling house /Apartment,,53.6150227,-6.1949091
07/07/2017,"APT 8, 58 UPPER LEESON ST, LEESON ST DUBLIN 4",Dublin,,"€390,000.00",No,No,Second-Hand Dwelling house /Apartment,,53.33306,-6.24889
22/11/2017,"10 WINDELE RD, OF JOYCE RD, DRUMCONDRA",Dublin,,"€337,000.00",No,No,Second-Hand Dwelling house /Apartment,,53.33306,-6.24889
10/05/2017,"STROGUE, CASTLEINEY, TEMPLEMORE",Tipperary,,"€21,666.66",No,No,Second-Hand Dwelling house /Apartment,,52.47333,-8.15583
11/04/2017,"APT NO8, 151 153 JAMES ST, DUBLIN 8",Dublin,,"€45,000.00",No,No,Second-Hand Dwelling house /Apartment,,53.33306,-6.24889
15/09/2017,"43 DAKOTA COURT, ROYAL CANAL BANK, PHIBSBOROUGH DUBLIN 7",Dublin,,"€375,000.00",No,No,Second-Hand Dwelling house /Apartment,,53.33306,-6.24889
27/04/2017,"35 EDEN PARK DR, GOATSTOWN, DUBLIN 14",Dublin,,"€710,000.00",No,No,Second-Hand Dwelling house /Apartment,,53.2891318,-6.2289703
14/12/2017,"39 Ard Na Greine, Cloonlough, Mitchelstown",Cork,,"€190,000.00",No,Yes,New Dwelling house /Apartment,greater than or equal to 38 sq metres and less than 125 sq metres,52.26583,-8.26806
14/02/2017,"SEAFIELD EST, YOUGHAL, CORK",Cork,,"€171,000.00",No,No,Second-Hand Dwelling house /Apartment,,51.95,-7.85056
20/12/2017,"63 GRAND CENTRAL, ROCKBROOK, CARMANHALL RD DUBLIN 18",Dublin,,"€375,000.00",No,No,Second-Hand Dwelling house /Apartment,,53.33306,-6.24889
22/06/2017,"73 CASTLEVIEW, CARRIGTWOHILL, CORK",Cork,,"€250,000.00",No,No,Second-Hand Dwelling house /Apartment,,51.90833,-8.26333
21/12/2017,"11 THE VILLAS, ADARE MANOR, ADARE",Limerick,,"€300,000.00",No,No,Second-Hand Dwelling house /Apartment,,52.56194,-8.79556
23/08/2017,"80 BRACKEN PARK DRIVE, CARPENTERSTOWN ROAD, CASTLEKNOCK",Dublin,,"€556,748.00",No,Yes,New Dwelling house /Apartment,greater than or equal to 38 sq metres and less than 125 sq metres,53.33306,-6.24889
24/02/2017,"23 ROCKWELL, BALLINA, CO MAYO",Mayo,,"€188,000.00",No,No,Second-Hand Dwelling house /Apartment,,54.1197483,-9.1662514
08/12/2017,"GARRETSTOWN, BALLINSPITTLE, CORK",Cork,,"€173,000.00",Yes,No,Second-Hand Dwelling house /Apartment,,51.66778,-8.60028
21/12/2017,"29 Lakeside, Castleoaks, Dublin Road",Carlow,,"€171,806.17",No,Yes,New Dwelling house /Apartment,greater than or equal to 38 sq metres and less than 125 sq metres,52.84083,-6.92611
24/01/2017,"BAUNACLOKA, MUNGRET, LIMERICK",Limerick,,"€215,000.00",No,No,Second-Hand Dwelling house /Apartment,,52.629097,-8.671597
03/05/2017,"9 Parkside Square, Malahide",Dublin,,"€336,497.79",No,Yes,New Dwelling house /Apartment,greater than or equal to 125 sq metres,53.33306,-6.24889
08/12/2017,"11 ARD CARRAIG, GLYNTOWN, GLANMIRE",Cork,,"€240,000.00",No,No,Second-Hand Dwelling house /Apartment,,51.91583,-8.39972
06/07/2017,"229 GREENPARK MEADOWS, BALLYMAHON RD, MULLINGAR",Westmeath,,"€175,000.00",Yes,No,Second-Hand Dwelling house /Apartment,,53.53333,-7.35
31/07/2017,"13 Knockrabo Drive, Knockrabo, Mount Anville Road",Dublin,,"€837,004.00",No,Yes,New Dwelling house /Apartment,greater than or equal to 38 sq metres and less than 125 sq metres,53.33306,-6.24889
02/08/2017,"2 STATION COURT HALL, COOLMINE, DUBLIN 15",Dublin,,"€215,000.00",No,No,Second-Hand Dwelling house /Apartment,,53.33306,-6.24889
21/12/2017,"2128 HIGHFIELD ESTATE, NEWBRIDGE, CO KILDARE",Kildare,,"€195,000.00",No,No,Second-Hand Dwelling house /Apartment,,53.1776163,-6.8112026
04/08/2017,"WOODLANDS, SOUTH DOUGLAS ROAD, CORK",Cork,,"€295,000.00",No,No,Second-Hand Dwelling house /Apartment,,51.89797,-8.47061
24/04/2017,"24 EDWARD LANE, BLOOMFIELD AVE, DUBLIN",Dublin,,"€500,000.00",No,No,Second-Hand Dwelling house /Apartment,,53.33306,-6.24889
27/06/2017,"128 Churchfields, Ashbourne",Meath,,"€251,524.00",No,Yes,New Dwelling house /Apartment,greater than or equal to 38 sq metres and less than 125 sq metres,53.5072121,-6.4094985
07/07/2017,"1 MARKET STREET, NEXT TO POST OFFICE, SKIBBEREEN",Cork,,"€195,000.00",No,No,Second-Hand Dwelling house /Apartment,,51.55,-9.26667
07/04/2017,"11 Beresford Gardens, Donabate",Dublin,,"€304,959.00",No,Yes,New Dwelling house /Apartment,greater than or equal to 38 sq metres and less than 125 sq metres,53.33306,-6.24889
30/05/2017,"DOLLA, NENAGH, CO. TIPPERARY",Tipperary,,"€175,000.00",No,No,Second-Hand Dwelling house /Apartment,,52.7504357,-8.1438916
16/05/2017,"3 Parkside, Westgate, Bishopstown",Cork,,"€387,664.00",No,Yes,New Dwelling house /Apartment,greater than or equal to 125 sq metres,51.89797,-8.47061
04/04/2017,"EMILA, BALLYFERRITER, KERRY",Kerry,,"€130,000.00",No,No,Second-Hand Dwelling house /Apartment,,52.16667,-10.41667
10/10/2017,"35 DELHURST MEWS, ONGAR PARK, CLONSILLA DUBLIN 15",Dublin,,"€259,000.00",No,No,Second-Hand Dwelling house /Apartment,,53.33306,-6.24889
11/12/2017,"BOGMOUNT, ABBEYFEALE, CO LIMERICK",Limerick,,"€80,000.00",No,No,Second-Hand Dwelling house /Apartment,,52.38139,-9.3025
28/02/2017,"STRAMATT, VIRGINIA, CAVAN",Cavan,,"€110,000.00",No,No,Second-Hand Dwelling house /Apartment,,53.7958778,-7.0376467
10/02/2017,"5 CASTLE CLOSE AVE, BLARNEY, CORK",Cork,,"€327,000.00",No,No,Second-Hand Dwelling house /Apartment,,51.9313762,-8.5611877
04/12/2017,"78 Eustace Court, Upper Glenageary Road, Dun Laoghaire",Dublin,,"€418,501.00",No,Yes,New Dwelling house /Apartment,greater than or equal to 38 sq metres and less than 125 sq metres,53.33306,-6.24889
26/05/2017,"10 PARNELL COURT, HAROLDS CROSS, DUBLIN 12",Dublin,,"€475,000.00",No,No,Second-Hand Dwelling house /Apartment,,53.33306,-6.24889
14/12/2017,"SCHOOL RD, KILLORGLIN, KERRY",Kerry,,"€110,000.00",No,No,Second-Hand Dwelling house /Apartment,,52.1,-9.78333
14/09/2017,"85 BEECHWOOD LAWN, ROCHESTOWN AVE, DUN LAOGHAIRE",Dublin,,"€565,000.00",No,No,Second-Hand Dwelling house /Apartment,,53.33306,-6.24889
08/11/2017,"20 WATERSIDE DRIVE, WATERSIDE, SWORDS",Dublin,,"€235,000.00",No,No,Second-Hand Dwelling house /Apartment,,53.4504166,-6.2018382
29/09/2017,"31 Daffodil Way, Forest Hill, Carrigaline",Cork,,"€293,832.00",No,Yes,New Dwelling house /Apartment,greater than or equal to 38 sq metres and less than 125 sq metres,51.81167,-8.39861
13/02/2017,"53 THE CRESENT, BROADALE, MARYBOROUGH HILL",Cork,,"€232,000.00",No,No,Second-Hand Dwelling house /Apartment,,51.89797,-8.47061
19/01/2017,"15 CASTAN DOIRE, HALFWAY, BALLINHASSIG",Cork,,"€159,000.00",No,No,Second-Hand Dwelling house /Apartment,,51.81417,-8.53694
17/10/2017,"16 BRUACH NO SIONNA, O'BRIENS BRIDGE, CO CLARE",Clare,,"€50,000.00",No,No,Second-Hand Dwelling house /Apartment,,52.95306,-9.34917
12/07/2017,"37 WOODPARK, LISMONAGHAN, LETTERKENNY",Donegal,,"€95,000.00",No,No,Second-Hand Dwelling house /Apartment,,54.9351848,-7.7402888
20/03/2017,"CARNMORE WEST, CARNMORE, GALWAY",Galway,,"€350,000.00",No,No,Second-Hand Dwelling house /Apartment,,53.3102961,-8.8996538
08/12/2017,"6  Rathbeale grove  l, Swords, Co. Dublin",Dublin,,"€288,333.00",No,Yes,New Dwelling house /Apartment,greater than or equal to 38 sq metres and less than 125 sq metres,53.4604651,-6.2383641
28/08/2017,"CHURCH STREET, RAMELTON",Donegal,,"€60,000.00",No,No,Second-Hand Dwelling house /Apartment,,55.0352213,-7.6460671
07/06/2017,"44 CASTLE LAWNS, SANDYFORD, DUBLIN 18",Dublin,,"€276,000.00",No,No,Second-Hand Dwelling house /Apartment,,53.33306,-6.24889
01/09/2017,"APT 12, AONACH, BALLINASLOE",Galway,,"€35,000.00",No,No,Second-Hand Dwelling house /Apartment,,53.3275,-8.21944
13/10/2017,"11 ROSSVALE COURT, PORTLAOISE, LAOIS",Laois,,"€140,000.00",No,No,Second-Hand Dwelling house /Apartment,,53.0450149,-7.3095005
23/02/2017,"CASHELFEAN HOUSE, STRAND RD, CHEEKPOINT",Waterford,,"€247,500.00",No,No,Second-Hand Dwelling house /Apartment,,52.27083,-6.99833
05/12/2017,"15 CLUAINGLAS, TEMPLEMORE RD, THURLES",Tipperary,,"€170,000.00",No,No,Second-Hand Dwelling house /Apartment,,52.47333,-8.15583
07/06/2017,"1 The Avenue, Hansfield Wood, Hansfield",Dublin,,"€277,533.00",No,Yes,New Dwelling house /Apartment,greater than or equal to 38 sq metres and less than 125 sq metres,53.33306,-6.24889
15/11/2017,"4 CEIM NA CARRAIG, ROCKCORRY, MONAGHAN",Monaghan,,"€105,000.00",Yes,No,Second-Hand Dwelling house /Apartment,,54.11667,-7.01667
02/11/2017,"39 Daffodil Way, Forest Hill, Kilnagleary",Cork,,"€370,609.96",No,Yes,New Dwelling house /Apartment,greater than or equal to 125 sq metres,51.89797,-8.47061
14/08/2017,"32 MELVILLE RISE, MEAKSTOWN, FINGLAS",Dublin,,"€122,222.22",No,No,Second-Hand Dwelling house /Apartment,,53.33306,-6.24889
02/02/2017,"19 WILFIELD RD, SANDYMOUNT, DUBLIN 4",Dublin,,"€675,000.00",No,No,Second-Hand Dwelling house /Apartment,,53.3265834,-6.2183584
09/06/2017,"SIENA, BALLINPHELLIC, INNISHANNON",Cork,,"€650,000.00",No,No,Second-Hand Dwelling house /Apartment,,51.7654,-8.65705
09/08/2017,"49 DUN RI, ATHENRY, CO GALWAY",Galway,,"€202,000.00",No,No,Second-Hand Dwelling house /Apartment,,53.3046707,-8.7474378
11/04/2017,"112 OLIVER PLUNKETT RD, DUN LAOGHAIRE, DUBLIN",Dublin,,"€540,000.00",No,No,Second-Hand Dwelling house /Apartment,,53.28403,-6.1498089
30/06/2017,"APT 4, WEAVERS ROW, OFF MAIN ST",Kildare,,"€90,000.00",No,No,Second-Hand Dwelling house /Apartment,,53.15611,-6.91444
25/09/2017,"FELTRIM, MALAHIDE, DUBLIN",Dublin,,"€585,000.00",No,No,Second-Hand Dwelling house /Apartment,,53.4290844,-6.1778462
15/12/2017,"257 ROSEBERRY HILL, NEWBRIDGE, KILDARE",Kildare,,"€305,000.00",No,No,Second-Hand Dwelling house /Apartment,,53.18194,-6.79667
31/08/2017,"20 Hamilton Hill, Skerries",Dublin,,"€295,154.00",No,Yes,New Dwelling house /Apartment,greater than or equal to 38 sq metres and less than 125 sq metres,53.5835328,-6.1419677
02/11/2017,"11 SUPPLE PARK, DUNSHAUGHLIN, MEATH",Meath,,"€243,000.00",No,No,Second-Hand Dwelling house /Apartment,,53.5097583,-6.5430752
18/08/2017,"107 NEWTOWN HOUSE, HENRY ST, LIMERICK",Limerick,,"€80,000.00",No,No,Second-Hand Dwelling house /Apartment,,52.66472,-8.62306
