Date of Sale (dd/mm/yyyy),Address,County,Eircode,Price (€),Not Full Market Price,VAT Exclusive,Description of Property,Property Size Description,lat,lng
28/10/2016,"2 CORRYMORE VILLAGE, ACHILL, MAYO",Mayo,,"€120,000.00",No,No,Second-Hand Dwelling house /Apartment,,53.93111,-9.915
26/09/2016,"30 BEARNA DEARA, KILDORRERY, CORK",Cork,,"€150,000.00",No,No,Second-Hand Dwelling house /Apartment,,52.24611,-8.42722
08/11/2016,"DERRERY, BALLAGH, CO LIMERICK",Limerick,,"€41,500.00",No,No,Second-Hand Dwelling house /Apartment,,52.37389,-9.07806
11/02/2016,"26 Nash St, Inchicore, Dublin 8",Dublin,,"€188,000.00",No,No,Second-Hand Dwelling house /Apartment,,53.3361096,-6.3305339
22/07/2016,"36 DUN SAITHNE VIEW, FLEMINGTON LANE, BALBRIGGAN",Dublin,,"€195,000.00",No,No,Second-Hand Dwelling house /Apartment,,53.33306,-6.24889
19/02/2016,"10 MORRISSEY AVE, ENNIS, CO CLARE",Clare,,"€117,000.00",No,No,Second-Hand Dwelling house /Apartment,,52.845049,-8.9967646
26/01/2016,"13 The Bramble Hill, Castletreasure, Douglas",Cork,,"€232,500.00",Yes,Yes,New Dwelling house /Apartment,greater than or equal to 38 sq metres and less than 125 sq metres,51.87444,-8.435
29/08/2016,"28 TEMPLE JARLATH COURT, HIGH ST, TUAM",Galway,,"€75,000.00",No,No,Second-Hand Dwelling house /Apartment,,53.51667,-8.85
10/05/2016,"61 RIAN LUACHRA, CASTLE PARK RD, GALWAY",Galway,,"€95,000.00",No,No,Second-Hand Dwelling house /Apartment,,53.27194,-9.04889
23/11/2016,"Apt 24 Station Court, Gorey",Wexford,,"€73,666.12",No,Yes,New Dwelling house /Apartment,greater than or equal to 38 sq metres and less than 125 sq metres,52.67472,-6.2925
12/05/2016,"72 SHANID RD, HAROLDS CROSS, DUBLIN 6W",Dublin,,"€810,000.00",No,No,Second-Hand Dwelling house /Apartment,,53.33306,-6.24889
20/10/2016,"12 CEDARFIELD, DROGHEDA, LOUTH",Louth,,"€180,000.00",No,No,Second-Hand Dwelling house /Apartment,,53.7060779,-6.3757155
29/02/2016,"GRANGE, FETHARD ON SEA, CO WEXFORD",Wexford,,"€82,000.00",No,No,Second-Hand Dwelling house /Apartment,,52.2060566,-6.8227869
29/07/2016,"WHITEROCK, MIDLETON, CORK",Cork,,"€431,000.00",No,No,Second-Hand Dwelling house /Apartment,,51.9098192,-8.1273183
28/10/2016,"13 THE COURT, MULHUDDART WOOD, MULHUDDART DUBLIN 15",Dublin,,"€225,000.00",No,No,Second-Hand Dwelling house /Apartment,,53.4037983,-6.4018765
17/02/2016,"33 SHANLISS PARK, SANTRY, DUBLIN 9",Dublin,,"€275,000.00",No,No,Second-Hand Dwelling house /Apartment,,53.390563,-6.2477462
17/11/2016,"30 RINAWADE PARK, LEIXLIP, KILDARE",Kildare,,"€440,000.00",No,No,Second-Hand Dwelling house /Apartment,,53.3629833,-6.5124149
14/07/2016,"40 WILLIAMSTOWN GLEN, WATERFORD, WATERFORD",Waterford,,"€140,000.00",No,No,Second-Hand Dwelling house /Apartment,,52.2398189,-7.0891392
11/07/2016,"29 THE PARK, CURRAGH GRANGE, NEWBRIDGE",Kildare,,"€231,000.00",No,No,Second-Hand Dwelling house /Apartment,,53.18194,-6.79667
27/09/2016,"THE COPSE, BOYLE, CO ROSCOMMON",Roscommon,,"€20,000.00",No,No,Second-Hand Dwelling house /Apartment,,54.0197504,-8.270931
23/02/2016,"27 ELDERWOOD AVE, BOREENMANNA RD, CORK",Cork,,"€170,000.00",No,No,Second-Hand Dwelling house /Apartment,,51.89797,-8.47061
31/08/2016,"87A TROYTOWN HEIGHTS, PROUDSTOUN ROAD, NAVAN",Meath,,"€207,000.00",No,No,Second-Hand Dwelling house /Apartment,,53.65278,-6.68139
09/06/2016,"2 ROSELAWN RD, CASTLEKNOCK, DUBLIN 15",Dublin,,"€410,000.00",No,No,Second-Hand Dwelling house /Apartment,,53.33306,-6.24889
25/11/2016,"7 Friarshill, Thomastown",Kilkenny,,"€191,629.95",No,Yes,New Dwelling house /Apartment,greater than or equal to 125 sq metres,52.52667,-7.13722
16/02/2016,"38 Steeplechase Hill, Ratoath, County Meath",Meath,,"€361,230.00",No,Yes,New Dwelling house /Apartment,greater than or equal to 38 sq metres and less than 125 sq metres,53.5107147,-6.471507
18/10/2016,"APARTMENT ABOVE, 12 COLMCILLE STREET, TULLAMORE",Offaly,,"€70,000.00",No,No,Second-Hand Dwelling house /Apartment,,53.27389,-7.48889
06/05/2016,"9 FARMLEIGH CLOSE, FARMLEIGH WOODS, WHITES RD DUBLIN 15",Dublin,,"€790,000.00",No,No,Second-Hand Dwelling house /Apartment,,,
16/08/2016,"APT 1, BARRADUFF VILLAGE, BARRADUFF",Kerry,,"€38,000.00",No,No,Second-Hand Dwelling house /Apartment,,52.06667,-9.33333
06/07/2016,"3 THE CHANDLER, THE VILLAGE, ASHTOWN DUBLIN 15",Dublin,,"€82,500.00",Yes,No,Second-Hand Dwelling house /Apartment,,53.33306,-6.24889
11/11/2016,"13 Belermine Grove, Belermine Woods, Stepaside",Dublin,,"€419,525.00",No,Yes,New Dwelling house /Apartment,greater than or equal to 125 sq metres,53.33306,-6.24889
11/11/2016,"158 LESLIES ARCH, OLD QUARTER, BALLINCOLLIG",Cork,,"€285,000.00",No,No,Second-Hand Dwelling house /Apartment,,51.88333,-8.58333
24/06/2016,"51 HOWTH LODGE, HOWTH RD, HOWTH DUBLIN 13",Dublin,,"€635,000.00",No,No,Second-Hand Dwelling house /Apartment,,53.33306,-6.24889
27/05/2016,"23 MAYMOUNT, FRIARS WALK, CORK",Cork,,"€215,000.00",No,No,Second-Hand Dwelling house /Apartment,,51.89797,-8.47061
29/07/2016,"23 TYMON GROVE, OLD BAWN, TALLAGHT DUBLIN 24",Dublin,,"€290,000.00",No,No,Second-Hand Dwelling house /Apartment,,53.33306,-6.24889
30/06/2016,"35 OAKFIELD PARK, SLIGO, SLIGO",Sligo,,"€135,000.00",No,No,Second-Hand Dwelling house /Apartment,,54.2652858,-8.4982137
17/11/2016,"13 OAK DRIVE, PLATIN ROAD, DROGHEDA",Louth,,"€147,000.00",No,No,Second-Hand Dwelling house /Apartment,,53.71889,-6.34778
13/04/2016,"21 DEERPARK VIEW, BALTINGLASS, WICKLOW",Wicklow,,"€107,000.00",No,No,Second-Hand Dwelling house /Apartment,,52.93585,-6.6915074
04/03/2016,"41 DRURY HALL, STEPHEN ST LOWER, DUBLIN 2",Dublin,,"€245,000.00",No,No,Second-Hand Dwelling house /Apartment,,53.33306,-6.24889
16/09/2016,"3 Parkside Mews, Parkside, Malahide Road",Dublin,,"€308,370.04",No,Yes,New Dwelling house /Apartment,greater than or equal to 125 sq metres,53.33306,-6.24889
12/04/2016,"15 DROMEEN AVE, BEAUMONT, DUBLIN 9",Dublin,,"€470,000.00",No,No,Second-Hand Dwelling house /Apartment,,53.3837351,-6.2291132
25/01/2016,"4 LIMEKILN COURT, WALKINSTOWN, DUBLIN 12",Dublin,,"€237,500.00",No,No,Second-Hand Dwelling house /Apartment,,53.33306,-6.24889
14/04/2016,"19 Carrig Mill, Mill Road, Killincarraig",Wicklow,,"€354,650.00",No,Yes,New Dwelling house /Apartment,greater than or equal to 38 sq metres and less than 125 sq metres,53.0,-6.41667
01/02/2016,"13 LIGHTHOUSE VILLAGE, FENIT, KERRY",Kerry,,"€250,000.00",No,No,Second-Hand Dwelling house /Apartment,,52.28083,-9.8675
05/07/2016,"6 BALLINVELTIG, CURRAHEEN, CORK",Cork,,"€295,000.00",No,No,Second-Hand Dwelling house /Apartment,,51.86667,-8.56667
03/05/2016,"63 WEST COURT DEMENSE, CALLAN, KILKENNY",Kilkenny,,"€140,000.00",No,No,Second-Hand Dwelling house /Apartment,,52.545,-7.39111
27/05/2016,"14 Dargan's Way, Railway Avenue, Sutton",Dublin,,"€480,176.21",No,Yes,New Dwelling house /Apartment,greater than 125 sq metres,53.33306,-6.24889
10/03/2016,"24 HOLLYWOOD PARK, NAAS, KILDARE",Kildare,,"€275,000.00",No,No,Second-Hand Dwelling house /Apartment,,53.2236657,-6.6589507
18/11/2016,"CASTLETOWN, GURTYMADDEN, LUGHREA",Galway,,"€160,500.00",No,No,Second-Hand Dwelling house /Apartment,,53.27194,-9.04889
20/05/2016,"WENDON HOUSE, CHURCH RD, DELGANY",Wicklow,,"€175,000.00",Yes,No,Second-Hand Dwelling house /Apartment,,53.13083,-6.09139
07/10/2016,"10 SLI NA SRUTHAN, BALLINLOUGH, SRUTHAN",Roscommon,,"€40,000.00",No,No,Second-Hand Dwelling house /Apartment,,53.63333,-8.18333
31/05/2016,"Apt 346, Trimbleston, Goatstown",Dublin,,"€387,665.00",No,Yes,New Dwelling house /Apartment,greater than or equal to 38 sq metres and less than 125 sq metres,53.2995648,-6.231967
25/07/2016,"CAHER, KILTIMAGH, MAYO",Mayo,,"€25,000.00",No,No,Second-Hand Dwelling house /Apartment,,53.85,-9.0
19/12/2016,"26 WEST PARK DRIVE, BALLYGALL ROAD EAST, DUBLIN 11",Dublin,,"€220,000.00",Yes,No,Second-Hand Dwelling house /Apartment,,53.33306,-6.24889
26/02/2016,"16 STANFORD GREEN, DUBLIN 12, DUBLIN",Dublin,,"€277,000.00",No,No,Second-Hand Dwelling house /Apartment,,53.3209442,-6.3269459
08/01/2016,"44 OAKLANDS AVE, SWORDS, DUBLIN",Dublin,,"€325,000.00",No,No,Second-Hand Dwelling house /Apartment,,53.4561755,-6.2180537
18/11/2016,"AHAMILLA, 34 BISHOPSTOWN ROAD, BISHOPSTOWN",Cork,,"€248,000.00",No,No,Second-Hand Dwelling house /Apartment,,51.89797,-8.47061
25/08/2016,"23 CARRAIG LIA, SHANNON, CLARE",Clare,,"€167,000.00",No,No,Second-Hand Dwelling house /Apartment,,52.70389,-8.86417
28/01/2016,"63 The Northhumberland, Love Lane East, Mount Street Upper",Dublin,,"€320,000.00",No,No,Second-Hand Dwelling house /Apartment,,53.33306,-6.24889
01/12/2016,"25 RIVERSIDE DR, RED BARNS RD, DUNDALK",Louth,,"€165,000.00",No,No,Second-Hand Dwelling house /Apartment,,54.0,-6.41667
21/04/2016,"8 BACHELORS WALK, DUNDALK, LOUTH",Louth,,"€95,000.00",No,No,Second-Hand Dwelling house /Apartment,,54.0,-6.41667
16/12/2016,"60 Landen Park, Oldtown Demesne, Naas",Kildare,,"€480,176.21",No,Yes,New Dwelling house /Apartment,greater than or equal to 125 sq metres,53.21583,-6.66694
31/03/2016,"77 HAWTHORN HEIGHTS, LETTERKENNY, DONEGAL",Donegal,,"€270,000.00",No,No,Second-Hand Dwelling house /Apartment,,54.9524262,-7.7487458
13/07/2016,"123 THE GLEBE, KELLS, MEATH",Meath,,"€143,000.00",No,No,Second-Hand Dwelling house /Apartment,,53.7325137,-6.8709099
20/10/2016,"13 ARCHERS WOOD, CLONEE, DUBLIN 15",Dublin,,"€194,000.00",No,No,Second-Hand Dwelling house /Apartment,,53.33306,-6.24889
28/01/2016,"SHORTWOOD HOUSE, DAARS, SALLINS",Kildare,,"€785,000.00",No,No,Second-Hand Dwelling house /Apartment,,53.24889,-6.66611
28/09/2016,"12 SEAGRAVE CLOSE, DUBLIN 11",Dublin,,"€142,500.00",No,No,Second-Hand Dwelling house /Apartment,,53.33306,-6.24889
14/10/2016,"8 PAIRC CHUIMIN, KILCUMMIN, KILLARNEY",Kerry,,"€154,537.00",No,Yes,New Dwelling house /Apartment,greater than or equal to 38 sq metres and less than 125 sq metres,52.05,-9.51667
16/02/2016,"BALLINACLASH, BLACKWATER, ENNISCORTHY",Wexford,,"€150,000.00",No,No,Second-Hand Dwelling house /Apartment,,52.50083,-6.55778
09/08/2016,"MITCHELSTOWN, DELVIN, WESTMEATH",Westmeath,,"€160,000.00",No,No,Second-Hand Dwelling house /Apartment,,53.61056,-7.0925
21/04/2016,"ROCKLANDS, BALLINROAD, DUNGARVAN",Waterford,,"€432,500.00",No,No,Second-Hand Dwelling house /Apartment,,52.08806,-7.62528
21/11/2016,"29 BLACKCASTLE ESTATE, NAVAN, CO MEATH",Meath,,"€130,000.00",No,No,Second-Hand Dwelling house /Apartment,,53.6650136,-6.6735524
11/11/2016,"KNOCKSHANAWEE, FARNANES, CO CORK",Cork,,"€105,300.00",No,No,Second-Hand Dwelling house /Apartment,,51.86472,-8.80611
21/12/2016,"24 MARINERS COVE, BALTIMORE, CORK",Cork,,"€190,000.00",No,No,Second-Hand Dwelling house /Apartment,,51.4867908,-9.3679872
01/04/2016,"19 MOOREFIELD PARK, NEWBRIDGE, KILDARE",Kildare,,"€235,000.00",No,No,Second-Hand Dwelling house /Apartment,,53.171915,-6.80457
29/07/2016,"31 SHREWSBURY LAWN, CABINTEELY, DUBLIN 18",Dublin,,"€745,000.00",No,No,Second-Hand Dwelling house /Apartment,,53.33306,-6.24889
21/04/2016,"17 ELM VALE, RIVERBANK, ANNACOTTY",Limerick,,"€167,000.00",No,No,Second-Hand Dwelling house /Apartment,,52.66806,-8.54722
19/09/2016,"CAROBEG, KILKELLY, MAYO",Mayo,,"€60,000.00",No,No,Second-Hand Dwelling house /Apartment,,53.86667,-8.85
19/04/2016,"52 THE LAWN, CLOVER MEADOWS, BELMONT RD",Kilkenny,,"€120,000.00",No,No,Second-Hand Dwelling house /Apartment,,52.65417,-7.25222
15/07/2016,"113 BALLINCLEA HEIGHTS, KILLINEY, DUBLIN",Dublin,,"€610,000.00",No,No,Second-Hand Dwelling house /Apartment,,53.2676233,-6.1190228
28/07/2016,"7 MERRION VILLAGE, MERRION RD, DUBLIN 4",Dublin,,"€410,000.00",No,No,Second-Hand Dwelling house /Apartment,,53.33306,-6.24889
30/08/2016,"4 ST MARKS TCE, SCARLETT ST, DROGHEDA",Louth,,"€150,000.00",No,No,Second-Hand Dwelling house /Apartment,,53.71889,-6.34778
09/12/2016,"17 CLONMORE, BALLYVINITER, MALLOW",Cork,,"€265,000.00",No,No,Second-Hand Dwelling house /Apartment,,52.13333,-8.63333
21/04/2016,"18 The Avenue  Aubrey Manor, Rathcoole",Dublin,,"€352,422.00",No,Yes,New Dwelling house /Apartment,greater than or equal to 38 sq metres and less than 125 sq metres,53.2826938,-6.4687244
25/10/2016,"ROSANNA, SUMMERVILLE AVE, SOUTH CIRCULAR RD",Limerick,,"€295,000.00",No,No,Second-Hand Dwelling house /Apartment,,52.66472,-8.62306
29/06/2016,"6 ferns close, ferns bridge, monasterevin",Kildare,,"€108,369.00",No,Yes,New Dwelling house /Apartment,greater than or equal to 38 sq metres and less than 125 sq metres,53.146724,-7.0594883
16/08/2016,"53 AYLESBURY, KILKENNY",Kilkenny,,"€150,000.00",No,No,Second-Hand Dwelling house /Apartment,,52.6638267,-7.2577423
26/08/2016,"LISDUFF, CLAREMORRIS, CO MAYO",Mayo,,"€77,000.00",No,No,Second-Hand Dwelling house /Apartment,,53.8730337,-8.970041
28/10/2016,"THE OCTAGON, ARDEEVIN RD, DALKEY",Dublin,,"€925,000.00",No,No,Second-Hand Dwelling house /Apartment,,53.33306,-6.24889
19/07/2016,"PATRICK STREET B, MOUNTRATH, CO LAOIS",Laois,,"€52,500.00",No,No,Second-Hand Dwelling house /Apartment,,52.99889,-7.47278
27/09/2016,"RACECOURSE, CASHEL, TIPPERARY",Tipperary,,"€50,000.00",No,No,Second-Hand Dwelling house /Apartment,,52.4766143,-7.8967896
25/05/2016,"CLOONCRAFFIELD, LOUGHLYNN, CASTLEREA",Roscommon,,"€143,500.00",No,No,Second-Hand Dwelling house /Apartment,,53.76667,-8.5
24/06/2016,"105 TYRCONNELL RD, INCHICORE, DUBLIN",Dublin,,"€135,000.00",No,No,Second-Hand Dwelling house /Apartment,,53.3380325,-6.3231679
10/08/2016,"2 DERRY GAURRY, FOXFORD, MAYO",Mayo,,"€180,000.00",No,No,Second-Hand Dwelling house /Apartment,,53.98333,-9.11667
18/08/2016,"ESKERBANE, BRIDESWELL ATHLONE, ROSCOMMON",Roscommon,,"€160,000.00",No,No,Second-Hand Dwelling house /Apartment,,53.63333,-8.18333
28/01/2016,"25 CLONLEA, MOUNT OVAL, ROCHESTOWN",Cork,,"€135,500.00",No,No,Second-Hand Dwelling house /Apartment,,51.87,-8.38306
18/11/2016,"76 SWIFTBROOK GLEN, VIRGINIA, CAVAN",Cavan,,"€167,000.00",No,No,Second-Hand Dwelling house /Apartment,,53.8392974,-7.0968525
25/11/2016,"17 ALLOW HILL, FREEMOUNT, CO. CORK",Cork,,"€83,000.00",No,No,Second-Hand Dwelling house /Apartment,,52.26667,-8.88333
19/07/2016,"201 NEWTOWN HOUSE, HENRY ST, LIMERICK",Limerick,,"€65,000.00",No,No,Second-Hand Dwelling house /Apartment,,52.66472,-8.62306
24/11/2016,"3 THE COURT, MORNINGTON MANOR, MORNINGTON",Meath,,"€153,927.75",No,No,Second-Hand Dwelling house /Apartment,,53.72333,-6.2825
24/03/2016,"23 The Woods, Glounthaune, Cork",Cork,,"€330,396.00",No,Yes,New Dwelling house /Apartment,greater than 125 sq metres,51.9,-8.33333
22/07/2016,"31 HALL ST, CLONES RD, BALLYBAY",Monaghan,,"€30,000.00",No,No,Second-Hand Dwelling house /Apartment,,54.12611,-6.90056
24/11/2016,"103A CHILDERS HEIGHTS, BALLINA, CO MAYO",Mayo,,"€96,000.00",No,No,Second-Hand Dwelling house /Apartment,,54.1031184,-9.1603814
22/12/2016,"2 BALTRASNA APT, SPENCER DOCK, DUBLIN 1",Dublin,,"€260,000.00",No,No,Second-Hand Dwelling house /Apartment,,53.33306,-6.24889
05/04/2016,"14 ASHFIELD, BLACKWATER, CO WEXFORD",Wexford,,"€90,000.00",No,No,Second-Hand Dwelling house /Apartment,,52.4488736,-6.354976
14/12/2016,"12 Castlegrange Grove, Castaheaney",Dublin,,"€295,000.00",No,Yes,New Dwelling house /Apartment,greater than or equal to 38 sq metres and less than 125 sq metres,53.33306,-6.24889
16/12/2016,"APT 407, WINDMILL HOUSE, DOCK RD",Limerick,,"€40,000.00",No,No,Second-Hand Dwelling house /Apartment,,52.66472,-8.62306
29/07/2016,"75 MEADOW BANK, BUSHY PARK ROAD, DUBLIN 6",Dublin,,"€375,000.00",No,No,Second-Hand Dwelling house /Apartment,,53.33306,-6.24889
12/12/2016,"5 SAND DUNES COTTAGES, BANNA, CO KERRY",Kerry,,"€50,000.00",No,No,Second-Hand Dwelling house /Apartment,,52.36167,-9.82889
24/06/2016,"246 KILWORTH RD, DRIMNAGH, DUBLIN 12",Dublin,,"€212,500.00",No,No,Second-Hand Dwelling house /Apartment,,53.3303835,-6.3267255
06/05/2016,"10 THE COURT, WETHERTON, BANDON",Cork,,"€142,000.00",No,No,Second-Hand Dwelling house /Apartment,,51.74694,-8.7425
13/09/2016,"6 OLD COURT AVE, FIRHOUSE, DUBLIN 24",Dublin,,"€340,000.00",No,No,Second-Hand Dwelling house /Apartment,,53.33306,-6.24889
22/11/2016,"2 MILLWHARF, DROGHEDA, LOUTH",Louth,,"€10,888.43",No,No,Second-Hand Dwelling house /Apartment,,53.71889,-6.34778
22/06/2016,"20 WADES AVE, ST ANNES, RAHENY DUBLIN 5",Dublin,,"€340,000.00",No,No,Second-Hand Dwelling house /Apartment,,53.33306,-6.24889
12/05/2016,"DRUMDUFFY, DRUMKEERAN, LEITRIM",Leitrim,,"€75,000.00",No,No,Second-Hand Dwelling house /Apartment,,54.16667,-8.15
05/02/2016,"APT 3 THE GLEBE, TOGHER RD, MONASTEREVIN",Kildare,,"€65,000.00",No,No,Second-Hand Dwelling house /Apartment,,53.14056,-7.06639
22/07/2016,"BALLYCONRY, LISSELTON, COUNTY KERRY",Kerry,,"€51,000.00",No,No,Second-Hand Dwelling house /Apartment,,52.49583,-9.57583
22/09/2016,"9 PIPERS COURT, MILLMOUNT RD, MULLINGAR",Westmeath,,"€220,000.00",No,No,Second-Hand Dwelling house /Apartment,,53.53333,-7.35
05/12/2016,"5 DELAFORD AVE, KNOCKLYON, DUBLIN 16",Dublin,,"€400,000.00",No,No,Second-Hand Dwelling house /Apartment,,53.2855915,-6.3244312
19/08/2016,"233 ERRIGAL RD, DRIMNAGH, DUBLIN 12",Dublin,,"€317,000.00",No,No,Second-Hand Dwelling house /Apartment,,53.33306,-6.24889
21/09/2016,"GRANADA, 46 CARYSFORT RD, DALKEY",Dublin,,"€780,000.00",No,No,Second-Hand Dwelling house /Apartment,,53.33306,-6.24889
11/10/2016,"9 CHURCH VIEW, SWINFORD, MAYO",Mayo,,"€65,000.00",No,No,Second-Hand Dwelling house /Apartment,,53.9415985,-8.9513217
24/11/2016,"85 STELLA GARDENS, IRISHTOWN, DUBLIN 4",Dublin,,"€360,000.00",No,No,Second-Hand Dwelling house /Apartment,,53.3394421,-6.2251197
28/10/2016,"160 WHITECLIFF, RATHFARNHAM, DUBLIN 16",Dublin,,"€565,000.00",No,No,Second-Hand Dwelling house /Apartment,,53.283055,-6.2878368
15/04/2016,"29 PINE GROVE, MOYCULLEN, GALWAY",Galway,,"€110,000.00",No,No,New Dwelling house /Apartment,greater than or equal to 38 sq metres and less than 125 sq metres,53.3408497,-9.1783651
10/08/2016,"BALGADDY CROSS, LUCAN, DUBLIN",Dublin,,"€563,505.00",No,No,Second-Hand Dwelling house /Apartment,,53.33306,-6.24889
13/12/2016,"68 TAYLEURS POINT, RUSH, DUBLIN",Dublin,,"€280,000.00",Yes,No,Second-Hand Dwelling house /Apartment,,53.5207955,-6.0821682
26/10/2016,"28A THE RISE, MALAHIDE, THE RISE",Dublin,,"€800,000.00",No,No,Second-Hand Dwelling house /Apartment,,53.33306,-6.24889
01/12/2016,"8 FOXOBORO WAY, FOXOBORO, LUCAN",Dublin,,"€225,000.00",No,No,Second-Hand Dwelling house /Apartment,,53.33306,-6.24889
11/08/2016,"5 The Courtyard, Longwood",Meath,,"€198,237.88",No,Yes,New Dwelling house /Apartment,greater than 125 sq metres,53.45389,-6.92194
10/03/2016,"27 GAINSBOROUGH CRESCENT, MALAHIDE, DUBLIN",Dublin,,"€520,000.00",No,No,Second-Hand Dwelling house /Apartment,,53.4483615,-6.1855276
20/12/2016,"B14 CITYGATE, SLIGO TOWN, SLIGO",Sligo,,"€37,500.00",No,No,Second-Hand Dwelling house /Apartment,,54.26969,-8.46943
04/04/2016,"Ballymackea More, Cree",Clare,,"€162,215.00",No,Yes,New Dwelling house /Apartment,greater than or equal to 38 sq metres and less than 125 sq metres,52.81556,-8.96667
14/01/2016,"27 PRIORY HALL, WEXFORD, WEXFORD",Wexford,,"€163,000.00",No,No,Second-Hand Dwelling house /Apartment,,52.3428464,-6.4746176
16/08/2016,"Birchall, Rosscahill, 0ughterard",Galway,,"€331,000.00",No,Yes,New Dwelling house /Apartment,greater than 125 sq metres,53.27194,-9.04889
14/01/2016,"8 OLDCOURT DR, GREENFIELDS, BALLINCOLLIG",Cork,,"€270,000.00",No,No,Second-Hand Dwelling house /Apartment,,51.88333,-8.58333
12/08/2016,"APT 2A, THE FORGE, DROMIN",Kerry,,"€90,000.00",No,No,Second-Hand Dwelling house /Apartment,,52.11333,-9.74333
27/10/2016,"BARRATOORE, KYLEBRACK, LOUGHREA",Galway,,"€125,000.00",No,No,Second-Hand Dwelling house /Apartment,,53.19694,-8.56694
21/09/2016,"FADDENMORE, BELMONT, BIRR",Offaly,,"€250,000.00",No,No,Second-Hand Dwelling house /Apartment,,53.09139,-7.91333
05/09/2016,"6 COURT APARTMENTS, WILTON PLACE, DUBLIN2",Dublin,,"€405,000.00",No,No,Second-Hand Dwelling house /Apartment,,53.33306,-6.24889
14/01/2016,"HIGH GROVE, TIMOLEAGUE, CORK",Cork,,"€375,000.00",No,No,Second-Hand Dwelling house /Apartment,,51.64222,-8.77306
29/09/2016,"65 Ashley Hall, St. Edmunds, Palmerstown",Dublin,,"€156,999.12",No,Yes,New Dwelling house /Apartment,greater than or equal to 38 sq metres and less than 125 sq metres,53.33306,-6.24889
16/11/2016,"21 ROEBUCK CASTLE, ROEBUCK ROAD, CLONSKEAGH",Dublin,,"€508,000.00",No,No,Second-Hand Dwelling house /Apartment,,53.33306,-6.24889
25/11/2016,"11 ROCKMANOR DR, KILCOOLE, WICKLOW",Wicklow,,"€240,000.00",No,No,Second-Hand Dwelling house /Apartment,,53.1110279,-6.0618073
21/03/2016,"Springfield, Brittas, Tullaroan",Kilkenny,,"€170,000.00",No,No,Second-Hand Dwelling house /Apartment,,52.66222,-7.43639
09/09/2016,"19 BLACKROCK MEWS, EDEN, BLACKROCK",Cork,,"€242,500.00",No,No,Second-Hand Dwelling house /Apartment,,51.89694,-8.41
30/05/2016,"13 KINGSTON RISE, BALLINTEER, DUBLIN 16",Dublin,,"€620,000.00",No,No,Second-Hand Dwelling house /Apartment,,53.269233,-6.2512581
28/07/2016,"APT 1 DISTILLERY COURT, ABBEY STREET, CO SLIGO",Sligo,,"€61,000.00",No,No,Second-Hand Dwelling house /Apartment,,54.26969,-8.46943
26/10/2016,"27 CONQUER HILL RD, CLONTARF, DUBLIN 3",Dublin,,"€315,000.00",No,No,Second-Hand Dwelling house /Apartment,,53.3602089,-6.1897872
21/07/2016,"WINGFOOT, 12 STRAND ROAD, SUTTON",Dublin,,"€450,000.00",Yes,No,Second-Hand Dwelling house /Apartment,,53.33306,-6.24889
27/05/2016,"HAYDOCK, WESTMINSTER RD, FOXROCK DUBLIN 18",Dublin,,"€1,235,000.00",No,No,Second-Hand Dwelling house /Apartment,,53.33306,-6.24889
23/02/2016,"35 DUN EMER GREEN, LUSK, DUBLIN",Dublin,,"€240,000.00",No,No,Second-Hand Dwelling house /Apartment,,53.525249,-6.1739928
02/11/2016,"37 LEISH VALLEY, RATOATH, MEATH",Meath,,"€290,000.00",No,No,Second-Hand Dwelling house /Apartment,,53.50806,-6.4625
13/05/2016,"14 WATERVILLE, BEALNAMULLA, ATHLONE",Roscommon,,"€240,000.00",No,No,Second-Hand Dwelling house /Apartment,,53.63333,-8.18333
29/01/2016,"32 SWANSNEST AVE, KILBARRACK, DUBLIN 5",Dublin,,"€208,000.00",No,No,Second-Hand Dwelling house /Apartment,,53.33306,-6.24889
10/02/2016,"CASTLE HOUSE, BALLYVODANE, DONOUGHMORE",Cork,,"€155,000.00",No,No,Second-Hand Dwelling house /Apartment,,51.98333,-8.75
14/10/2016,"APT 9 ROSSECOURT HALL, ROSSECOURT AVE, LUCAN",Dublin,,"€170,500.00",No,No,Second-Hand Dwelling house /Apartment,,53.33306,-6.24889
06/04/2016,"BARRACK SQ, DRUMSHANBO, LEITRIM",Leitrim,,"€35,000.00",No,No,Second-Hand Dwelling house /Apartment,,54.05,-8.03333
22/11/2016,"34 BEACH PARK, PORTMARNOCK, CO DUBLIN",Dublin,,"€640,000.00",No,No,Second-Hand Dwelling house /Apartment,,53.4290786,-6.1309168
27/05/2016,"19 OAKFIELD, FATHER RUSSELL RD, LIMERICK",Limerick,,"€263,000.00",No,No,Second-Hand Dwelling house /Apartment,,52.66472,-8.62306
22/08/2016,"5 MURMONT LAWN, MONTENOTTE, CORK",Cork,,"€246,000.00",No,No,Second-Hand Dwelling house /Apartment,,51.89797,-8.47061
26/07/2016,"66 KNOCKNAREA AVE, DRIMNAGH, DUBLIN",Dublin,,"€175,000.00",No,No,Second-Hand Dwelling house /Apartment,,53.33306,-6.24889
04/07/2016,"11 BOTHAR NA MIAS, KINVARA, CO.GALWAY",Galway,,"€240,000.00",No,No,Second-Hand Dwelling house /Apartment,,53.1383271,-8.9280385
20/10/2016,"1A THE CAIRN, HAYSTOWN RD, RUSH",Dublin,,"€237,000.00",No,No,Second-Hand Dwelling house /Apartment,,53.33306,-6.24889
25/02/2016,"AVONA HOUSE, CORK RD, MALLOW",Cork,,"€123,000.00",No,No,Second-Hand Dwelling house /Apartment,,52.13333,-8.63333
25/04/2016,"2 WALSHS PLACE, LEITRIM ST, CORK",Cork,,"€121,000.00",No,No,Second-Hand Dwelling house /Apartment,,51.89797,-8.47061
17/06/2016,"GROUND FLOOR APARTMENT, 16 BENEDICTS GARDENS, DUBLIN 7",Dublin,,"€285,100.00",No,No,Second-Hand Dwelling house /Apartment,,53.33306,-6.24889
14/12/2016,"66 HOME FARM RD, DRUMCONDRA, DUBLIN 9",Dublin,,"€280,000.00",No,No,Second-Hand Dwelling house /Apartment,,53.3741925,-6.2565593
17/06/2016,"31 SAUNDERS HOUSE, SPENCER DOCK, DUBLIN 1",Dublin,,"€434,000.00",No,Yes,New Dwelling house /Apartment,greater than or equal to 38 sq metres and less than 125 sq metres,53.33306,-6.24889
28/10/2016,"41 Sion Hill Park, Sion Hill Road, Drumcondra",Dublin,,"€506,608.00",No,Yes,New Dwelling house /Apartment,less than 38 sq metres,53.33306,-6.24889
12/02/2016,"CORLISLEA, BALLINAGH, CO CAVAN",Cavan,,"€160,000.00",No,No,Second-Hand Dwelling house /Apartment,,53.93333,-7.41667
19/12/2016,"14 Cairnsfort, Golf Links Road, Castletroy",Limerick,,"€127,556.00",No,Yes,New Dwelling house /Apartment,greater than or equal to 38 sq metres and less than 125 sq metres,52.66472,-8.62306
04/04/2016,"14 LANDSDOWNE COURT, OLD YOUGHAL RD, CORK",Cork,,"€131,000.00",No,No,Second-Hand Dwelling house /Apartment,,51.89797,-8.47061
26/05/2016,"82 LOWER KILMACUD RD, STILLORGAN, DUBLIN",Dublin,,"€585,000.00",No,No,Second-Hand Dwelling house /Apartment,,53.2888202,-6.2130184
05/07/2016,"LISHEEN HOUSE, HARBOUR VIEW, KILBRITTAIN",Cork,,"€950,000.00",No,No,Second-Hand Dwelling house /Apartment,,51.67556,-8.69333
18/10/2016,"179 GRIFFITH AVE, DUBLIN 9, DUBLIN",Dublin,,"€695,000.00",No,No,Second-Hand Dwelling house /Apartment,,53.37481,-6.245442
05/02/2016,"MAIN STREET, CLONMELLON, COUNTY WESTMEATH",Westmeath,,"€84,950.00",No,No,Second-Hand Dwelling house /Apartment,,53.6636356,-7.0148588
27/09/2016,"3 NEWLANDS DR, CLONDALKIN, DUBLIN 22",Dublin,,"€425,000.00",No,No,Second-Hand Dwelling house /Apartment,,53.3150053,-6.3891764
30/06/2016,"13 NUNNERY LANE, NEW ROSS, WEXFORD",Wexford,,"€56,000.00",No,No,Second-Hand Dwelling house /Apartment,,52.3953819,-6.9393457
18/05/2016,"BALLYHANRAHAN, BALLYBRONOGUE NORTH, PATRICKSWELL",Limerick,,"€281,000.00",No,No,Second-Hand Dwelling house /Apartment,,52.59722,-8.70889
05/08/2016,"11 Kellett's Grove, Lagore Road, Dunshaughlin",Meath,,"€287,810.00",No,Yes,New Dwelling house /Apartment,greater than or equal to 38 sq metres and less than 125 sq metres,53.5125,-6.54
18/02/2016,"BARRYSPOINT, COURTMACSHERRY, BANDON",Cork,,"€170,000.00",No,No,Second-Hand Dwelling house /Apartment,,51.74694,-8.7425
01/04/2016,"109 Cartrun Breac, lisbrack, longford",Longford,,"€59,515.00",No,Yes,New Dwelling house /Apartment,greater than or equal to 38 sq metres and less than 125 sq metres,53.7384073,-7.8070661
13/05/2016,"3 HILLSIDE CASTLEPARK, ST JOSEPHS RD, MALLOW",Cork,,"€180,000.00",No,No,Second-Hand Dwelling house /Apartment,,52.13333,-8.63333
05/08/2016,"31 AN SHRUIHAIN, CROSS ST, LOUGHREA",Galway,,"€115,000.00",No,No,Second-Hand Dwelling house /Apartment,,53.19694,-8.56694
18/08/2016,"13 SKEHANORE, SOUTH DOUGLAS RD, CORK",Cork,,"€195,000.00",No,No,Second-Hand Dwelling house /Apartment,,51.89797,-8.47061
01/07/2016,"49 PARK COURT, PARK AVE, SANDYMOUNT DUBLIN 4",Dublin,,"€430,000.00",No,No,Second-Hand Dwelling house /Apartment,,53.33306,-6.24889
21/11/2016,"10 CREGG VIEW, OUGHTERARD, GALWAY",Galway,,"€290,000.00",No,No,Second-Hand Dwelling house /Apartment,,53.4269494,-9.3244921
26/08/2016,"BILLEROUGH, LISTOWEL, KERRY",Kerry,,"€100,000.00",No,No,Second-Hand Dwelling house /Apartment,,52.44639,-9.485
18/07/2016,"13 ASH MEADOWS, STRANORLAR, CO DONEGAL",Donegal,,"€60,000.00",No,No,Second-Hand Dwelling house /Apartment,,54.8,-7.76667
19/08/2016,"123 CELTIC PARK AVE, WHITEHALL, DUBLIN 9",Dublin,,"€335,000.00",No,No,Second-Hand Dwelling house /Apartment,,53.33306,-6.24889
08/01/2016,"28 monalin, wicklow hills, newtownm'tkennedy",Wicklow,,"€207,048.00",No,Yes,New Dwelling house /Apartment,greater than or equal to 38 sq metres and less than 125 sq metres,53.0,-6.41667
19/12/2016,"18 BEECHFIELD MEADOWS, CASTAHEANY DUBLIN 15, DUBLIN 15",Dublin,,"€253,000.00",Yes,No,Second-Hand Dwelling house /Apartment,,53.33306,-6.24889
26/09/2016,"18 Holland Close, Rheban Manor, Athy",Kildare,,"€38,773.56",No,Yes,New Dwelling house /Apartment,greater than or equal to 38 sq metres and less than 125 sq metres,52.99139,-6.98028
15/12/2016,"26 An Riasc, Farnham Drive, Finglas",Dublin,,"€295,000.00",No,Yes,New Dwelling house /Apartment,greater than or equal to 38 sq metres and less than 125 sq metres,53.33306,-6.24889
26/04/2016,"23 THE GRANGE, KILMORE, WEXFORD",Wexford,,"€157,303.00",No,No,Second-Hand Dwelling house /Apartment,,52.2054369,-6.5498048
09/09/2016,"ROCK RD, BORRIS IN OSSRY, LAOIS",Laois,,"€180,000.00",No,No,Second-Hand Dwelling house /Apartment,,53.0,-7.4
13/07/2016,"PEBBLE COTTAGE, SALTMILLS, FETHARD ON SEA",Wexford,,"€55,000.00",No,No,Second-Hand Dwelling house /Apartment,,52.19261,-6.83968
05/04/2016,"TREANMANAGH, BARNA, PALLASGREEN",Limerick,,"€40,000.00",No,No,Second-Hand Dwelling house /Apartment,,52.5679,-8.33794
01/03/2016,"15 PARK ST, MIDLETON, CORK",Cork,,"€80,000.00",No,No,Second-Hand Dwelling house /Apartment,,51.91526,-8.18052
16/06/2016,"CASTLEBLAYNEY RD, BALLYBAY, MONAGHAN",Monaghan,,"€80,000.00",No,No,Second-Hand Dwelling house /Apartment,,54.1298719,-6.8971622
22/09/2016,"9A AVOCA RD, BLACKROCK, DUBLIN",Dublin,,"€742,500.00",No,No,Second-Hand Dwelling house /Apartment,,53.2945345,-6.1901641
28/10/2016,"34 HAWTHORNS SKIBBEREEN, SKIBBEREEN, CORK",Cork,,"€160,000.00",No,No,Second-Hand Dwelling house /Apartment,,51.55,-9.26667
27/05/2016,"1 AGHRAGH, TEELIN, CARRICK",Donegal,,"€130,000.00",No,No,Second-Hand Dwelling house /Apartment,,54.6575,-8.63167
21/12/2016,"3 Cnoc na Ri, Top Road, Strandhill",Sligo,,"€225,000.00",No,Yes,New Dwelling house /Apartment,greater than or equal to 38 sq metres and less than 125 sq metres,54.27194,-8.59333
12/02/2016,"14 Hazelwood Green, Hazelhatch Road, Cellbridge",Kildare,,"€315,725.00",No,Yes,New Dwelling house /Apartment,greater than or equal to 38 sq metres and less than 125 sq metres,53.15611,-6.91444
23/03/2016,"Mangerton, Westminster Road, Foxrock",Dublin,,"€2,750,000.00",No,No,Second-Hand Dwelling house /Apartment,,53.267801,-6.1802674
01/03/2016,"32 HIGH ST, WEXFORD",Wexford,,"€90,000.00",No,No,Second-Hand Dwelling house /Apartment,,52.3381981,-6.4626677
26/10/2016,"11 KNOCKADERRY GROVE, TULLA RD, ENNIS",Clare,,"€365,000.00",No,No,Second-Hand Dwelling house /Apartment,,52.84361,-8.98639
24/10/2016,"DRUMILER, KINGSCOURT, CAVAN",Cavan,,"€160,000.00",No,No,Second-Hand Dwelling house /Apartment,,53.90806,-6.80556
27/04/2016,"45 The Court, Harbour Heights, Passage West",Cork,,"€70,000.00",No,Yes,New Dwelling house /Apartment,greater than or equal to 38 sq metres and less than 125 sq metres,51.87389,-8.34444
04/11/2016,"82 WOODAVENS, CLONDALKIN, DUBLIN 22",Dublin,,"€190,000.00",Yes,No,Second-Hand Dwelling house /Apartment,,53.33306,-6.24889
22/09/2016,"APT 10 HOUSE 3, LINDEN COURT, GROVE AVE",Dublin,,"€275,000.00",No,No,Second-Hand Dwelling house /Apartment,,53.33306,-6.24889
13/12/2016,"107 RIVER OAKS, CLAREGALWAY, GALWAY",Galway,,"€199,000.00",No,No,Second-Hand Dwelling house /Apartment,,53.33861,-8.945
18/02/2016,"11 GREENRIDGE COURT, BLANCHARDSTOWN, DUBLIN 15",Dublin,,"€135,000.00",No,No,Second-Hand Dwelling house /Apartment,,53.3948154,-6.3796676
23/11/2016,"9 The Drive, Royal Oaks, Enfield",Meath,,"€259,911.89",No,Yes,New Dwelling house /Apartment,greater than or equal to 125 sq metres,53.41419,-6.83229
22/04/2016,"7 Ridgewood Manor, Melitta Road, Kildare",Kildare,,"€229,000.00",No,Yes,New Dwelling house /Apartment,greater than or equal to 38 sq metres and less than 125 sq metres,53.15611,-6.91444
14/10/2016,"12 BELFRY PARK, CITYWEST RD, DUBLIN 24",Dublin,,"€231,000.00",No,No,Second-Hand Dwelling house /Apartment,,53.33306,-6.24889
05/02/2016,"16 PINE GROVE, TRAMORE, WATERFORD",Waterford,,"€185,000.00",No,No,Second-Hand Dwelling house /Apartment,,52.1604918,-7.1696456
07/10/2016,"15 ST DAVIDS TERRACE, BLACKHORSE AVE, DUBLIN 7",Dublin,,"€430,000.00",No,No,Second-Hand Dwelling house /Apartment,,53.33306,-6.24889
15/11/2016,"APT 50A MAIN ST, GOREY, CO WEXFORD",Wexford,,"€95,000.00",No,No,Second-Hand Dwelling house /Apartment,,52.6758892,-6.2937144
13/12/2016,"248 Boireann Bheag, Roscam, Galway",Galway,,"€222,250.00",No,Yes,New Dwelling house /Apartment,greater than or equal to 38 sq metres and less than 125 sq metres,53.2762737,-8.9660648
07/12/2016,"29 THE CRESENT, ST WOLSTANS ABBEY, CELBRIDGE",Kildare,,"€175,000.00",No,No,Second-Hand Dwelling house /Apartment,,53.33861,-6.54361
01/04/2016,"4 LAD LANE, DUBLIN 2, DUBLIN",Dublin,,"€512,500.00",No,No,Second-Hand Dwelling house /Apartment,,53.3356107,-6.2488164
01/06/2016,"36 KILLYASTIN HEIGHTS, LETTERKENNY, DONEGAL",Donegal,,"€110,000.00",No,No,Second-Hand Dwelling house /Apartment,,54.95,-7.73333
23/02/2016,"10 ELDERWOOD AVE, BOREENMANNA RD, CORK",Cork,,"€205,000.00",No,No,Second-Hand Dwelling house /Apartment,,51.89797,-8.47061
12/10/2016,"49 ELM RD, RIVERBANK, ANNACOTTY",Limerick,,"€160,000.00",No,No,Second-Hand Dwelling house /Apartment,,52.66806,-8.54722
29/11/2016,"5 SHANARD AVE, SANTRY, DUBLIN 9",Dublin,,"€250,000.00",No,No,Second-Hand Dwelling house /Apartment,,53.3903303,-6.2624255
29/07/2016,"9 BRAMBLE WAY, FOXWOODS, SIX CROSS ROADS",Waterford,,"€160,000.00",No,No,Second-Hand Dwelling house /Apartment,,52.25833,-7.11194
20/12/2016,"44 BALLYGORAN VIEW, CELBRIDGE, KILDARE",Kildare,,"€335,000.00",No,No,Second-Hand Dwelling house /Apartment,,53.3502219,-6.5535959
29/01/2016,"Park view, Cork road, Skibbereen",Cork,,"€160,000.00",No,No,Second-Hand Dwelling house /Apartment,,51.55,-9.26667
09/05/2016,"APT 2, ADMIRALTY LODGE, SPANISH POINT   MILLTOWN MALBAY",Clare,,"€100,000.00",No,No,Second-Hand Dwelling house /Apartment,,52.85528,-9.39833
15/07/2016,"23 WOLFE TONE SQ, WEST, BRAY",Wicklow,,"€249,000.00",No,No,Second-Hand Dwelling house /Apartment,,53.1898273,-6.1089555
29/07/2016,"48 HILLCREST, KILCULLEN, KILDARE",Kildare,,"€239,950.00",No,No,Second-Hand Dwelling house /Apartment,,53.1354235,-6.7414963
22/07/2016,"59 BOWBRIDGE PLACE, BLOCK D, IRWIN STREET",Dublin,,"€220,000.00",No,No,Second-Hand Dwelling house /Apartment,,53.33306,-6.24889
24/05/2016,"CORNALACK, BALLINDERRY, TIPPERARY",Tipperary,,"€200,000.00",No,No,Second-Hand Dwelling house /Apartment,,52.47333,-8.15583
26/05/2016,"54 HAZELWOOD, DONABATE, DUBLIN",Dublin,,"€390,000.00",No,No,Second-Hand Dwelling house /Apartment,,53.4901829,-6.1492758
27/10/2016,"6 Barnwell Square North, Barnwell Square, Hansfield",Dublin,,"€233,480.20",No,Yes,New Dwelling house /Apartment,greater than or equal to 38 sq metres and less than 125 sq metres,53.33306,-6.24889
02/11/2016,"ROSE COTTAGE, RIVERSTOWN, BIRR",Offaly,,"€80,000.00",No,No,Second-Hand Dwelling house /Apartment,,53.09139,-7.91333
19/02/2016,"GLASSGORT, BALLINTUBBER, COUNTY MAYO",Mayo,,"€36,500.00",No,No,Second-Hand Dwelling house /Apartment,,53.75744,-9.2807
11/03/2016,"7 BARRETTSTOWN LAWNS, NEWBRIDGE, KILDARE",Kildare,,"€155,000.00",No,No,Second-Hand Dwelling house /Apartment,,53.1931617,-6.795073
08/12/2016,"169 BALLYGALL PARADE, FINGLAS EAST, DUBLIN 11",Dublin,,"€163,000.00",No,No,Second-Hand Dwelling house /Apartment,,53.3865669,-6.291694
22/02/2016,"174 SUTTON PARK, SUTTON, DUBLIN 13",Dublin,,"€440,000.00",No,No,Second-Hand Dwelling house /Apartment,,53.3885003,-6.1328563
21/07/2016,"20 GEATA NA CATHRACHA, FAIRGREEN RD, GALWAY",Galway,,"€199,635.63",No,No,Second-Hand Dwelling house /Apartment,,53.27194,-9.04889
25/01/2016,"8 QUAY ST, DUNGARVAN, WATERFORD",Waterford,,"€70,000.00",No,No,Second-Hand Dwelling house /Apartment,,52.0885359,-7.6162727
14/09/2016,"MULLAGHCLOE, BALLYMORE, COUNTY WESTMEATH",Westmeath,,"€80,000.00",No,No,Second-Hand Dwelling house /Apartment,,53.4969914,-7.6528993
13/01/2016,"5 BEACHSIDE COURT, RIVERCHAPEL, GOREY",Wexford,,"€76,000.00",No,No,Second-Hand Dwelling house /Apartment,,52.637156,-6.2315064
14/09/2016,"8 LIMEWORTH, BALLINCOLLIG, CORK",Cork,,"€680,000.00",No,No,Second-Hand Dwelling house /Apartment,,51.8820949,-8.581992
20/12/2016,"DUNHEEDA, KINGSCOURT, MEATH",Meath,,"€255,000.00",No,No,Second-Hand Dwelling house /Apartment,,53.8878911,-6.7548413
12/04/2016,"ADOON, GORVAGH, LEITRIM",Leitrim,,"€200,000.00",No,No,Second-Hand Dwelling house /Apartment,,53.99083,-8.06361
18/04/2016,"16 Hampton Garden, Balbriggan",Dublin,,"€199,950.00",No,Yes,New Dwelling house /Apartment,greater than or equal to 38 sq metres and less than 125 sq metres,53.33306,-6.24889
17/02/2016,"125 The Links, Elm Park, Merrion Road",Dublin,,"€209,682.00",No,No,Second-Hand Dwelling house /Apartment,,53.33306,-6.24889
07/10/2016,"4 ST CONLETHS PARK, NEWBRIDGE, KILDARE",Kildare,,"€85,000.00",No,No,Second-Hand Dwelling house /Apartment,,53.18194,-6.79667
26/09/2016,"10 ST PATRICKS TERRACE, ABBEYSIDE, DUNGARVAN",Waterford,,"€165,000.00",No,No,Second-Hand Dwelling house /Apartment,,52.08806,-7.62528
09/03/2016,"Odin House, Balfaddock, Slane",Meath,,"€415,000.00",No,No,Second-Hand Dwelling house /Apartment,,53.71,-6.54333
30/09/2016,"1 CANAL AVENUE, MULLINGAR, CO WESTMEATH",Westmeath,,"€97,500.00",Yes,No,Second-Hand Dwelling house /Apartment,,53.527204,-7.333307
14/12/2016,"12 CORBALLY WAY, WESTBROOK LAWNS, SAGGART",Dublin,,"€281,000.00",No,No,Second-Hand Dwelling house /Apartment,,53.33306,-6.24889
26/09/2016,"81 AUGHNASKERRY DR, CAVAN, CAVAN",Cavan,,"€65,000.00",No,No,Second-Hand Dwelling house /Apartment,,53.9954355,-7.3546352
12/07/2016,"THE BING, KILRANE, ROSSLARE HARBOUR",Wexford,,"€210,000.00",No,No,Second-Hand Dwelling house /Apartment,,52.25,-6.35
22/07/2016,"79 THE RISE, KNOCKNACARRA, SALTHILL",Galway,,"€43,300.00",No,No,Second-Hand Dwelling house /Apartment,,53.27194,-9.04889
25/08/2016,"15 LINTOWN GREEN, JOHNSWELL RD, KILKENNY",Kilkenny,,"€115,000.00",No,No,Second-Hand Dwelling house /Apartment,,52.65417,-7.25222
26/07/2016,"4 SCHOOLHOUSE GATE, BALLINKILLEN, BAGENALSTOWN",Carlow,,"€123,000.00",No,No,Second-Hand Dwelling house /Apartment,,52.70031,-6.96181
14/07/2016,"GLASHEEN, KILMACANOGUE SOUTH, WICKLOW",Wicklow,,"€570,000.00",No,No,Second-Hand Dwelling house /Apartment,,52.975,-6.04944
29/06/2016,"68 Ciamaltha Meadows, Ciamaltha Road, Nenagh",Tipperary,,"€147,050.00",No,Yes,New Dwelling house /Apartment,greater than or equal to 38 sq metres and less than 125 sq metres,52.47333,-8.15583
12/08/2016,"84 BAILIS MANOR, ATHLUMNEY, NAVAN",Meath,,"€269,000.00",No,No,Second-Hand Dwelling house /Apartment,,53.65278,-6.68139
12/10/2016,"ATTATURK HOUSE, CURRY, MAYO",Mayo,,"€400,000.00",No,No,Second-Hand Dwelling house /Apartment,,53.75977,-9.11719
10/06/2016,"89 DRYNAM DR, KINSEALLY, DUBLIN",Dublin,,"€240,000.00",No,No,Second-Hand Dwelling house /Apartment,,53.33306,-6.24889
12/08/2016,"18 CASTLECOUNTESS, TRALEE, KERRY",Kerry,,"€162,500.00",No,No,Second-Hand Dwelling house /Apartment,,52.27042,-9.70264
29/04/2016,"KNOCKDUFF UPPER, CULLEN, MALLOW",Cork,,"€106,000.00",No,No,Second-Hand Dwelling house /Apartment,,52.1265135,-9.1303693
12/02/2016,"SILVERBIRCH HOUSE, ARTIGALLIVAN, HEADFORD",Kerry,,"€200,000.00",No,No,Second-Hand Dwelling house /Apartment,,52.16667,-9.75
12/01/2016,"169 HAMPTON COVE, BALBRIGGAN, DUBLIN",Dublin,,"€303,500.00",No,No,Second-Hand Dwelling house /Apartment,,53.6071118,-6.1666124
07/07/2016,"12 PEMBROKE COTTAGES, DUNDRUM, DUBLIN 16",Dublin,,"€318,665.00",No,No,Second-Hand Dwelling house /Apartment,,53.33306,-6.24889
03/02/2016,"UPPER LISS, CASTLECOVE KERRY, KERRY",Kerry,,"€122,000.00",No,No,Second-Hand Dwelling house /Apartment,,52.16667,-9.75
28/07/2016,"16 MCSWEENEY TERRACE, MIDLETON, CORK",Cork,,"€152,000.00",No,No,Second-Hand Dwelling house /Apartment,,51.920867,-8.1760878
03/03/2016,"29 LITTLEWOOD, STEPASIDE, DUBLIN",Dublin,,"€272,000.00",No,No,Second-Hand Dwelling house /Apartment,,53.2585627,-6.2212631
28/11/2016,"ROSEVILLE COTTAGE, STATION ROAD, BALLINASLOE",Galway,,"€95,000.00",No,No,Second-Hand Dwelling house /Apartment,,53.3275,-8.21944
10/08/2016,"22 THE DOWNS, DRUMREE RD, DUNSHAUGHLIN",Meath,,"€375,000.00",No,No,Second-Hand Dwelling house /Apartment,,53.5125,-6.54
05/07/2016,"4 FOXFIELD, CARRICKMACROSS, MONAGHAN",Monaghan,,"€158,000.00",No,No,Second-Hand Dwelling house /Apartment,,53.9679541,-6.7243456
06/05/2016,"3 HOLLYBROOK ROBINSTOWN NAVAN, MEATH",Meath,,"€360,000.00",No,No,Second-Hand Dwelling house /Apartment,,53.5953636,-6.7292376
14/11/2016,"FAIRYMOUNT, KINGSCOURT, CAVAN",Cavan,,"€160,000.00",No,No,Second-Hand Dwelling house /Apartment,,53.90806,-6.80556
12/02/2016,"51 KILCARW COURT, NAVAN, MEATH",Meath,,"€120,000.00",No,No,Second-Hand Dwelling house /Apartment,,53.65278,-6.68139
19/10/2016,"5A ORLAGH GROVE, CASTLEBAR, MAYO",Mayo,,"€127,000.00",No,No,Second-Hand Dwelling house /Apartment,,53.8575363,-9.3066605
18/07/2016,"4 THE HARBOUR, INNISCRONE, SLIGO",Sligo,,"€135,000.00",No,No,Second-Hand Dwelling house /Apartment,,54.26969,-8.46943
15/03/2016,"13 LISNAROYNE OAKS, STROKESTOWN, CO. ROSCOMMON",Roscommon,,"€92,000.00",No,No,Second-Hand Dwelling house /Apartment,,53.78333,-8.1
24/06/2016,"CARROWCULLEEN, SKREEN, SLIGO",Sligo,,"€50,000.00",No,No,Second-Hand Dwelling house /Apartment,,54.2052733,-8.742197
03/02/2016,"53 Nash Street, Inchicore, Dublin",Dublin,,"€167,000.00",No,No,Second-Hand Dwelling house /Apartment,,53.3361883,-6.3320546
11/05/2016,"7 ROWAN HOUSE, ROYAL CANAL COURT, KILCOCK",Kildare,,"€110,000.00",No,No,Second-Hand Dwelling house /Apartment,,53.40222,-6.67083
23/02/2016,"1 BARRACKVIEW, ROMAN ST, CORK",Cork,,"€69,000.00",No,No,Second-Hand Dwelling house /Apartment,,51.89797,-8.47061
16/11/2016,"Apartment 25 The Waterfront, Leitrim  Village",Leitrim,,"€54,000.00",No,Yes,New Dwelling house /Apartment,greater than or equal to 38 sq metres and less than 125 sq metres,53.99083,-8.06361
15/04/2016,"380 MORELL COURT, MORELL PARK, NAAS",Kildare,,"€270,000.00",No,No,Second-Hand Dwelling house /Apartment,,53.21583,-6.66694
20/01/2016,"9 THE DRIVE, MELROSE PARK, KINSEALY",Dublin,,"€290,000.00",No,No,Second-Hand Dwelling house /Apartment,,53.33306,-6.24889
28/06/2016,"5 TOBERBURR AVE, SAINT MARGARETS, SWORDS",Dublin,,"€93,675.29",Yes,No,Second-Hand Dwelling house /Apartment,,53.33306,-6.24889
29/04/2016,"2 Dal Riada Park, Knocklyon",Dublin,,"€345,000.00",No,Yes,New Dwelling house /Apartment,greater than 125 sq metres,53.33306,-6.24889
07/12/2016,"BANAGHER ROAD, PILTOWN, CO KILKENNY",Kilkenny,,"€56,000.00",No,No,Second-Hand Dwelling house /Apartment,,52.35333,-7.34028
24/08/2016,"16 RATH GLEN, KILLESHIN",Carlow,,"€139,648.00",No,Yes,New Dwelling house /Apartment,greater than or equal to 125 sq metres,52.84083,-6.92611
05/02/2016,"Bealduvroga, Ballingarry",Limerick,,"€225,000.00",No,Yes,New Dwelling house /Apartment,greater than or equal to 38 sq metres and less than 125 sq metres,52.4931295,-8.8688712
26/04/2016,"90 NEW HAVEN BAY FLEMINGTON LANE, BALBRIGGAN, DUBLIN",Dublin,,"€137,000.00",No,No,Second-Hand Dwelling house /Apartment,,53.33306,-6.24889
15/08/2016,"63 THE PALMS, CLONSKEAGH, DUBLIN 14",Dublin,,"€1,025,000.00",No,No,Second-Hand Dwelling house /Apartment,,53.2991328,-6.2236051
25/07/2016,"28 THE FAIRWAY, THE OLD COURSE, IRONMINES",Cork,,"€125,000.00",No,No,Second-Hand Dwelling house /Apartment,,51.89797,-8.47061
09/11/2016,"WITZEND, FRIARS HILL, WICKLOW",Wicklow,,"€286,500.00",No,No,Second-Hand Dwelling house /Apartment,,52.975,-6.04944
01/04/2016,"31 OLDE MILL STONE, KILLALA RD, BALLINA",Mayo,,"€120,000.00",No,No,Second-Hand Dwelling house /Apartment,,54.11667,-9.16667
04/04/2016,"2 SWEENEY MEWS, ONGAR, DUBLIN 15",Dublin,,"€170,000.00",No,No,Second-Hand Dwelling house /Apartment,,53.3948824,-6.4396772
03/03/2016,"3 FREEPORT, BARNA, GALWAY",Galway,,"€375,000.00",No,No,Second-Hand Dwelling house /Apartment,,53.2508156,-9.1481074
11/03/2016,"19 MACGREGAL CUIRT, BIRR, OFFALY",Offaly,,"€42,500.00",No,Yes,New Dwelling house /Apartment,greater than or equal to 38 sq metres and less than 125 sq metres,53.09139,-7.91333
04/02/2016,"25 ALLOW HILL, FREEMOUNT, CO.CORK",Cork,,"€34,723.86",No,No,Second-Hand Dwelling house /Apartment,,51.89797,-8.47061
17/11/2016,"No 1 An Riasc, Farnham Drive, Finglas",Dublin,,"€245,000.00",No,Yes,New Dwelling house /Apartment,greater than or equal to 38 sq metres and less than 125 sq metres,53.33306,-6.24889
13/05/2016,"69 LEVMOSS AVENUE, LEVMOSS PARK, THE GALLOPS",Dublin,,"€525,000.00",No,No,Second-Hand Dwelling house /Apartment,,53.33306,-6.24889
02/09/2016,"BELLECOTE, SORRENTO RD, DALKEY",Dublin,,"€840,000.00",No,No,Second-Hand Dwelling house /Apartment,,53.33306,-6.24889
12/12/2016,"31  Ornamental Gardens, Oldtown Demesne, NAAS",Kildare,,"€169,163.00",No,Yes,New Dwelling house /Apartment,less than 38 sq metres,53.231819,-6.66567
01/04/2016,"56 LAUREL PK, CHERRYMOUNT, WATERFORD",Waterford,,"€107,500.00",No,No,Second-Hand Dwelling house /Apartment,,52.25833,-7.11194
02/11/2016,"53 Creginans, Banog, Ashbourne",Meath,,"€263,500.00",No,Yes,New Dwelling house /Apartment,less than 38 sq metres,53.51163,-6.39821
12/04/2016,"9 THE GLEBE, KILLUCAN, CO WESTMEATH",Westmeath,,"€265,000.00",No,No,Second-Hand Dwelling house /Apartment,,53.5090345,-7.1358289
12/10/2016,"CURRADUFF, KILTEALY, ENNISCORTHY",Wexford,,"€170,000.00",No,No,Second-Hand Dwelling house /Apartment,,52.50083,-6.55778
18/02/2016,"112 PEARSE PARK, DROGHEDA, LOUTH",Louth,,"€154,000.00",No,No,Second-Hand Dwelling house /Apartment,,53.7205956,-6.346687
26/02/2016,"58 LANGTON PARK, NEWBRIDGE, KILDARE",Kildare,,"€210,000.00",No,No,Second-Hand Dwelling house /Apartment,,53.1664879,-6.8124564
18/11/2016,"5 BENEAVIN DR, GLASNEVIN, DUBLIN 11",Dublin,,"€375,000.00",No,No,Second-Hand Dwelling house /Apartment,,53.33306,-6.24889
29/04/2016,"15 Thormanby Hill, Thormanby Road, Howth",Dublin,,"€1,283,185.83",No,Yes,New Dwelling house /Apartment,greater than or equal to 38 sq metres and less than 125 sq metres,53.33306,-6.24889
01/07/2016,"THE OLD SCHOOL HOUSE, CHAPEL STREET, TAGHMON",Wexford,,"€43,500.00",No,No,Second-Hand Dwelling house /Apartment,,52.32167,-6.6475
04/11/2016,"BRIDGE HOUSE, SMARMORE, LOUTH",Louth,,"€280,000.00",No,No,Second-Hand Dwelling house /Apartment,,53.94861,-6.54139
03/06/2016,"8 DEERPARK LODGE, KILTIPPER RD, TALLAGHT DUBLIN 24",Dublin,,"€125,000.00",No,No,Second-Hand Dwelling house /Apartment,,53.33306,-6.24889
09/02/2016,"Harrowville, Dublin Road, Kilkenny",Kilkenny,,"€163,000.00",No,No,Second-Hand Dwelling house /Apartment,,52.65417,-7.25222
03/06/2016,"APT 15 THE LIGHTHOUSE, ENNISCRONE, SLIGO",Sligo,,"€86,000.00",No,No,Second-Hand Dwelling house /Apartment,,54.21285,-9.09317
12/01/2016,"APT 8 PARKVIEW HALL, DUBLIN ROAD, LIMERICK",Limerick,,"€75,750.00",No,No,Second-Hand Dwelling house /Apartment,,52.66472,-8.62306
01/04/2016,"11 BARRACK SQ, DUNMORE, GALWAY",Galway,,"€111,000.00",No,No,Second-Hand Dwelling house /Apartment,,53.6174113,-8.7396413
07/12/2016,"BOHILLA, KEATINGSTOWN RD, WICKLOW TOWN",Wicklow,,"€443,000.00",No,No,Second-Hand Dwelling house /Apartment,,53.0,-6.41667
07/04/2016,"MILLSTREAM, BALLYNAMEAGH, CASTLEPOLLARD",Westmeath,,"€262,000.00",No,No,Second-Hand Dwelling house /Apartment,,53.66667,-7.3
24/08/2016,"1 GREEN ACRE COURT, RATHFARNHAM, DUBLIN 16",Dublin,,"€416,000.00",No,No,Second-Hand Dwelling house /Apartment,,53.33306,-6.24889
09/05/2016,"BENOWN, GLASSON, ATHLONE",Westmeath,,"€232,500.00",No,No,Second-Hand Dwelling house /Apartment,,53.43333,-7.95
13/12/2016,"22 GLENDALE LAWN, CHILDERS RD, LIMERICK",Limerick,,"€158,000.00",No,No,Second-Hand Dwelling house /Apartment,,52.66472,-8.62306
01/04/2016,"7 SOUTH CIRCULAR RD, DUBLIN 8, DUBLIN",Dublin,,"€865,000.00",No,No,Second-Hand Dwelling house /Apartment,,53.3322503,-6.2688114
27/05/2016,"LEENANE, COUNTY GALWAY",Galway,,"€80,000.00",No,No,Second-Hand Dwelling house /Apartment,,53.5958058,-9.6942245
26/07/2016,"1 ROANMORE CRESCENT, WATERFORD, WATERFORD",Waterford,,"€145,000.00",No,No,Second-Hand Dwelling house /Apartment,,52.2512242,-7.1276559
08/11/2016,"3 ROCKBROOK, OLD BRAY ROAD, FOXROCK",Dublin,,"€935,000.00",No,No,Second-Hand Dwelling house /Apartment,,53.33306,-6.24889
13/05/2016,"1 FRIARY ST, DUNGARVAN, WATERFORD",Waterford,,"€90,000.00",No,No,Second-Hand Dwelling house /Apartment,,52.08806,-7.62528
18/08/2016,"48 MANOR ST, WATERFORD, CO. WATERFORD",Waterford,,"€92,000.00",No,No,Second-Hand Dwelling house /Apartment,,52.2568769,-7.1119396
18/07/2016,"APT 230, WYCKHAM POINT, DUNDRUM DUBLIN 14",Dublin,,"€350,000.00",No,No,Second-Hand Dwelling house /Apartment,,53.33306,-6.24889
17/11/2016,"20 MADDENS TCE, CLARECASTLE, CLARE",Clare,,"€33,000.00",Yes,No,Second-Hand Dwelling house /Apartment,,52.8175895,-8.9693666
24/11/2016,"25 THE DRIVE, NEWTOWN HALL, MAYNOOTH",Kildare,,"€321,500.00",No,No,Second-Hand Dwelling house /Apartment,,53.3767676,-6.6124245
21/03/2016,"11 TUDOR HAMLET, BALROTHERY, BALBRIGGAN",Dublin,,"€280,000.00",No,No,Second-Hand Dwelling house /Apartment,,53.5890663,-6.1879108
15/06/2016,"18 Druids Avenue, Druids Glen, Newtownmountkennedy",Wicklow,,"€100,000.00",No,Yes,New Dwelling house /Apartment,greater than or equal to 38 sq metres and less than 125 sq metres,53.0,-6.41667
11/03/2016,"17 FERNWAY BRIDEWOOD OVENS, CORK",Cork,,"€130,000.00",No,No,Second-Hand Dwelling house /Apartment,,51.86667,-8.66667
27/05/2016,"BELVIEW, FERRYBANK, WATERFORD",Kilkenny,,"€165,000.00",No,No,Second-Hand Dwelling house /Apartment,,52.65417,-7.25222
20/04/2016,"12 MC DERMOTT TERRACE, MANORHAMILTON, LEITRIM",Leitrim,,"€23,000.00",No,No,Second-Hand Dwelling house /Apartment,,54.30639,-8.17611
04/05/2016,"BEHEENAGH, KNOCKNAGOSHEL, TRALEE",Kerry,,"€113,000.00",No,No,Second-Hand Dwelling house /Apartment,,52.27042,-9.70264
02/03/2016,"10 MABEL ST, OFF CLONLIFFE RD, DRUMCONDRA DUBLIN 9",Dublin,,"€267,500.00",No,No,Second-Hand Dwelling house /Apartment,,53.33306,-6.24889
20/04/2016,"KILRUSH, HOLLYMOUNT, MAYO",Mayo,,"€50,000.00",No,No,Second-Hand Dwelling house /Apartment,,53.6541474,-9.1147756
12/10/2016,"DOORY, TULLAMORE, CO OFFALY",Offaly,,"€30,000.00",No,No,Second-Hand Dwelling house /Apartment,,53.3151272,-7.5968638
18/04/2016,"FIEND VIEW HOUSE, BALGADDY, THE NAUL",Dublin,,"€320,000.00",No,No,Second-Hand Dwelling house /Apartment,,53.33306,-6.24889
10/06/2016,"8 BLACKROCK COURT, BALLINA, CO MAYO",Mayo,,"€178,000.00",No,No,Second-Hand Dwelling house /Apartment,,54.1251902,-9.1383388
17/08/2016,"19 DOMINIC STREET, KILKENNY, COUNTY KILKENNY",Roscommon,,"€90,000.00",Yes,No,Second-Hand Dwelling house /Apartment,,53.63333,-8.18333
27/05/2016,"48 THE GLEN, WATERFORD, WATERFORD",Waterford,,"€97,000.00",No,No,Second-Hand Dwelling house /Apartment,,52.2627086,-7.1184629
21/01/2016,"26 WOODSIDE, CHARLESTOWN RD, BALLAGHADREEN",Roscommon,,"€51,500.00",No,No,Second-Hand Dwelling house /Apartment,,53.63333,-8.18333
09/03/2016,"41 AN FIODAN, DOUGHUISCE, GALWAY",Galway,,"€167,400.88",No,No,Second-Hand Dwelling house /Apartment,,53.27194,-9.04889
22/09/2016,"LISNALURG, SLIGO",Sligo,,"€383,000.00",No,No,Second-Hand Dwelling house /Apartment,,54.2953554,-8.4713525
24/11/2016,"31WOODBERRY LAWN, CASTLEREDMOND, MIDLETON",Cork,,"€240,000.00",No,No,Second-Hand Dwelling house /Apartment,,51.91526,-8.18052
09/12/2016,"41 COLLEGEFORT, CASTLEKNOCK, DUBLIN 15",Dublin,,"€212,000.00",No,No,Second-Hand Dwelling house /Apartment,,53.3695534,-6.3731656
20/12/2016,"APARTMENT 102 ARCH COURT, THE SQUARE, ROSCOMMON TOWN",Roscommon,,"€42,750.00",No,No,Second-Hand Dwelling house /Apartment,,53.63333,-8.18333
13/06/2016,"17 SEACLIFF, DUNBUR RD, WICKLOW",Wicklow,,"€387,000.00",No,No,Second-Hand Dwelling house /Apartment,,52.975,-6.04944
07/07/2016,"35 PHILLIP ST, WATERFORD, WATERFORD",Waterford,,"€45,000.00",No,No,Second-Hand Dwelling house /Apartment,,52.25833,-7.11194
31/08/2016,"28 SUMMERSEAT COURT, MAIN ST, CLONEE",Meath,,"€220,000.00",No,No,Second-Hand Dwelling house /Apartment,,53.41167,-6.44417
16/05/2016,"54 Seabrook, Brook Road, Rush",Dublin,,"€273,127.75",No,Yes,New Dwelling house /Apartment,greater than or equal to 38 sq metres and less than 125 sq metres,53.33306,-6.24889
04/04/2016,"APT 1, 102 MAIN STREET, CASHEL",Tipperary,,"€60,000.00",No,No,Second-Hand Dwelling house /Apartment,,52.5168894,-7.8874931
21/04/2016,"60 ERNE ST, BALLYSHANNON, DONEGAL",Donegal,,"€29,000.00",No,No,Second-Hand Dwelling house /Apartment,,54.5028545,-8.1871847
21/06/2016,"33 Hillview, Clarecastle",Clare,,"€136,564.00",No,Yes,New Dwelling house /Apartment,greater than or equal to 38 sq metres and less than 125 sq metres,52.81556,-8.96667
07/10/2016,"4 CHANCERY PARK DR, CHANCERY PARK, TULLAMORE",Offaly,,"€121,000.00",No,No,Second-Hand Dwelling house /Apartment,,53.27389,-7.48889
02/12/2016,"GLENDALE, RATH, ARDCATH",Meath,,"€360,000.00",No,No,Second-Hand Dwelling house /Apartment,,53.60806,-6.39139
04/07/2016,"7 RAVENWOOD, GLYNN, ENNISCORTHY",Wexford,,"€199,000.00",No,No,Second-Hand Dwelling house /Apartment,,52.50083,-6.55778
21/04/2016,"38 STATION COURT, PORTARLINGTON, CO LAOIS",Laois,,"€90,000.00",No,No,Second-Hand Dwelling house /Apartment,,53.1525092,-7.1814609
16/03/2016,"APT 10 OLD WINDMILL COURT, LOWER GERALD GRIFFIN ST, LIMERICK",Limerick,,"€88,000.00",No,No,Second-Hand Dwelling house /Apartment,,52.66472,-8.62306
31/08/2016,"APARTMENT 4, 30 MCCURTAIN STREET, CORK",Cork,,"€34,286.00",No,No,Second-Hand Dwelling house /Apartment,,52.1377084,-8.2793025
12/07/2016,"57 BURREN VIEW, ENNIS RD, GORT",Galway,,"€105,000.00",No,No,Second-Hand Dwelling house /Apartment,,53.06639,-8.81667
12/02/2016,"3 BOTHAR NA DARA, LIS NA DARA, CARRICK RD",Louth,,"€300,000.00",No,No,Second-Hand Dwelling house /Apartment,,53.94861,-6.54139
15/09/2016,"30 longview avenue, millers glen, swords",Dublin,,"€251,101.00",No,Yes,New Dwelling house /Apartment,greater than or equal to 125 sq metres,53.473801,-6.2418233
24/08/2016,"3 OAK HOUSE, OAKBURY COURT, SERPENTINE AVE SANDYMOUNT DUBLIN 4",Dublin,,"€375,000.00",No,No,Second-Hand Dwelling house /Apartment,,53.33306,-6.24889
20/12/2016,"42 BOTHAR BRUGHA, DROGHEDA, LOUTH",Louth,,"€176,000.00",No,No,Second-Hand Dwelling house /Apartment,,53.7203501,-6.3531073
07/03/2016,"3 OLD RD, CAHIRCIVEEN, KERRY",Kerry,,"€25,000.00",No,No,Second-Hand Dwelling house /Apartment,,52.16667,-9.75
17/05/2016,"APT 2, ALADDINS CAVE, GREEN ST",Kilkenny,,"€20,000.00",No,No,Second-Hand Dwelling house /Apartment,,52.65417,-7.25222
19/05/2016,"18 MOYGLARE VILLAGE, MAYNOOTH, KILDARE",Kildare,,"€360,000.00",No,No,Second-Hand Dwelling house /Apartment,,53.3887448,-6.5992204
25/02/2016,"58 MOYGLARE VILLAGE, MAYNOOTH, KILDARE",Kildare,,"€262,000.00",Yes,No,Second-Hand Dwelling house /Apartment,,53.387815,-6.6011368
08/12/2016,"55 RIVER GARDENS, GLASNEVIN, DUBLIN 9",Dublin,,"€153,000.00",No,No,Second-Hand Dwelling house /Apartment,,53.3745947,-6.2674569
06/07/2016,"GLENSIDE, PORTLAOISE, LAOIS",Laois,,"€139,500.00",Yes,No,Second-Hand Dwelling house /Apartment,,53.0317134,-7.3048822
25/11/2016,"1 WINDY ARBOUR, ATHBOY, MEATH",Meath,,"€164,000.00",No,No,Second-Hand Dwelling house /Apartment,,53.6196875,-6.9244738
08/12/2016,"12 LEANABEG, DRUMCLIFFE ROAD, ENNIS",Clare,,"€91,666.00",No,No,Second-Hand Dwelling house /Apartment,,52.84361,-8.98639
01/09/2016,"APT NO 8 OF BLOCK 2, CLARION QUAY, DUBLIN 1",Dublin,,"€278,000.00",No,No,Second-Hand Dwelling house /Apartment,,53.33306,-6.24889
09/12/2016,"19 CLUAIN NA FAIDH, LISPOLE",Kerry,,"€145,000.00",Yes,Yes,New Dwelling house /Apartment,greater than or equal to 38 sq metres and less than 125 sq metres,52.1425,-10.16028
13/10/2016,"9 MONFIELD, GARRYDUFF, ROCHESTOWN",Cork,,"€365,000.00",No,No,Second-Hand Dwelling house /Apartment,,51.87,-8.38306
28/01/2016,"1 BAWNOGUES, BALTINGLASS, WICKLOW",Wicklow,,"€189,000.00",No,No,Second-Hand Dwelling house /Apartment,,52.93722,-6.70917
16/05/2016,"51 WESTBURY WOODS, GREENVILLE LANE, ENNISCORTHY",Wexford,,"€90,000.00",No,No,Second-Hand Dwelling house /Apartment,,,
09/12/2016,"66 FIVE OAKS VILLAGE, DUBLIN RD, DROGHEDA",Louth,,"€272,000.00",No,No,Second-Hand Dwelling house /Apartment,,53.71889,-6.34778
23/11/2016,"Apartment 37 & Berth 21, The Waterfront, Leitrim Village",Leitrim,,"€80,000.00",No,Yes,New Dwelling house /Apartment,greater than or equal to 38 sq metres and less than 125 sq metres,53.99083,-8.06361
15/12/2016,"29 An Riasc, Farnham Drive, Finglas",Dublin,,"€270,000.00",No,Yes,New Dwelling house /Apartment,greater than or equal to 38 sq metres and less than 125 sq metres,53.33306,-6.24889
17/02/2016,"7 THE MILL, BALTINGLASS, WICKLOW",Wicklow,,"€95,000.00",No,No,Second-Hand Dwelling house /Apartment,,52.93722,-6.70917
29/06/2016,"9 THE HALL, MEADOWFIELDS, THE MOYNE",Wexford,,"€1,305,000.00",No,Yes,New Dwelling house /Apartment,greater than or equal to 38 sq metres and less than 125 sq metres,52.5,-6.66667
26/04/2016,"9 MARIAN PARK, TRALEE, KERRY",Kerry,,"€91,000.00",No,No,Second-Hand Dwelling house /Apartment,,52.267599,-9.68671
08/04/2016,"7 CLONAKILTY PARK, CLOGHEEN, CLONAKILTY",Cork,,"€180,000.00",No,No,Second-Hand Dwelling house /Apartment,,51.62306,-8.87056
14/07/2016,"65 LISMORE RD, KIMMAGE, DUBLIN 12",Dublin,,"€300,000.00",No,No,Second-Hand Dwelling house /Apartment,,53.3214889,-6.2978069
01/06/2016,"CROSS HOUSE, MAIN ST, KILWORTH",Cork,,"€47,000.00",No,No,Second-Hand Dwelling house /Apartment,,52.17639,-8.24417
02/03/2016,"37 HARBOUR VIEW, DUN LAOGHAIRE, DUBLIN",Dublin,,"€425,000.00",No,No,Second-Hand Dwelling house /Apartment,,53.33306,-6.24889
20/04/2016,"LURGANBOY, MANORHAMILTON, CO LEITRIM",Leitrim,,"€96,000.00",No,No,Second-Hand Dwelling house /Apartment,,54.299855,-8.2453224
11/03/2016,"BALLYKILLEEN, BALLYHAUNIS, MAYO",Mayo,,"€45,000.00",No,No,Second-Hand Dwelling house /Apartment,,53.76667,-8.76667
18/06/2016,"55 RATHEDMOND, SLIGO, SLIGO",Sligo,,"€120,000.00",No,No,Second-Hand Dwelling house /Apartment,,54.2748227,-8.4894868
17/05/2016,"APT 1B, RAINSFORD AVE, OFF THOMAS ST",Dublin,,"€127,000.00",No,No,Second-Hand Dwelling house /Apartment,,53.33306,-6.24889
21/02/2016,"38A SMITHFIELD MARKET, DUBLIN 7, DUBLIN",Dublin,,"€300,000.00",No,No,Second-Hand Dwelling house /Apartment,,53.3482499,-6.2783247
23/11/2016,"APARTMENT NO 205, SMITHFIELD VILLAGE, DUBLIN 7",Dublin,,"€166,250.00",No,No,Second-Hand Dwelling house /Apartment,,53.33306,-6.24889
11/03/2016,"2 MOYCAIRN, CREAGH, BALLINASLOE",Galway,,"€125,000.00",No,No,Second-Hand Dwelling house /Apartment,,53.3275,-8.21944
26/05/2016,"10 WOODLAND GROVE, NEW ROSS, WEXFORD",Wexford,,"€220,000.00",No,No,Second-Hand Dwelling house /Apartment,,52.3837862,-6.9433744
14/07/2016,"19 RACECOURSE LAWNS, BALLYBRIT, GALWAY",Galway,,"€205,000.00",No,No,Second-Hand Dwelling house /Apartment,,53.29694,-8.99361
15/01/2016,"9 WOODFIELD, BARNA RD, GALWAY",Galway,,"€510,000.00",No,No,Second-Hand Dwelling house /Apartment,,53.27194,-9.04889
14/07/2016,"1 COOLSHANNAGH CLOSE, MONAGHAN, MONAGHAN",Monaghan,,"€166,000.00",No,No,Second-Hand Dwelling house /Apartment,,54.2566264,-6.9642642
09/12/2016,"No. 9 Downview, Farranlea Road",Cork,,"€126,567.09",No,Yes,New Dwelling house /Apartment,greater than or equal to 38 sq metres and less than 125 sq metres,51.89797,-8.47061
14/06/2016,"1 HILLCREST CLOSE, LUCAN, DUBLIN",Dublin,,"€355,000.00",No,No,Second-Hand Dwelling house /Apartment,,53.3523199,-6.4605165
02/06/2016,"CROWMARTIN, ARDEE, CO LOUTH",Louth,,"€175,000.00",No,No,Second-Hand Dwelling house /Apartment,,53.8993288,-6.6668132
27/09/2016,"1 Parkside Close, Parkside Avenue, Malahide Road",Dublin,,"€281,938.33",No,Yes,New Dwelling house /Apartment,greater than or equal to 125 sq metres,53.33306,-6.24889
03/11/2016,"1 The Crescent, Knocknaganny, Sligo",Sligo,,"€210,000.00",No,Yes,New Dwelling house /Apartment,greater than or equal to 38 sq metres and less than 125 sq metres,54.26969,-8.46943
11/03/2016,"ST MARTIN'S BARRACK HILL, CLOGHEEN, CAHIR",Tipperary,,"€47,000.00",No,No,Second-Hand Dwelling house /Apartment,,52.47333,-8.15583
01/06/2016,"9 GREEN MILL LANE, PORTLAOISE, CO. LAOIS",Laois,,"€90,000.00",No,No,Second-Hand Dwelling house /Apartment,,53.0396151,-7.3047863
20/09/2016,"BISHOPSCOURT, BALLYDUFF, TRALEE",Kerry,,"€80,000.00",No,No,Second-Hand Dwelling house /Apartment,,52.27042,-9.70264
26/02/2016,"7 Diswellstown Manor, Castleknock",Dublin,,"€422,907.00",No,Yes,New Dwelling house /Apartment,greater than 125 sq metres,53.3673668,-6.3850098
30/11/2016,"8 CRANNAGH CASTLE, CRANNAGH RD, RATHFARNHAM",Dublin,,"€355,000.00",No,No,Second-Hand Dwelling house /Apartment,,53.33306,-6.24889
23/05/2016,"600 SAINT MARY'S PARK, LEIXLIP, CO. KILDARE",Kildare,,"€205,000.00",No,No,Second-Hand Dwelling house /Apartment,,53.36583,-6.49556
26/07/2016,"123 SHANTALLA RD, WHITEHALL, DUBLIN 9",Dublin,,"€295,200.00",No,No,Second-Hand Dwelling house /Apartment,,53.3875913,-6.2405817
13/10/2016,"22 ROEBUCK AVE, MOUNT MERRION, DUBLIN",Dublin,,"€695,000.00",No,No,Second-Hand Dwelling house /Apartment,,53.2994046,-6.2081814
17/06/2016,"25 ST MICHAELS TERRACE, BLACKPITTS, DUBLIN 8",Dublin,,"€298,000.00",No,No,Second-Hand Dwelling house /Apartment,,53.33306,-6.24889
24/11/2016,"75 HORIZON, ROYAL CANAL PARK, RATOATH RD DUBLIN 15",Dublin,,"€164,003.89",No,No,Second-Hand Dwelling house /Apartment,,53.33306,-6.24889
14/11/2016,"24 TRACEY MEADOWS, NEWBRIDGE, KILDARE",Kildare,,"€330,000.00",No,No,Second-Hand Dwelling house /Apartment,,53.18194,-6.79667
11/11/2016,"MAIN STRREET, BALLYVOURNEY, CO CORK",Cork,,"€85,000.00",No,No,Second-Hand Dwelling house /Apartment,,51.94606,-9.16689
19/12/2016,"46 ASHLEY HALL, ST EDMUND'S, PALMERSTOWN",Dublin,,"€191,000.00",No,No,Second-Hand Dwelling house /Apartment,,53.33306,-6.24889
08/02/2016,"MEENSCOVANE, KNOCKNAGOSHEL, KERRY",Kerry,,"€85,000.00",No,No,Second-Hand Dwelling house /Apartment,,52.16667,-9.75
22/07/2016,"22 CLUAIN DARA COURT, CLONMACKEN, ENNIS ROAD",Limerick,,"€159,200.00",No,No,Second-Hand Dwelling house /Apartment,,52.66472,-8.62306
06/12/2016,"26 CHERRY GARTH, RIVERVALLEY, SWORDS",Dublin,,"€232,500.00",Yes,No,Second-Hand Dwelling house /Apartment,,53.4516344,-6.2388825
22/06/2016,"Lissyconnor, Rathmore",Kerry,,"€158,590.00",No,Yes,New Dwelling house /Apartment,greater than 125 sq metres,52.102058,-9.2223831
04/04/2016,"3 INCHERA LAWN, MAHON, CORK",Cork,,"€65,000.00",No,No,Second-Hand Dwelling house /Apartment,,51.8883647,-8.397327
17/06/2016,"14 PRIORY CLOSE, ST RAPHAELS MANOR, CELBRIDGE",Kildare,,"€295,000.00",No,No,Second-Hand Dwelling house /Apartment,,53.33861,-6.54361
25/01/2016,"11 CARRAIG EAN, EDENDERRY, OFFALY",Offaly,,"€70,000.00",No,No,Second-Hand Dwelling house /Apartment,,53.34528,-7.04972
23/08/2016,"12 AN RATH BHEAG, ABBEYLARA, LONGFORD",Longford,,"€10,000.00",No,No,Second-Hand Dwelling house /Apartment,,53.76667,-7.45
08/07/2016,"209 MARITANA GATE, CANADA ST, WATERFORD",Waterford,,"€85,000.00",No,No,Second-Hand Dwelling house /Apartment,,52.25833,-7.11194
16/10/2016,"192 SEAPARK, MALAHIDE, DUBLIN",Dublin,,"€610,000.00",No,No,Second-Hand Dwelling house /Apartment,,53.4464257,-6.1439647
04/02/2016,"264 SWORDS RD, SANTRY, DUBLIN 9",Dublin,,"€285,000.00",No,No,Second-Hand Dwelling house /Apartment,,53.3897314,-6.2458944
27/10/2016,"44 Ballina Quay, Ballina, Co. Tipperary",Tipperary,,"€79,295.15",No,Yes,New Dwelling house /Apartment,greater than or equal to 38 sq metres and less than 125 sq metres,52.8101645,-8.4390479
24/08/2016,"64 CLOYNE MEADOWS, CLOYNE, CORK",Cork,,"€127,000.00",No,No,Second-Hand Dwelling house /Apartment,,51.8606733,-8.1218998
14/10/2016,"18 ST PATRICK SQ, BARKER ST, WATERFORD",Waterford,,"€51,777.00",No,No,Second-Hand Dwelling house /Apartment,,52.25833,-7.11194
21/12/2016,"4 CUL NA GREINE, OLDCASTLE RD, BALLYJAMESDUFF",Cavan,,"€115,000.00",No,No,Second-Hand Dwelling house /Apartment,,53.86528,-7.20278
24/10/2016,"23 BEECH GROVE, LUCAN, DUBLIN",Dublin,,"€434,500.00",No,No,Second-Hand Dwelling house /Apartment,,53.3530369,-6.4350961
25/11/2016,"14 ST OLIVERS PARK CARLINGFORD, DUNDALK, LOUTH",Louth,,"€155,000.00",No,No,Second-Hand Dwelling house /Apartment,,54.0,-6.41667
01/07/2016,"59 COLLEGE PARK, GLENCAR, LETTERKENNY",Donegal,,"€125,000.00",No,No,Second-Hand Dwelling house /Apartment,,54.95,-7.73333
22/02/2016,"APT H1, KINGS COURT, MANOR WEST",Kerry,,"€360,000.00",No,No,Second-Hand Dwelling house /Apartment,,52.16667,-9.75
12/10/2016,"7  The Grove, Cahereen Heights, Castleisland",Kerry,,"€165,000.00",No,Yes,New Dwelling house /Apartment,greater than or equal to 125 sq metres,52.23333,-9.46667
09/03/2016,"RINNEEN DOORAS, KINVARA, CO GALWAY",Galway,,"€100,000.00",No,No,Second-Hand Dwelling house /Apartment,,53.13944,-8.93361
11/10/2016,"CLONUFF, BROADFORD, MOYVALLEY",Kildare,,"€250,000.00",No,No,Second-Hand Dwelling house /Apartment,,53.42861,-6.91889
30/11/2016,"APT 6 PENROSE HOUSE, PENROSE LANE, WATERFORD",Waterford,,"€45,000.00",No,No,Second-Hand Dwelling house /Apartment,,52.25833,-7.11194
16/03/2016,"222, Beechpark, Leixlip",Kildare,,"€356,828.19",No,Yes,New Dwelling house /Apartment,less than 38 sq metres,53.36583,-6.49556
12/02/2016,"112 CLONARD COURT, BALBRIGGAN, DUBLIN",Dublin,,"€127,000.00",No,No,Second-Hand Dwelling house /Apartment,,53.6068958,-6.1876916
21/02/2016,"24 WHITECHURCH VIEW, BALLYBODEN, DUBLIN 16",Dublin,,"€185,500.00",No,No,Second-Hand Dwelling house /Apartment,,53.2751029,-6.2853058
04/03/2016,"53 SLADE CASTLE COURT, SAGGART, CO DUBLIN",Dublin,,"€140,000.00",No,No,Second-Hand Dwelling house /Apartment,,53.2792569,-6.4456103
08/09/2016,"10 Mullary Manor, Tinure, Drogheda",Louth,,"€220,000.00",No,No,New Dwelling house /Apartment,greater than or equal to 38 sq metres and less than 125 sq metres,53.71889,-6.34778
28/11/2016,"KILLYNAN COOKE, CLOGHAN, MULLINGAR",Westmeath,,"€195,000.00",No,No,Second-Hand Dwelling house /Apartment,,53.5613328,-7.2284423
11/02/2016,"42 FLOOD ST, PENNYWELL, LIMERICK",Limerick,,"€25,000.00",No,No,Second-Hand Dwelling house /Apartment,,52.66472,-8.62306
18/07/2016,"6 THE ELMS, BRIARFIELD, CASTLETROY",Limerick,,"€166,500.00",No,No,Second-Hand Dwelling house /Apartment,,52.66472,-8.62306
10/06/2016,"6 TRACTON LAWN, MONTENOTTE, CORK",Cork,,"€220,000.00",No,No,Second-Hand Dwelling house /Apartment,,51.9088119,-8.4330341
25/10/2016,"4 CNOC VIEW, LARTIGUE RD, BALLYBUNNION",Kerry,,"€150,000.00",No,No,Second-Hand Dwelling house /Apartment,,52.51108,-9.67097
16/12/2016,"63 Chestnut Avenue, Fruithill Manor, Graiguecullen",Laois,,"€127,753.30",No,Yes,New Dwelling house /Apartment,greater than or equal to 38 sq metres and less than 125 sq metres,53.0,-7.4
21/09/2016,"6 BRICKFILED WAY, HONEYPARK, DUN LAOGHAIRE",Dublin,,"€638,000.00",No,No,Second-Hand Dwelling house /Apartment,,53.33306,-6.24889
29/02/2016,"12 PARK AVE, GRANGE RD, RATHFARNHAM DUBLIN 14",Dublin,,"€500,000.00",No,No,Second-Hand Dwelling house /Apartment,,53.33306,-6.24889
16/12/2016,"BALLINURE, MARSHALSTOWN, ENNISCORTHY",Wexford,,"€32,000.00",No,No,Second-Hand Dwelling house /Apartment,,52.5450347,-6.6320792
22/12/2016,"17 Ashfield Avenue, Ridgewood, Swords",Dublin,,"€287,610.61",No,Yes,New Dwelling house /Apartment,greater than or equal to 38 sq metres and less than 125 sq metres,53.33306,-6.24889
21/10/2016,"45A SOMERTON, PORTRANE RD, DONABATE",Dublin,,"€403,000.00",No,No,Second-Hand Dwelling house /Apartment,,53.33306,-6.24889
09/09/2016,"7 COPPERHILL, BALLINTEMPLE, CORK",Cork,,"€310,000.00",No,No,Second-Hand Dwelling house /Apartment,,51.89306,-8.43528
25/04/2016,"34 ROSANORE, GORT RD, ENNIS",Clare,,"€146,000.00",No,No,Second-Hand Dwelling house /Apartment,,52.84361,-8.98639
10/08/2016,"HAZELWOOD HOUSE, MUXNAW, KENMARE",Kerry,,"€441,000.00",No,No,Second-Hand Dwelling house /Apartment,,51.88333,-9.58333
03/08/2016,"6 Hampton Gardens Drive, Balbriggan",Dublin,,"€180,616.74",No,Yes,New Dwelling house /Apartment,greater than or equal to 38 sq metres and less than 125 sq metres,53.6086509,-6.2012524
20/12/2016,"89 MCHALE ROAD, CASTLEBAR, CO MAYO",Mayo,,"€65,000.00",No,No,Second-Hand Dwelling house /Apartment,,53.8514375,-9.2891898
06/05/2016,"Apt 48 Leas na Mara, Ballymoneen Road, Galway",Galway,,"€98,268.74",No,Yes,New Dwelling house /Apartment,greater than or equal to 38 sq metres and less than 125 sq metres,53.27194,-9.04889
04/11/2016,"3 CARRIGMORE GREEN, CITYWEST, CO DUBLIN",Dublin,,"€300,000.00",No,No,Second-Hand Dwelling house /Apartment,,53.38046,-6.27113
29/06/2016,"82 WEST COURTYARD, TULLYVALE, CABINTEELY",Dublin,,"€225,000.00",No,No,Second-Hand Dwelling house /Apartment,,53.2489155,-6.1460382
07/07/2016,"2 VILLAGE CLOSE, KILBRECK, STAMULLEN",Meath,,"€207,500.00",No,No,Second-Hand Dwelling house /Apartment,,53.66667,-6.66667
29/07/2016,"7 COLTHURST CRESCENT, HUNTINGTON GLEN, LUCAN",Dublin,,"€277,000.00",Yes,No,Second-Hand Dwelling house /Apartment,,53.33306,-6.24889
29/04/2016,"5 ARD NA STRUTH, CLONLARA, CLARE",Clare,,"€90,000.00",No,No,Second-Hand Dwelling house /Apartment,,52.81556,-8.96667
01/09/2016,"COOLBANE, LISCARROLL, MALLOW",Cork,,"€62,000.00",No,No,Second-Hand Dwelling house /Apartment,,52.2546296,-8.8176557
21/10/2016,"17 BALLYMACOOL WOOD, LETTERKENNY, CO DONEGAL",Donegal,,"€89,500.00",No,No,Second-Hand Dwelling house /Apartment,,54.95,-7.73333
15/11/2016,"85 CASTLEVIEW, NEWCASTLEWEST, LIMERICK",Limerick,,"€50,000.00",No,No,Second-Hand Dwelling house /Apartment,,52.66472,-8.62306
31/10/2016,"15 THE GABLES, CLONMEL, TIPPERARY",Tipperary,,"€30,000.00",No,No,Second-Hand Dwelling house /Apartment,,52.47333,-8.15583
05/04/2016,"48 Steephechase Hill, Rathoath",Meath,,"€365,638.77",No,Yes,New Dwelling house /Apartment,greater than 125 sq metres,53.66667,-6.66667
26/02/2016,"1 TOWER VIEW, STONEY LANE, ARDEE",Louth,,"€158,000.00",No,No,Second-Hand Dwelling house /Apartment,,53.85972,-6.54056
16/06/2016,"43 Park Avenue, Beltree, Clongriffin",Dublin,,"€277,852.00",No,Yes,New Dwelling house /Apartment,greater than or equal to 38 sq metres and less than 125 sq metres,53.33306,-6.24889
06/10/2016,"22 DROMARD RD, DRIMNAGH, DUBLIN 12",Dublin,,"€268,000.00",No,No,Second-Hand Dwelling house /Apartment,,53.33306,-6.24889
27/06/2016,"PH APT 2, CHARLOTTE QUAY, LIMERICK",Limerick,,"€275,000.00",No,No,Second-Hand Dwelling house /Apartment,,52.6663632,-8.6219429
13/05/2016,"59 ARD NA GREINE, BANDUFF RD, BALLYVOLANE",Cork,,"€106,666.00",Yes,No,Second-Hand Dwelling house /Apartment,,51.89797,-8.47061
24/02/2016,"10 LAR EASA COURT, STRANDHILL, SLIGO",Sligo,,"€101,000.00",No,No,Second-Hand Dwelling house /Apartment,,54.27194,-8.59333
19/05/2016,"1 Gort na gCrann, Kilcolgan",Galway,,"€300,000.00",No,Yes,New Dwelling house /Apartment,greater than or equal to 38 sq metres and less than 125 sq metres,53.20639,-8.86583
10/03/2016,"508 LUCAN RD, CHAPELIZOD, DUBLIN 20",Dublin,,"€245,000.00",No,No,Second-Hand Dwelling house /Apartment,,53.3489156,-6.3472212
11/01/2016,"9 THE MEADOWS, MALLFIELD, THOMASTOWN",Kilkenny,,"€150,000.00",Yes,No,Second-Hand Dwelling house /Apartment,,52.52667,-7.13722
24/06/2016,"19 ST MARYS PARK, WALKINSTOWN, DUBLIN 12",Dublin,,"€295,000.00",No,No,Second-Hand Dwelling house /Apartment,,53.33306,-6.24889
12/12/2016,"17 BRINDLEY PARK RD, ASHBOURNE, MEATH",Meath,,"€210,000.00",No,No,Second-Hand Dwelling house /Apartment,,53.5143558,-6.4114274
25/10/2016,"CLOONKEENKERRILL, COLEMANSTOWN, BALLINASLOE",Galway,,"€86,000.00",No,No,Second-Hand Dwelling house /Apartment,,53.3275,-8.21944
04/05/2016,"19 CASTLE COVE, YELLOW WALLS RD, MALAHIDE",Dublin,,"€608,000.00",No,No,Second-Hand Dwelling house /Apartment,,53.33306,-6.24889
06/09/2016,"134 AN FIODAN, DOUGHISKA, GALWAY",Galway,,"€232,500.00",No,No,Second-Hand Dwelling house /Apartment,,53.2801407,-8.9824161
08/04/2016,"40 LA ROCHELLE, CHRISTCHURCH, DUBLIN",Dublin,,"€227,000.00",No,No,Second-Hand Dwelling house /Apartment,,53.33306,-6.24889
13/12/2016,"BACK LODGE, RATHRORAN, CLONMEL",Tipperary,,"€116,000.00",No,No,Second-Hand Dwelling house /Apartment,,52.47333,-8.15583
29/08/2016,"APT 7, ARASAIN CHEANN SIBEAL, BALLYFERRITER",Kerry,,"€62,500.00",No,No,Second-Hand Dwelling house /Apartment,,52.16667,-10.41667
06/05/2016,"110 Seabury Lawns, Mornington",Meath,,"€214,000.00",No,Yes,New Dwelling house /Apartment,greater than or equal to 38 sq metres and less than 125 sq metres,53.72333,-6.2825
26/01/2016,"8 O CONNELL ST, ATHLONE, WESTMEATH",Westmeath,,"€75,000.00",No,No,Second-Hand Dwelling house /Apartment,,53.4219015,-7.944976
09/08/2016,"42 Droimneach, Bweeng",Cork,,"€118,500.00",No,Yes,New Dwelling house /Apartment,greater than or equal to 38 sq metres and less than 125 sq metres,52.04667,-8.73972
03/11/2016,"48 WYNNEFIELD PARK APTS, WYNNEFIELD RD, RATHMINES DUBLIN 6",Dublin,,"€225,000.00",No,No,Second-Hand Dwelling house /Apartment,,53.33306,-6.24889
16/09/2016,"OLDCOURT, CARBURY, COUNTY KILDARE",Kildare,,"€240,000.00",No,No,Second-Hand Dwelling house /Apartment,,53.3585363,-7.0104202
02/11/2016,"4 PEBBLE PLACE, PEBBLE BEACH, TRAMORE",Waterford,,"€55,000.00",No,No,Second-Hand Dwelling house /Apartment,,52.16235,-7.15244
17/10/2016,"14 ALLEN, SHANNON COURT, CARRICK ON SHANNON",Leitrim,,"€86,500.00",No,No,Second-Hand Dwelling house /Apartment,,53.94694,-8.09
14/01/2016,"BALLYKEENAN, GRAIGUENAMANAGH, KILKENNY",Kilkenny,,"€112,500.00",No,No,Second-Hand Dwelling house /Apartment,,52.54028,-6.95472
25/05/2016,"20 KNOCKMORE DR, TALLAGHT, DUBLIN 24",Dublin,,"€150,000.00",No,No,Second-Hand Dwelling house /Apartment,,53.2774638,-6.3892079
06/05/2016,"43 COIS FURAIN, LOUGHREA, GALWAY",Galway,,"€150,000.00",No,No,Second-Hand Dwelling house /Apartment,,53.2030863,-8.582662
11/03/2016,"TURLOUGH RD, CASTLEBAR, MAYO",Mayo,,"€80,000.00",No,No,Second-Hand Dwelling house /Apartment,,53.8660115,-9.2893414
26/01/2016,"NO 6 BLOCK B, SILVERBRIDGE COURT, CLAREMORRIS",Mayo,,"€20,000.00",No,No,Second-Hand Dwelling house /Apartment,,53.71667,-9.0
01/06/2016,"53 SLIABH CARRAN ENNIS RD GORT, GALWAY",Galway,,"€90,000.00",No,No,Second-Hand Dwelling house /Apartment,,53.06639,-8.81667
21/12/2016,"58 ROSEVALE, DROGHEDA, LOUTH",Louth,,"€178,000.00",No,No,Second-Hand Dwelling house /Apartment,,53.7055714,-6.3504877
17/05/2016,"111 WATERSIDE APTS, CHARLOTTE QUAY, DUBLIN 4",Dublin,,"€280,000.00",No,No,Second-Hand Dwelling house /Apartment,,53.33306,-6.24889
15/01/2016,"LOUGHGERALD, ENNISCORTHY, WEXFORD",Wexford,,"€80,000.00",No,No,Second-Hand Dwelling house /Apartment,,52.4662443,-6.5763376
21/12/2016,"13 THE BRAMBLES, CASTLEPARK, MALLOW",Cork,,"€189,500.00",No,No,Second-Hand Dwelling house /Apartment,,52.13333,-8.63333
21/03/2016,"65 GLEDSWOOD PARK, CLONSKEAGH, DUBLIN 14",Dublin,,"€515,000.00",No,No,Second-Hand Dwelling house /Apartment,,53.3034189,-6.2407769
01/11/2016,"17 POWER MEWS, FAITHLEGG, WATERFORD",Waterford,,"€90,000.00",No,No,Second-Hand Dwelling house /Apartment,,52.25833,-7.11194
01/02/2016,"5 KENNEALLY COURT, LOWER CORK HILL, YOUGHAL",Cork,,"€50,000.00",No,No,Second-Hand Dwelling house /Apartment,,51.95,-7.85056
16/03/2016,"10 berryfields, ferns",Wexford,,"€132,158.00",No,Yes,New Dwelling house /Apartment,greater than or equal to 38 sq metres and less than 125 sq metres,52.58833,-6.49972
28/04/2016,"27 WHITETHORN GROVE, LETTERKENNY, DONEGAL",Donegal,,"€90,000.00",Yes,No,Second-Hand Dwelling house /Apartment,,54.9591471,-7.7233213
16/11/2016,"30 HILLVIEW DR, HACKETSTOWN, CARLOW",Carlow,,"€80,000.00",No,No,Second-Hand Dwelling house /Apartment,,52.86389,-6.55694
01/06/2016,"4 ST BRIGIDS CLOSE, KILLESTER, DUBLIN 5",Dublin,,"€376,000.00",No,No,Second-Hand Dwelling house /Apartment,,53.33306,-6.24889
09/05/2016,"15 GLENDALE, MAYFIELD, CLAREMORRIS",Mayo,,"€145,000.00",No,No,Second-Hand Dwelling house /Apartment,,53.71667,-9.0
09/08/2016,"DOONCAHA, TARBERT, KERRY",Kerry,,"€235,000.00",No,No,Second-Hand Dwelling house /Apartment,,52.57278,-9.37528
12/08/2016,"39 EATON SQ, TERENURE, DUBLIN 6W",Dublin,,"€815,000.00",No,No,Second-Hand Dwelling house /Apartment,,53.3126552,-6.2855769
18/05/2016,"127 Ashmount Mews, Silversprings",Cork,,"€132,158.59",No,Yes,New Dwelling house /Apartment,greater than or equal to 38 sq metres and less than 125 sq metres,51.89797,-8.47061
03/11/2016,"CARNBEAGH NORTH, CLARE, DONEGAL",Donegal,,"€300,000.00",No,No,Second-Hand Dwelling house /Apartment,,54.65,-8.11667
02/12/2016,"13 CASTLEMARTIN GREEN, BETTYSTOWN, MEATH",Meath,,"€235,000.00",No,No,Second-Hand Dwelling house /Apartment,,53.70139,-6.24611
09/09/2016,"134 WATERVILLE TERRACE, WATERVILLE, BLANCHARDSTOWN DUBLIN 15",Dublin,,"€232,000.00",No,No,Second-Hand Dwelling house /Apartment,,53.33306,-6.24889
23/11/2016,"24 Dodderbrook Park, Ballycullen, Dublin 24",Dublin,,"€333,275.00",No,Yes,New Dwelling house /Apartment,greater than or equal to 38 sq metres and less than 125 sq metres,53.33306,-6.24889
22/08/2016,"KEASH, BALLYMOTE, CO. SLIGO",Sligo,,"€27,000.00",No,No,Second-Hand Dwelling house /Apartment,,54.085878,-8.5114267
20/12/2016,"2 COSCORRIG CRESCENT, LOUGHREA, GALWAY",Galway,,"€70,000.00",No,No,Second-Hand Dwelling house /Apartment,,53.1976693,-8.588408
16/11/2016,"15 FOREST PARK, BROOKHILL, GLANMIRE",Cork,,"€228,650.00",No,No,Second-Hand Dwelling house /Apartment,,51.91583,-8.39972
10/11/2016,"101 GLENFINN ST, BALLYBOFEY, DONEGAL",Donegal,,"€20,000.00",No,No,Second-Hand Dwelling house /Apartment,,54.8,-7.78333
20/04/2016,"9 RYLAND WOOD, BUNCLODY, ENNISCORTHY",Wexford,,"€152,000.00",No,No,Second-Hand Dwelling house /Apartment,,52.6425503,-6.6521422
22/12/2016,"21 COURTFIELDS, RAHEEN, LIMERICK",Limerick,,"€225,000.00",No,No,Second-Hand Dwelling house /Apartment,,52.6282046,-8.6646862
18/02/2016,"46 ST FINBARRS ROAD, CORK CITY, CO CORK",Cork,,"€123,000.00",No,No,Second-Hand Dwelling house /Apartment,,51.89797,-8.47061
02/11/2016,"CLOGADH, INISTOIGE, CO KILKENNY",Kilkenny,,"€60,000.00",No,No,Second-Hand Dwelling house /Apartment,,52.65417,-7.25222
29/01/2016,"120 CLEARWATER COVE, DUNLEARY RD, DUN LAOGHAIRE",Dublin,,"€345,000.00",No,No,Second-Hand Dwelling house /Apartment,,53.33306,-6.24889
14/09/2016,"3A MALTHOUSE GARDENS, CASTLEBELLINGHAM, LOUTH",Louth,,"€138,000.00",No,No,Second-Hand Dwelling house /Apartment,,53.90083,-6.39028
08/02/2016,"APT 19, CARENDON HALL, AUNGIER ST DUBLIN 2",Dublin,,"€172,000.00",No,No,Second-Hand Dwelling house /Apartment,,53.33306,-6.24889
10/05/2016,"1 DRAKELANDS LOWER, KILKENNY",Kilkenny,,"€260,000.00",No,No,Second-Hand Dwelling house /Apartment,,52.65417,-7.25222
15/12/2016,"23 GOODTIDE APTS, BATT ST, WEXFORD",Wexford,,"€77,500.00",No,No,Second-Hand Dwelling house /Apartment,,52.33417,-6.4575
02/11/2016,"71 BELMAYNE PARK NORTH, BALGRIFFIN, PARK NORTH DUBLIN 13",Dublin,,"€95,000.00",No,No,Second-Hand Dwelling house /Apartment,,53.33306,-6.24889
28/01/2016,"76 Rosehill, Wicklow, A67 HK19",Wicklow,,"€205,000.00",No,No,Second-Hand Dwelling house /Apartment,,52.975,-6.04944
19/02/2016,"3 MORLEY TERRACE, WATERFORD, WATERFORD",Waterford,,"€95,000.00",No,No,Second-Hand Dwelling house /Apartment,,52.2620458,-7.1237578
25/07/2016,"2 FRIARS GREEN, TULLOW RD, CARLOW",Carlow,,"€185,000.00",No,No,Second-Hand Dwelling house /Apartment,,52.84083,-6.92611
14/01/2016,"TRENTAGH, LETTERKENNY, COUNTY DONEGAL",Donegal,,"€100,000.00",No,No,Second-Hand Dwelling house /Apartment,,54.95,-7.73333
01/09/2016,"16 SHELBOURNE AVE, LIMERICK, LIMERICK",Limerick,,"€100,000.00",No,No,Second-Hand Dwelling house /Apartment,,52.6685609,-8.6382978
16/05/2016,"6 MILLIGAN PLACE, CONNAUGHTON RD, SLIGO",Sligo,,"€15,106.00",No,No,Second-Hand Dwelling house /Apartment,,54.26969,-8.46943
28/10/2016,"22 MELLOR COURT, LIFFEY ST, DUBLIN 1",Dublin,,"€163,000.00",No,No,Second-Hand Dwelling house /Apartment,,53.33306,-6.24889
21/04/2016,"31 FOXROCK PARK, KILL LANE, DUBLIN 18",Dublin,,"€620,000.00",No,No,Second-Hand Dwelling house /Apartment,,53.33306,-6.24889
18/05/2016,"34 RING TERRACE, INCHICORE, DUBLIN 8",Dublin,,"€260,000.00",No,No,Second-Hand Dwelling house /Apartment,,53.3362322,-6.3279051
06/12/2016,"9 DEERHAVEN VIEW, CLONEE, DUBLIN 15",Dublin,,"€265,000.00",No,No,Second-Hand Dwelling house /Apartment,,53.33306,-6.24889
16/08/2016,"26 AIDAN PARK, SHANNON, CLARE",Clare,,"€100,000.00",No,No,Second-Hand Dwelling house /Apartment,,52.7121578,-8.8705843
29/07/2016,"142 ATH LETHAN, RACECOURSE RD, DUNDALK",Louth,,"€80,000.00",No,No,Second-Hand Dwelling house /Apartment,,54.0,-6.41667
23/02/2016,"51 CLAREVILLE, CLAREMORRIS, MAYO",Mayo,,"€85,000.00",No,No,Second-Hand Dwelling house /Apartment,,53.7152585,-8.9934354
07/04/2016,"11 CITY SQ, GLOUCESTER ST SOUTH, DUBLIN 2",Dublin,,"€193,516.00",No,No,Second-Hand Dwelling house /Apartment,,53.33306,-6.24889
10/06/2016,"43 LARKFIELD AVE, KIMMAGE, DUBLIN 6W",Dublin,,"€421,800.00",No,No,Second-Hand Dwelling house /Apartment,,53.33306,-6.24889
13/09/2016,"671 BOLEYBEG, BALLYTORE, ATHY",Kildare,,"€125,000.00",No,No,Second-Hand Dwelling house /Apartment,,52.99139,-6.98028
06/04/2016,"APT 18 HARRISTOWN, OLD CRATLOE ROAD, LIMERICK",Limerick,,"€63,000.00",No,No,Second-Hand Dwelling house /Apartment,,52.66472,-8.62306
04/11/2016,"23 Golden Ridge View, Skerries Road, Rush",Dublin,,"€203,147.69",No,Yes,New Dwelling house /Apartment,greater than or equal to 38 sq metres and less than 125 sq metres,53.33306,-6.24889
25/11/2016,"5 STANFORD, ARDILEA, CLONSKEAGH DUBLIN 14",Dublin,,"€270,000.00",No,No,Second-Hand Dwelling house /Apartment,,53.33306,-6.24889
07/03/2016,"33 Erne Street Upper, Dublin",Dublin,,"€435,000.00",No,No,Second-Hand Dwelling house /Apartment,,53.3421238,-6.2452149
21/11/2016,"156 CHARLESLAND COURT, GREYSTONES, WICKLOW",Wicklow,,"€11,000.00",No,No,Second-Hand Dwelling house /Apartment,,53.127759,-6.0699917
31/05/2016,"41 GRAND CANAL VIEW, SUIR RD, KILMAINHAM DUBLIN 8",Dublin,,"€255,000.00",No,No,Second-Hand Dwelling house /Apartment,,53.33306,-6.24889
25/02/2016,"41 KINGS HILL, WESTPORT, MAYO",Mayo,,"€175,000.00",No,No,Second-Hand Dwelling house /Apartment,,53.8,-9.51667
23/05/2016,"73 MANORFIELD, KINNEGAD, COUNTY WESTMEATH",Westmeath,,"€130,000.00",No,No,Second-Hand Dwelling house /Apartment,,53.45222,-7.09972
25/10/2016,"LONGSTONE, KILLOSCULLY, NEWPORT",Tipperary,,"€60,000.00",No,No,Second-Hand Dwelling house /Apartment,,52.47333,-8.15583
11/04/2016,"KILMAINE RD, BALLINROBE, MAYO",Mayo,,"€180,000.00",No,No,Second-Hand Dwelling house /Apartment,,53.6188639,-9.2193825
08/03/2016,"74 GURRANABRATAR AVE, CORK",Cork,,"€78,943.00",No,No,Second-Hand Dwelling house /Apartment,,51.89797,-8.47061
12/12/2016,"39 College Lawn, College Manor, Carrignafoy",Cork,,"€193,832.00",No,Yes,New Dwelling house /Apartment,greater than or equal to 38 sq metres and less than 125 sq metres,51.89797,-8.47061
15/06/2016,"129 THE PARK, OLD TOWN, SALLINS RD",Kildare,,"€238,500.00",No,No,Second-Hand Dwelling house /Apartment,,53.15611,-6.91444
14/12/2016,"69 KILLEGLAND HALL, ASHBOURNE, MEATH",Meath,,"€126,000.00",No,No,Second-Hand Dwelling house /Apartment,,53.51163,-6.39821
12/08/2016,"20 SPRINGFIELD AVENUE, TEMPLEOGUE, DUBLIN 6W",Dublin,,"€530,000.00",No,No,Second-Hand Dwelling house /Apartment,,53.2983694,-6.2984232
21/12/2016,"36 KNIGHTSBRIDGE COURT, LONGWOOD RD, TRIM",Meath,,"€105,000.00",No,No,Second-Hand Dwelling house /Apartment,,53.555,-6.79167
21/12/2016,"20 KNIGHTSBRIDGE MEWS, LONGWOOD RD, TRIM",Meath,,"€165,000.00",No,No,Second-Hand Dwelling house /Apartment,,53.555,-6.79167
14/01/2016,"11 ANNALY RD, CABRA, DUBLIN 7",Dublin,,"€112,500.00",No,No,Second-Hand Dwelling house /Apartment,,53.363777,-6.2882713
28/10/2016,"OLD BAWN, CAHORE SOUTH, BALLYGARRET",Wexford,,"€145,000.00",No,No,Second-Hand Dwelling house /Apartment,,52.5,-6.66667
15/12/2016,"66 GORT LEAMHAN, ROSLEVAN, TULLA ROAD",Clare,,"€189,427.00",No,Yes,New Dwelling house /Apartment,greater than or equal to 125 sq metres,52.81556,-8.96667
23/09/2016,"19 CHESTNUT DR, MULLINGAR, WESTMEATH",Westmeath,,"€146,000.00",No,No,Second-Hand Dwelling house /Apartment,,53.5142395,-7.3307561
29/04/2016,"10 NEWLANDS MANOR COURT, GREENISLE, CLONDALKIN DUBLIN 22",Dublin,,"€250,000.00",No,No,Second-Hand Dwelling house /Apartment,,53.33306,-6.24889
09/02/2016,"APT 3, MCCONNELL HOUSE, WILLIAM ST",Waterford,,"€61,000.00",No,No,Second-Hand Dwelling house /Apartment,,52.25833,-7.11194
07/11/2016,"6 CHERRY COURT ASHLEIGH DOWNS, TRALEE, KERRY",Kerry,,"€50,000.00",Yes,No,Second-Hand Dwelling house /Apartment,,52.27042,-9.70264
03/06/2016,"54 OWENDOHER LODGE, BALLYBODEN RD, RATHFARNHAM DUBLIN 16",Dublin,,"€360,000.00",No,No,Second-Hand Dwelling house /Apartment,,53.33306,-6.24889
01/03/2016,"21 MOUNT PLEASANT AVE, TURNERS CROSS, CORK",Cork,,"€240,000.00",No,No,Second-Hand Dwelling house /Apartment,,51.80556,-9.10417
23/12/2016,"9 THE AVENUE, RATHDALE, ENFIELD",Meath,,"€210,000.00",No,No,Second-Hand Dwelling house /Apartment,,53.4171526,-6.8274811
07/01/2016,"3 CLUAIN SI, COLLOONEY, CO SLIGO",Sligo,,"€190,000.00",No,No,Second-Hand Dwelling house /Apartment,,54.1819486,-8.4891781
05/08/2016,"9 LEIN GARDENS, ARTANE, DUBLIN 5",Dublin,,"€202,000.00",No,No,Second-Hand Dwelling house /Apartment,,53.33306,-6.24889
26/05/2016,"BRANSTOWN, DUNSHAUGHLIN, CO MEATH",Meath,,"€310,000.00",No,No,Second-Hand Dwelling house /Apartment,,53.5125,-6.54
09/11/2016,"APT 6, CHAMBERS COURT, CAVENDISH LANE",Mayo,,"€34,000.00",No,No,Second-Hand Dwelling house /Apartment,,53.75977,-9.11719
08/12/2016,"CARRON, CASHEL, TIPPERARY",Tipperary,,"€217,500.00",No,No,Second-Hand Dwelling house /Apartment,,52.4985071,-8.1906149
15/06/2016,"31 BALTIMORE HOLIDAY HOMES, BALTIMORE, CORK",Cork,,"€170,000.00",No,No,Second-Hand Dwelling house /Apartment,,51.48333,-9.36667
09/12/2016,"KILMORNA, LISTOWEL, CO KERRY",Kerry,,"€110,000.00",No,No,Second-Hand Dwelling house /Apartment,,52.431111,-9.375833
17/02/2016,"120 GALTYMORE RD, DUBLIN 12, DUBLIN",Dublin,,"€150,000.00",No,No,Second-Hand Dwelling house /Apartment,,53.334955,-6.3157084
03/06/2016,"COLLA RD, SCHULL, CORK",Cork,,"€155,000.00",No,No,Second-Hand Dwelling house /Apartment,,51.510013,-9.5474132
31/08/2016,"5 BRIDGE VIEW, NEWFOUNDWELL RD, DROGHEDA",Louth,,"€200,000.00",No,No,Second-Hand Dwelling house /Apartment,,53.71889,-6.34778
29/06/2016,"JOHNS AVE, CORK RD, NEWPORT",Tipperary,,"€250,000.00",No,No,Second-Hand Dwelling house /Apartment,,52.47333,-8.15583
26/04/2016,"29 THE AVENUE, CLONATTIN VILLAGE, GOREY",Wexford,,"€147,000.00",No,No,Second-Hand Dwelling house /Apartment,,52.67472,-6.2925
11/04/2016,"BALLYCLOUGHAN, CARRIGHBOY, CO LONGFORD",Longford,,"€65,000.00",No,No,Second-Hand Dwelling house /Apartment,,53.72536,-7.79823
02/03/2016,"APT 8, BROADLEAF, BROADSTREET",Limerick,,"€50,000.00",No,No,Second-Hand Dwelling house /Apartment,,52.66472,-8.62306
09/05/2016,"1 HAZEL COURT, BELLFIELD, FERRYBANK",Kilkenny,,"€130,000.00",No,No,Second-Hand Dwelling house /Apartment,,52.26444,-7.10778
12/05/2016,"1 BRINKWATER HOUSE, QUINCENTENNIAL DR, SALTHILL",Galway,,"€70,000.00",Yes,No,Second-Hand Dwelling house /Apartment,,53.27194,-9.04889
22/06/2016,"104 BRANDON RD, DRIMNAGH, DUBLIN 12",Dublin,,"€254,000.00",No,No,Second-Hand Dwelling house /Apartment,,53.33306,-6.24889
08/04/2016,"5 Diswellstownway, Hamilton Park, Castleknock",Dublin,,"€431,513.41",No,Yes,New Dwelling house /Apartment,greater than 125 sq metres,53.33306,-6.24889
28/06/2016,"BOG ROAD, PORTARLINGTON, CO OFFALY",Offaly,,"€150,000.00",No,No,Second-Hand Dwelling house /Apartment,,53.25,-7.5
17/02/2016,"48 KING ST, WEXFORD, WEXFORD",Wexford,,"€25,000.00",No,No,Second-Hand Dwelling house /Apartment,,52.3345313,-6.4593968
12/07/2016,"19 WATERMILL LAWN, RAHENY, DUBLIN 5",Dublin,,"€660,000.00",No,No,Second-Hand Dwelling house /Apartment,,53.3768697,-6.1690424
11/03/2016,"KNOCKMULLEN, ROSBERCON, WEXFORD",Wexford,,"€120,000.00",No,No,Second-Hand Dwelling house /Apartment,,52.39972,-6.94778
08/04/2016,"APT 1, 13 PHIBSBORO, PHIBSBORO DUBLIN 7",Dublin,,"€258,657.00",No,No,Second-Hand Dwelling house /Apartment,,53.3620768,-6.272955
17/08/2016,"30 THE WARREN, MALAHIDE, DUBLIN",Dublin,,"€493,000.00",No,No,Second-Hand Dwelling house /Apartment,,53.4506095,-6.1830011
18/02/2016,"13 FERN DR, CASTLE HEIGHT, CARRIGALINE",Cork,,"€168,000.00",No,No,Second-Hand Dwelling house /Apartment,,51.81167,-8.39861
27/06/2016,"11 THE STARLINGS, SHANGANAGH ROAD, SHANKILL",Dublin,,"€425,000.00",No,No,Second-Hand Dwelling house /Apartment,,53.33306,-6.24889
26/01/2016,"8  Wainsfort, Rochestown",Cork,,"€300,000.00",No,No,Second-Hand Dwelling house /Apartment,,51.8763132,-8.4169546
22/11/2016,"10 Elder Heath View, Elder Heath, Kiltipper Road",Dublin,,"€335,000.00",No,Yes,New Dwelling house /Apartment,greater than or equal to 38 sq metres and less than 125 sq metres,53.33306,-6.24889
21/03/2016,"74 Elden, Maryborough Hill, Douglas",Cork,,"€367,625.00",No,Yes,New Dwelling house /Apartment,greater than 125 sq metres,51.87444,-8.435
06/04/2016,"OVIDSTOWN, DONADEA, KILDARE",Kildare,,"€196,000.00",No,No,Second-Hand Dwelling house /Apartment,,53.35028,-6.74583
08/04/2016,"48 Sion Hill Park, Drumcondra, Dublin 9",Dublin,,"€510,350.00",No,Yes,New Dwelling house /Apartment,greater than or equal to 38 sq metres and less than 125 sq metres,53.3768008,-6.2375549
21/09/2016,"47 BRIDGETOWN CLOSE, CASTLEMARTYR, CORK",Cork,,"€165,000.00",No,No,Second-Hand Dwelling house /Apartment,,51.9096812,-8.0509063
20/04/2016,"33 CHARLES ST WEST, DUBLIN 7, DUBLIN",Dublin,,"€280,000.00",No,No,Second-Hand Dwelling house /Apartment,,53.3459803,-6.2719587
29/02/2016,"12 ARDAGH GROVE, BLACKROCK, DUBLIN",Dublin,,"€565,000.00",No,No,Second-Hand Dwelling house /Apartment,,53.2837001,-6.185593
18/08/2016,"60 DUN DARRACH, DUBLIN ROAD, LONGFORD",Longford,,"€70,000.00",No,No,Second-Hand Dwelling house /Apartment,,53.72536,-7.79823
04/07/2016,"12 UILINN, MOYCULLEN, GALWAY",Galway,,"€250,000.00",No,No,Second-Hand Dwelling house /Apartment,,53.33783,-9.18002
03/11/2016,"NEWTOWN, DRANGAN, THURLES",Tipperary,,"€180,000.00",No,No,Second-Hand Dwelling house /Apartment,,52.47333,-8.15583
26/10/2016,"27 Ausling Court, Donegal Road, Ballybofey",Donegal,,"€59,123.57",No,Yes,New Dwelling house /Apartment,greater than or equal to 125 sq metres,54.8,-7.78333
24/05/2016,"LISNEAVE, ROCKY RD, WICKLOW",Wicklow,,"€350,000.00",No,No,Second-Hand Dwelling house /Apartment,,52.975,-6.04944
12/12/2016,"22 IONA AVE, THURLES, TIPPERARY",Tipperary,,"€77,500.00",No,No,Second-Hand Dwelling house /Apartment,,52.6755199,-7.8191558
22/01/2016,"57 Lakelands, Cullenagh, Ballina",Tipperary,,"€222,000.00",No,Yes,New Dwelling house /Apartment,greater than or equal to 38 sq metres and less than 125 sq metres,52.8165734,-8.4439396
24/06/2016,"20 CHRISTENDOM SQUARE, FERRYBANK, COUNTY KILKENNY",Kilkenny,,"€105,000.00",No,No,Second-Hand Dwelling house /Apartment,,52.26444,-7.10778
27/04/2016,"2 RICHMOND SQUARE, MORNING STAR AVENUE, DUBLIN 7",Dublin,,"€150,000.00",No,No,Second-Hand Dwelling house /Apartment,,53.33306,-6.24889
12/12/2016,"ARD NA GRENA, STRABANE RD, RAPHOE",Donegal,,"€158,000.00",No,No,Second-Hand Dwelling house /Apartment,,54.87472,-7.59833
15/12/2016,"35 DOWNSHIRE PLACE, EDENDERRY, CO OFFALY",Offaly,,"€68,000.00",No,No,Second-Hand Dwelling house /Apartment,,53.34528,-7.04972
06/05/2016,"41 RYE ABBEY, CONNAUGHT ST, KILCOCK",Kildare,,"€42,500.00",No,No,Second-Hand Dwelling house /Apartment,,53.40222,-6.67083
22/03/2016,"UNIT 4 SONAS VILLAGE, SONAS CARE CENTRE, CLONGHONBOY",Westmeath,,"€47,000.00",No,No,Second-Hand Dwelling house /Apartment,,53.5,-7.5
07/12/2016,"KEASH RD, BALLYMOTE, SLIGO",Sligo,,"€36,000.00",No,No,Second-Hand Dwelling house /Apartment,,54.085878,-8.5114267
23/09/2016,"24 PEBBLE GROVE, PEBBLE BEACH, TRAMORE",Waterford,,"€80,000.00",No,No,Second-Hand Dwelling house /Apartment,,52.16235,-7.15244
15/12/2016,"37 ASHLEIGH GROVE, KNOCKNACARRA, GALWAY",Galway,,"€240,000.00",No,No,Second-Hand Dwelling house /Apartment,,53.2654087,-9.1152283
01/03/2016,"2 FAIRGATE, NEW ROSS, CO WEXFORD",Wexford,,"€45,000.00",No,No,Second-Hand Dwelling house /Apartment,,52.39667,-6.93667
15/01/2016,"24 GLENVIEW SQ, TIPPERARY TOWN, TIPPERARY",Tipperary,,"€89,000.00",Yes,No,Second-Hand Dwelling house /Apartment,,52.4681643,-8.1576537
21/06/2016,"NO. 11 LAKEVIEW, HOLIDAY COTTAGES, KILLALOE",Clare,,"€137,000.00",No,No,Second-Hand Dwelling house /Apartment,,52.80667,-8.44361
23/11/2016,"23 THE FAIRWAYS, POLLERTON LITTLE, CARLOW",Carlow,,"€160,000.00",No,No,Second-Hand Dwelling house /Apartment,,52.8472755,-6.8970401
12/05/2016,"3 THE MOORINGS, FITZWILLIAM QUAY, DUBLIN",Dublin,,"€271,000.00",No,No,Second-Hand Dwelling house /Apartment,,53.33306,-6.24889
07/04/2016,"71 SHREWSBURY MANOR, GREENHILLS, DROGHEDA",Louth,,"€172,000.00",No,No,Second-Hand Dwelling house /Apartment,,53.71889,-6.34778
19/08/2016,"WESTBURY, BEAUMONT DR, BALLINTEMPLE",Cork,,"€595,000.00",No,No,Second-Hand Dwelling house /Apartment,,51.89306,-8.43528
21/04/2016,"BLUE MEADOW COTTAGE, COORYLEARY, BANTRY",Cork,,"€200,000.00",No,No,Second-Hand Dwelling house /Apartment,,51.68333,-9.45
01/04/2016,"APT E, MABBOT HOUSE, 91 LOWER GARDINER STREET REAR",Dublin,,"€132,500.00",No,No,Second-Hand Dwelling house /Apartment,,53.33306,-6.24889
07/10/2016,"ANCHORAGE, LAWRENCE COVE, BERE ISLAND",Cork,,"€275,000.00",No,No,Second-Hand Dwelling house /Apartment,,51.63583,-9.88139
12/07/2016,"STREAMSTOWN, WESTPORT, CO MAYO",Mayo,,"€55,000.00",Yes,No,Second-Hand Dwelling house /Apartment,,53.7847722,-9.5661965
05/02/2016,"5 Gleann Bui, Ballymacoda",Cork,,"€93,000.00",No,Yes,New Dwelling house /Apartment,greater than or equal to 38 sq metres and less than 125 sq metres,51.89,-7.9325
25/11/2016,"367 SOUTH CIRCULAR RD, DUBLIN 8, DUBLIN",Dublin,,"€285,000.00",No,No,Second-Hand Dwelling house /Apartment,,53.3359568,-6.2975421
19/10/2016,"48A LAKE DR, KILMINCHY, PORTLAOISE",Laois,,"€95,000.00",No,No,Second-Hand Dwelling house /Apartment,,53.03441,-7.29979
17/05/2016,"18 GRIFFITH AVE, DRUMCONDRA, DUBLIN 9",Dublin,,"€615,250.00",No,No,Second-Hand Dwelling house /Apartment,,53.3690616,-6.2299736
18/11/2016,"13 ISLAND VIEW, MALAHIDE, DUBLIN",Dublin,,"€475,000.00",No,No,Second-Hand Dwelling house /Apartment,,53.4486828,-6.1412916
17/02/2016,"11 The Links, Elm Park, Merrion Road",Dublin,,"€9,173,500.00",No,No,Second-Hand Dwelling house /Apartment,,53.33306,-6.24889
09/03/2016,"79 AGHNAHARNA, STRADBALLY RD, PORTLAOISE",Laois,,"€212,000.00",No,No,Second-Hand Dwelling house /Apartment,,53.03441,-7.29979
20/01/2016,"30 KILCARRIG CRESCENT, TALLAGHT, DUBLIN 24",Dublin,,"€104,000.00",No,No,Second-Hand Dwelling house /Apartment,,53.2928452,-6.3915924
10/02/2016,"SUMMERHILL (NUMBER 2), CARRICK-ON-SHANNON, COUNTY LEITRIM",Leitrim,,"€150,000.00",No,No,Second-Hand Dwelling house /Apartment,,53.94694,-8.09
18/05/2016,"7A PATRICKS HILL, CORK",Cork,,"€720,000.00",No,No,Second-Hand Dwelling house /Apartment,,51.89797,-8.47061
11/10/2016,"BARRACK ST, BALLYMACARBERY, CLONMEL",Waterford,,"€55,000.00",No,No,Second-Hand Dwelling house /Apartment,,52.25833,-7.11194
09/12/2016,"11 Forge Green, Lusk",Dublin,,"€320,000.00",No,Yes,New Dwelling house /Apartment,greater than or equal to 38 sq metres and less than 125 sq metres,53.5205217,-6.1664095
28/04/2016,"2 CENTAUR COURT, CENTAUR ST, CARLOW",Carlow,,"€45,000.00",No,No,Second-Hand Dwelling house /Apartment,,52.84083,-6.92611
22/03/2016,"3 CUL A BALLA, RIVER LANE, CARLINGFORD",Louth,,"€139,207.04",No,Yes,New Dwelling house /Apartment,greater than or equal to 38 sq metres and less than 125 sq metres,54.04,-6.18833
05/10/2016,"KYLEMORE HOUSE, DUBLIN RD, SWORDS",Dublin,,"€835,000.00",No,No,Second-Hand Dwelling house /Apartment,,53.33306,-6.24889
01/04/2016,"30 Castle Park, Termonfeckin",Louth,,"€198,237.00",No,Yes,New Dwelling house /Apartment,greater than or equal to 38 sq metres and less than 125 sq metres,53.76333,-6.26778
15/07/2016,"30 ROCKHILL AVENUE, SALTHILL, GALWAY",Galway,,"€535,000.00",No,No,Second-Hand Dwelling house /Apartment,,53.2633347,-9.0788683
11/07/2016,"48 THE ANCHORAGE, CLARENCE ST, DUN LAOGHAIRE",Dublin,,"€320,000.00",No,No,Second-Hand Dwelling house /Apartment,,53.33306,-6.24889
16/06/2016,"FINTRA COTTAGE, GORTNAMUCK, LARGYSALLAGH",Donegal,,"€217,000.00",No,No,Second-Hand Dwelling house /Apartment,,54.91667,-8.0
01/04/2016,"STONEHOUSE, POLLREVAGH DOONLAUGHAN, BALLYCONNEELY",Galway,,"€575,000.00",No,No,Second-Hand Dwelling house /Apartment,,53.43333,-10.06667
28/01/2016,"3 Colbert Park, Janesboro, Limerick",Limerick,,"€75,000.00",No,No,Second-Hand Dwelling house /Apartment,,52.66472,-8.62306
06/05/2016,"18 PEBBLE PLACE, PEBBLE BEACH, TRAMORE",Waterford,,"€70,000.00",No,No,Second-Hand Dwelling house /Apartment,,52.16235,-7.15244
27/05/2016,"65 DEERPARK CLOSE, TALLAGHT, DUBLIN 24",Dublin,,"€137,000.00",No,No,Second-Hand Dwelling house /Apartment,,53.2707673,-6.3770996
29/07/2016,"2 WHITEHILL, MUFF, DONEGAL",Donegal,,"€113,500.00",No,No,Second-Hand Dwelling house /Apartment,,55.0697286,-7.2704434
19/11/2016,"31 THE CRESCENT, CASTLE ROCK, MIDLETON",Cork,,"€325,000.00",No,No,Second-Hand Dwelling house /Apartment,,51.9103364,-8.2001874
10/11/2016,"No 7 The Downs, Keenaghan, Ballymote",Sligo,,"€88,061.68",No,Yes,New Dwelling house /Apartment,greater than or equal to 38 sq metres and less than 125 sq metres,54.083248,-8.511529
29/10/2016,"30 RUSSELL CRT, BALLYKEEFE, FR RUSSELL RD",Limerick,,"€178,500.00",No,No,Second-Hand Dwelling house /Apartment,,52.66472,-8.62306
04/07/2016,"19 THE MANOR, EDENDERRY, OFFALY",Offaly,,"€195,000.00",No,No,Second-Hand Dwelling house /Apartment,,53.34528,-7.04972
25/08/2016,"104 THE ISLAND, MARTINS ROW, CHAPELIZOD DUBLIN 20",Dublin,,"€180,000.00",No,No,Second-Hand Dwelling house /Apartment,,53.33306,-6.24889
14/12/2016,"4 NEW ROW, NEW BUILDING LANE, KILKENNY",Kilkenny,,"€55,000.00",No,No,Second-Hand Dwelling house /Apartment,,52.65417,-7.25222
31/08/2016,"2 MARINO PARK, THE ELMS, MOUNT MERRION AVE",Dublin,,"€1,015,000.00",No,No,Second-Hand Dwelling house /Apartment,,53.33306,-6.24889
16/05/2016,"103 DULEEK ST, DROGHEDA, LOUTH",Louth,,"€120,000.00",Yes,No,Second-Hand Dwelling house /Apartment,,53.7100626,-6.3492599
09/12/2016,"51 Stamanaran, Old Golf Links Road, Blackrock",Louth,,"€164,350.00",No,Yes,New Dwelling house /Apartment,greater than or equal to 38 sq metres and less than 125 sq metres,53.96405,-6.36514
02/09/2016,"8 THE STRANDS, CIRCULAR RD, KILKEE",Clare,,"€140,000.00",No,No,Second-Hand Dwelling house /Apartment,,52.67917,-9.64417
16/09/2016,"21 Millbourne Close, Slane Road, Ashbourne",Meath,,"€242,290.74",No,Yes,New Dwelling house /Apartment,greater than or equal to 38 sq metres and less than 125 sq metres,53.51163,-6.39821
26/05/2016,"MAIN ST, LAGHEY, DONEGAL",Donegal,,"€107,500.00",No,No,Second-Hand Dwelling house /Apartment,,54.65,-8.11667
14/04/2016,"GRAFFOGUE, SCRAMOGUE, ROSCOMMON",Roscommon,,"€36,000.00",No,No,Second-Hand Dwelling house /Apartment,,53.63333,-8.18333
26/07/2016,"64 MAOILIN, BALLYMONEEN ROAD, KNOCKNACARA",Galway,,"€281,939.00",No,Yes,New Dwelling house /Apartment,greater than 125 sq metres,53.27194,-9.04889
02/02/2016,"6 PARKLANDS, NEW RD, WESTPORT",Mayo,,"€45,000.00",No,No,Second-Hand Dwelling house /Apartment,,53.8,-9.51667
12/07/2016,"APT 4, KILDERRY HOUSE, FAIRHILL RD LOWER",Galway,,"€90,000.00",Yes,No,Second-Hand Dwelling house /Apartment,,53.2694717,-9.0575652
21/11/2016,"42 Belarmine Grove, Belarmaine Woods, Stepaside",Dublin,,"€365,639.00",No,Yes,New Dwelling house /Apartment,greater than or equal to 38 sq metres and less than 125 sq metres,53.33306,-6.24889
06/12/2016,"COLWYN, 15 ROSSANA CLOSE, ASHFORD",Wicklow,,"€320,000.00",No,No,Second-Hand Dwelling house /Apartment,,53.00833,-6.11139
06/12/2016,"GARRYNACURRA, CRATLOE, CLARE",Clare,,"€925,000.00",No,No,Second-Hand Dwelling house /Apartment,,52.695,-8.75972
21/07/2016,"66 BEACHDALE, KILCOOLE, CO WICKLOW",Wicklow,,"€370,000.00",No,No,Second-Hand Dwelling house /Apartment,,53.1052866,-6.062124
18/07/2016,"52 Ballygossan park, Golf Links Road, Skerries",Dublin,,"€325,991.18",No,Yes,New Dwelling house /Apartment,greater than 125 sq metres,53.33306,-6.24889
14/06/2016,"35 RIVERSIDE APTS, CASTLEREA, ROSCOMMON",Roscommon,,"€27,500.00",No,No,Second-Hand Dwelling house /Apartment,,53.76667,-8.5
13/05/2016,"50 KILWARDEN COURT, BOOT RD, CLONDALKIN",Dublin,,"€85,000.00",No,No,Second-Hand Dwelling house /Apartment,,53.33306,-6.24889
16/09/2016,"2 Castleland Park Place, Balbriggan",Dublin,,"€207,048.00",No,Yes,New Dwelling house /Apartment,greater than or equal to 38 sq metres and less than 125 sq metres,53.5981471,-6.1798368
